time_boot_ms,xacc,yacc,zacc,xgyro,ygyro,zgyro,xmag,ymag,zmag
6170,698,-545,-580,551,1182,-275,32767,32767,32767
6470,581,-545,-557,877,-147,477,32767,32767,32767
6770,539,-499,-648,48,56,162,32767,32767,32767
7070,541,-524,-788,49,367,-1378,32767,32767,32767
7170,534,-399,-645,1933,509,-285,32767,32767,32767
7280,625,-447,-745,1606,-105,471,32767,32767,32767
7380,551,-530,-582,1515,-388,31,32767,32767,32767
7480,523,-615,-662,653,-377,-201,32767,32767,32767
7580,533,-639,-709,269,39,-623,32767,32767,32767
7680,501,-519,-584,284,1120,-754,32767,32767,32767
7970,756,-420,-479,-1419,1963,-441,32767,32767,32767
8170,744,-354,-434,-409,1303,-562,32767,32767,32767
8270,836,-266,-429,-720,1232,-343,32767,32767,32767
8370,870,-25,-345,-282,167,-375,32767,32767,32767
8470,905,-243,-472,1014,215,949,32767,32767,32767
8570,901,-250,-576,-233,703,466,32767,32767,32767
8670,884,-293,-444,185,1318,127,32767,32767,32767
8770,452,-98,-908,532,843,110,32767,32767,32767
8870,883,-212,-121,1323,1057,-23,32767,32767,32767
8970,1016,-266,-87,-44,1654,-984,32767,32767,32767
9070,987,-245,-53,510,822,-41,32767,32767,32767
9170,1062,-161,-20,-123,1181,-434,32767,32767,32767
9270,895,-200,68,-76,934,-123,32767,32767,32767
9370,1029,-131,145,-34,716,-531,32767,32767,32767
9470,1082,-173,69,355,75,582,32767,32767,32767
9570,966,-214,82,477,-194,403,32767,32767,32767
9670,985,-285,-19,776,-562,324,32767,32767,32767
9770,1020,-308,-109,716,-550,518,32767,32767,32767
9870,924,-408,-180,1172,-650,722,32767,32767,32767
9970,923,-420,-167,558,-305,760,32767,32767,32767
10070,805,-531,-269,-544,562,131,32767,32767,32767
10170,864,-438,-260,-1154,538,-368,32767,32767,32767
10270,875,-375,-283,-232,770,-10,32767,32767,32767
10370,960,-391,-306,-954,1373,-81,32767,32767,32767
10470,933,-347,-300,-1320,511,225,32767,32767,32767
10570,870,-361,-296,-695,1169,1099,32767,32767,32767
10670,906,-429,-128,-544,702,90,32767,32767,32767
10770,823,-527,-252,8,8,220,32767,32767,32767
10870,862,-516,-274,98,-234,110,32767,32767,32767
10970,898,-455,-279,38,874,-265,32767,32767,32767
11070,886,-501,-266,310,1037,-205,32767,32767,32767
11170,888,-483,-212,90,538,-133,32767,32767,32767
11270,909,-452,-151,203,677,-36,32767,32767,32767
11370,859,-491,-213,296,736,9,32767,32767,32767
11470,924,-510,-146,538,312,137,32767,32767,32767
11570,871,-506,-162,595,339,0,32767,32767,32767
11670,859,-505,-160,404,149,6,32767,32767,32767
11770,857,-523,-166,661,-624,253,32767,32767,32767
11870,960,-478,-316,991,-1707,75,32767,32767,32767
11970,773,-632,-477,692,-2042,-769,32767,32767,32767
12180,693,-578,-550,767,-147,347,32767,32767,32767
12270,538,-603,-513,427,-76,279,32767,32767,32767
12370,496,-636,-596,-109,-235,303,32767,32767,32767
12470,479,-633,-629,96,786,319,32767,32767,32767
12570,529,-610,-567,111,795,13,32767,32767,32767
12670,543,-631,-617,450,534,-35,32767,32767,32767
12770,532,-620,-588,456,784,-101,32767,32767,32767
12870,568,-603,-539,407,582,-131,32767,32767,32767
12970,581,-618,-541,244,630,-132,32767,32767,32767
13070,614,-614,-551,375,471,-136,32767,32767,32767
13170,582,-628,-557,383,308,-91,32767,32767,32767
13270,597,-618,-540,406,307,-30,32767,32767,32767
13370,625,-613,-532,342,315,-53,32767,32767,32767
13470,606,-618,-496,404,265,34,32767,32767,32767
13570,562,-639,-535,514,-232,-140,32767,32767,32767
13670,612,-618,-562,606,361,-435,32767,32767,32767
13770,633,-617,-547,385,631,-300,32767,32767,32767
13870,659,-604,-490,425,-28,-282,32767,32767,32767
13970,571,-562,-532,230,411,-42,32767,32767,32767
14070,741,-522,-444,38,864,-153,32767,32767,32767
14170,648,-576,-490,88,1516,-498,32767,32767,32767
14270,805,-553,-470,370,519,-2,32767,32767,32767
14370,722,-520,-336,127,1279,-236,32767,32767,32767
14570,812,-434,-354,-108,1500,-315,32767,32767,32767
14770,895,-488,-192,211,-546,15,32767,32767,32767
14970,919,-264,-377,1016,-453,-386,32767,32767,32767
15070,941,-285,-333,802,-246,146,32767,32767,32767
15370,823,-419,-472,367,556,306,32767,32767,32767
15670,854,-437,-304,226,304,-341,32767,32767,32767
15980,834,-442,-371,411,184,38,32767,32767,32767
16280,820,-435,-369,668,1045,-997,32767,32767,32767
16570,878,-368,-290,444,-258,241,32767,32767,32767
16870,807,-442,-387,261,162,-59,32767,32767,32767
17170,990,-266,-177,407,1161,-809,32767,32767,32767
17470,937,-295,-217,202,248,73,32767,32767,32767
17770,926,-367,-300,404,477,21,32767,32767,32767
18070,1028,-336,-4,-637,1098,420,32767,32767,32767
18370,981,-395,-229,-1486,1160,658,32767,32767,32767
18670,893,-476,-374,-774,1083,122,32767,32767,32767
18970,817,-500,-235,488,529,-105,32767,32767,32767
19270,846,-489,-193,440,351,-215,32767,32767,32767
19570,920,-454,-186,309,401,-95,32767,32767,32767
19870,887,-433,-342,959,166,-133,32767,32767,32767
20170,924,-276,-320,2485,-1149,-359,32767,32767,32767
20470,974,-281,-197,2643,-830,-1093,32767,32767,32767
20770,1050,-324,126,2076,671,-618,32767,32767,32767
21070,949,-352,105,191,382,56,32767,32767,32767
21370,935,-377,-201,560,-884,45,32767,32767,32767
21670,958,-448,-192,568,286,-111,32767,32767,32767
21970,911,-438,-151,305,318,-25,32767,32767,32767
22270,933,-421,-226,292,478,-60,32767,32767,32767
22570,939,-427,-217,298,346,-70,32767,32767,32767
22870,875,-452,-158,388,575,77,32767,32767,32767
23170,825,-487,-208,469,318,73,32767,32767,32767
23470,889,-454,-162,320,374,-60,32767,32767,32767
23770,892,-470,-203,347,308,0,32767,32767,32767
24070,946,-476,-114,441,212,-302,32767,32767,32767
24370,833,-379,-279,795,13,-34,32767,32767,32767
24670,918,-502,-16,1411,-125,205,32767,32767,32767
24970,894,-460,46,-56,550,41,32767,32767,32767
25270,840,-544,-273,332,565,-198,32767,32767,32767
25570,809,-522,-162,358,213,-61,32767,32767,32767
25870,879,-517,-116,-90,460,-63,32767,32767,32767
26170,905,-432,16,-289,650,17,32767,32767,32767
26470,1001,-438,-300,331,299,-284,32767,32767,32767
26770,946,-392,-69,761,360,-170,32767,32767,32767
27070,983,-422,-64,-57,500,40,32767,32767,32767
27370,960,-265,144,-1587,1014,-273,32767,32767,32767
27670,997,-275,-291,-1601,1162,-10,32767,32767,32767
27970,1029,-270,-162,-488,951,-138,32767,32767,32767
28270,971,-296,-271,430,27,-97,32767,32767,32767
28570,923,-135,-203,1743,-718,-356,32767,32767,32767
28870,831,-117,-283,1826,410,-37,32767,32767,32767
29170,1146,-174,82,887,1097,256,32767,32767,32767
29470,1043,-180,84,347,-407,183,32767,32767,32767
29770,1036,-275,-193,485,600,-164,32767,32767,32767
30080,895,-210,-110,1445,-231,282,32767,32767,32767
30380,1100,-270,10,0,811,-236,32767,32767,32767
30680,996,-269,0,-201,568,-34,32767,32767,32767
30980,988,-282,-108,85,496,-161,32767,32767,32767
31280,1033,-155,138,491,399,-315,32767,32767,32767
31570,1052,-231,25,196,117,-113,32767,32767,32767
31870,1000,-88,30,-979,328,667,32767,32767,32767
32170,982,-172,-286,-1142,467,389,32767,32767,32767
32470,843,-335,-350,-784,1209,-86,32767,32767,32767
32770,895,-345,-430,148,616,-115,32767,32767,32767
33070,895,-356,-361,385,660,-17,32767,32767,32767
33370,874,-128,28,-386,232,-665,32767,32767,32767
33670,881,-328,-370,570,84,-39,32767,32767,32767
33970,952,-297,-353,170,-574,861,32767,32767,32767
34270,786,-375,-511,350,333,-193,32767,32767,32767
34570,803,-341,-552,255,164,28,32767,32767,32767
34870,855,-303,-525,44,431,358,32767,32767,32767
35170,875,-281,-505,347,712,-225,32767,32767,32767
35370,908,-239,-457,172,390,-83,32767,32767,32767
35470,867,-287,-488,644,544,-243,32767,32767,32767
35570,904,-262,-428,706,1257,-419,32767,32767,32767
35670,1019,-198,-250,456,1660,-275,32767,32767,32767
35770,1122,-228,-149,132,2500,236,32767,32767,32767
35870,1088,-231,166,133,3876,1174,32767,32767,32767
35970,644,-401,590,500,2225,911,32767,32767,32767
36070,629,-365,400,-115,340,360,32767,32767,32767
36170,882,-466,413,321,741,-277,32767,32767,32767
36270,759,-536,461,-364,1235,-124,32767,32767,32767
36370,738,-529,394,320,629,-92,32767,32767,32767
36470,736,-437,562,1375,292,38,32767,32767,32767
36570,698,-474,330,2596,-968,276,32767,32767,32767
36670,869,-182,555,3317,-340,-736,32767,32767,32767
36770,1012,170,761,1992,330,-654,32767,32767,32767
36870,882,56,575,740,-50,440,32767,32767,32767
36970,890,9,608,15,472,200,32767,32767,32767
37070,943,-65,499,-128,390,473,32767,32767,32767
37170,857,-151,513,-4,625,600,32767,32767,32767
37270,829,-151,649,231,-143,1156,32767,32767,32767
37370,762,-363,416,782,-768,1100,32767,32767,32767
37470,833,-357,436,954,-874,892,32767,32767,32767
37570,864,-430,283,1179,-12,217,32767,32767,32767
37670,930,-395,328,1054,-287,536,32767,32767,32767
37770,900,-358,309,1245,-359,83,32767,32767,32767
37870,934,-300,324,1122,-13,215,32767,32767,32767
37970,830,-299,392,831,17,99,32767,32767,32767
38070,889,-305,403,667,-11,-151,32767,32767,32767
38170,958,-281,406,630,-135,-233,32767,32767,32767
38270,1003,-266,345,501,247,-372,32767,32767,32767
38370,1041,-259,300,320,451,-117,32767,32767,32767
38470,957,-300,210,123,188,378,32767,32767,32767
38570,873,-333,204,238,284,-27,32767,32767,32767
38670,972,-303,208,368,137,-200,32767,32767,32767
38770,985,-281,256,325,81,-87,32767,32767,32767
38870,946,-301,249,160,-254,-9,32767,32767,32767
38970,917,-289,187,-385,-645,139,32767,32767,32767
39070,1026,-252,13,-822,-725,-111,32767,32767,32767
39170,978,-290,-404,-1186,16,46,32767,32767,32767
39270,946,-276,-306,190,-2,393,32767,32767,32767
39370,858,-333,-264,424,292,-55,32767,32767,32767
39470,905,-274,-32,-93,2393,-578,32767,32767,32767
39570,1148,-271,-6,-21,2566,-186,32767,32767,32767
39670,978,-297,311,90,2243,477,32767,32767,32767
39770,868,-464,415,171,2115,1178,32767,32767,32767
39870,856,-401,444,481,1087,283,32767,32767,32767
39970,560,-437,532,-410,1987,-113,32767,32767,32767
40170,702,-430,719,1032,368,956,32767,32767,32767
40840,17,-529,825,163,681,-137,32767,32767,32767
41280,23,-589,832,204,505,11,32767,32767,32767
41370,10,-613,845,5,206,163,32767,32767,32767
41470,-20,-643,772,53,700,-76,32767,32767,32767
41570,-41,-632,736,194,814,-91,32767,32767,32767
41670,-60,-647,733,336,774,-149,32767,32767,32767
41770,-83,-641,751,341,452,-88,32767,32767,32767
41870,-82,-649,749,313,362,-11,32767,32767,32767
41970,-56,-672,791,86,283,122,32767,32767,32767
42070,-88,-694,734,16,629,-110,32767,32767,32767
42170,-109,-675,674,118,533,-95,32767,32767,32767
42270,-108,-690,701,310,515,-54,32767,32767,32767
42370,-146,-725,667,137,456,297,32767,32767,32767
42470,-77,-662,665,749,-169,-249,32767,32767,32767
42570,-70,-685,785,-275,-1248,-115,32767,32767,32767
42670,96,-774,720,-428,-1558,506,32767,32767,32767
42870,129,-847,528,361,249,404,32767,32767,32767
42970,73,-782,579,198,818,46,32767,32767,32767
43070,6,-812,544,122,636,-247,32767,32767,32767
43170,13,-826,599,461,547,-127,32767,32767,32767
43270,77,-765,569,360,646,-95,32767,32767,32767
43570,0,-791,635,358,966,-80,32767,32767,32767
43870,-80,-790,590,-34,262,-37,32767,32767,32767
44170,-124,-776,594,641,609,120,32767,32767,32767
44470,-209,-732,597,750,572,-42,32767,32767,32767
44770,-226,-756,643,-161,228,46,32767,32767,32767
45070,-129,-806,643,408,-372,46,32767,32767,32767
45370,-137,-777,634,390,969,-77,32767,32767,32767
45670,-261,-713,537,71,818,50,32767,32767,32767
45970,-312,-731,486,340,681,-205,32767,32767,32767
46270,-306,-804,436,160,270,-68,32767,32767,32767
46570,-288,-847,500,310,-131,199,32767,32767,32767
46870,-267,-824,500,289,-1,-194,32767,32767,32767
47170,-214,-818,441,85,-182,-194,32767,32767,32767
47470,-150,-849,466,171,393,-37,32767,32767,32767
47770,62,-807,534,726,-1641,-641,32767,32767,32767
48070,237,-727,604,417,208,-538,32767,32767,32767
48370,443,-724,575,242,-144,-69,32767,32767,32767
48670,456,-719,599,345,341,21,32767,32767,32767
48970,243,-872,477,96,16,838,32767,32767,32767
49270,796,-812,284,356,-742,-1308,32767,32767,32767
49470,780,-569,67,-711,1512,-2356,32767,32767,32767
49570,999,-340,27,-2565,1288,-1433,32767,32767,32767
49670,936,-471,-108,-1076,500,-877,32767,32767,32767
49770,1079,-300,-87,-262,803,-521,32767,32767,32767
49870,1040,-297,46,259,1459,-352,32767,32767,32767
49970,1000,-245,77,412,1041,-239,32767,32767,32767
50070,1004,-267,97,485,975,26,32767,32767,32767
50170,953,-234,255,474,360,416,32767,32767,32767
50270,990,-244,100,475,-228,56,32767,32767,32767
50370,996,-263,170,564,-477,21,32767,32767,32767
50470,1000,-270,-17,577,-479,-64,32767,32767,32767
50570,991,-227,14,354,-975,182,32767,32767,32767
50670,951,-345,-203,1179,318,-613,32767,32767,32767
50770,1034,-220,-219,1058,208,-84,32767,32767,32767
50870,1040,-228,-106,315,310,1261,32767,32767,32767
50970,899,-395,-56,-262,226,1414,32767,32767,32767
51070,938,-541,-195,-852,-75,1681,32767,32767,32767
51170,594,-663,-228,-343,-466,1608,32767,32767,32767
51270,556,-708,-339,-181,-92,730,32767,32767,32767
51370,579,-711,-512,-47,312,151,32767,32767,32767
51470,488,-709,-537,364,991,192,32767,32767,32767
51570,612,-816,-319,-374,159,577,32767,32767,32767
51670,557,-743,-399,659,169,236,32767,32767,32767
51770,513,-784,-464,804,1197,-675,32767,32767,32767
51870,496,-743,-276,1429,1162,-88,32767,32767,32767
51970,689,-843,-194,895,1872,611,32767,32767,32767
52070,641,-819,-166,403,469,-244,32767,32767,32767
52170,599,-841,-222,632,-243,-168,32767,32767,32767
52270,633,-766,0,2213,-74,111,32767,32767,32767
52370,592,-679,107,1848,398,-1386,32767,32767,32767
52470,729,-611,310,1861,-384,-2151,32767,32767,32767
52570,881,-459,77,1713,-2249,-939,32767,32767,32767
52670,1031,-440,-116,634,-728,-899,32767,32767,32767
52770,908,-323,-272,838,-1313,526,32767,32767,32767
52870,872,-488,-406,215,-466,509,32767,32767,32767
53070,861,-529,-446,-27,-872,51,32767,32767,32767
53170,799,-169,-468,1533,-742,-1470,32767,32767,32767
53270,818,-575,-677,-69,-2802,554,32767,32767,32767
53370,336,-350,-857,198,-1714,1307,32767,32767,32767
53470,206,-394,-812,174,-696,1123,32767,32767,32767
53570,55,-419,-863,62,-788,1012,32767,32767,32767
53670,-18,-446,-866,40,-865,784,32767,32767,32767
53770,-330,-321,-831,-439,-1439,713,32767,32767,32767
53870,-419,-297,-885,619,224,-49,32767,32767,32767
53970,-292,-377,-872,701,72,-496,32767,32767,32767
54070,-212,-390,-835,-200,-1200,-146,32767,32767,32767
54170,-550,-243,-700,-649,-2349,-24,32767,32767,32767
54270,-797,-278,-655,-58,-39,-894,32767,32767,32767
54370,-577,-362,-585,129,289,-1209,32767,32767,32767
54470,-497,-281,-368,692,-492,-282,32767,32767,32767
54570,-699,-424,-522,1822,600,-790,32767,32767,32767
54670,-581,-676,-619,-302,1275,-1754,32767,32767,32767
54770,-365,-880,-617,100,-1300,-601,32767,32767,32767
54870,-705,-764,-163,4176,-990,123,32767,32767,32767
54970,-674,-704,-242,739,932,-462,32767,32767,32767
55070,-625,-721,-217,-192,-609,-1856,32767,32767,32767
55170,-326,-805,-250,-913,532,-2032,32767,32767,32767
55270,-138,-917,-535,235,-610,-617,32767,32767,32767
55370,-293,-890,-360,490,-168,-171,32767,32767,32767
55470,-264,-891,-380,308,191,-121,32767,32767,32767
55570,-324,-869,-367,-271,775,-221,32767,32767,32767
55670,-237,-799,-357,23,241,234,32767,32767,32767
55770,-253,-836,-468,-431,660,-226,32767,32767,32767
55870,-264,-791,-554,389,437,162,32767,32767,32767
55970,-307,-806,-479,1202,-318,438,32767,32767,32767
56070,-373,-860,-333,1206,-22,173,32767,32767,32767
56170,-333,-825,-216,96,146,-106,32767,32767,32767
56270,-412,-886,-352,-117,288,-436,32767,32767,32767
56370,-363,-843,-279,131,110,-179,32767,32767,32767
56470,-403,-854,-270,1067,-84,579,32767,32767,32767
56570,-445,-795,-238,1231,95,425,32767,32767,32767
56670,-458,-785,-140,949,-26,640,32767,32767,32767
56970,-592,-749,-230,-787,1893,-416,32767,32767,32767
57270,-936,-329,-373,236,152,1789,32767,32767,32767
57570,-879,-91,-382,545,791,162,32767,32767,32767
57870,-846,-134,-489,347,804,-28,32767,32767,32767
58170,-741,-190,-602,374,1298,-103,32767,32767,32767
58470,-611,-238,-785,690,1913,-397,32767,32767,32767
58770,-276,-309,-956,561,1091,111,32767,32767,32767
59070,-303,-329,-921,735,639,358,32767,32767,32767
59270,-285,-399,-852,1121,206,542,32767,32767,32767
59370,-328,-415,-835,176,465,142,32767,32767,32767
59470,-361,-391,-758,64,483,462,32767,32767,32767
59570,-314,-368,-827,-50,-135,382,32767,32767,32767
59670,-436,-288,-813,-158,-339,87,32767,32767,32767
59770,-470,-263,-785,137,139,-127,32767,32767,32767
59870,-354,-361,-829,566,758,-65,32767,32767,32767
59970,-367,-288,-872,355,980,-487,32767,32767,32767
60070,-344,-302,-761,77,277,405,32767,32767,32767
60170,-271,-412,-842,903,1052,133,32767,32767,32767
60270,-299,-352,-867,785,830,-171,32767,32767,32767
60370,-228,-376,-895,504,822,-74,32767,32767,32767
60470,-145,-460,-847,820,776,209,32767,32767,32767
60570,-175,-417,-791,625,764,360,32767,32767,32767
60670,-212,-436,-925,12,17,565,32767,32767,32767
60770,-398,-467,-777,1008,-2491,319,32767,32767,32767
60870,-430,-394,-725,882,663,209,32767,32767,32767
60970,-303,-635,-598,537,1247,-270,32767,32767,32767
61070,-240,-511,-767,1366,817,-364,32767,32767,32767
61170,-319,-558,-824,300,686,-8,32767,32767,32767
61270,-220,-535,-722,346,827,-148,32767,32767,32767
61370,-203,-588,-717,633,663,-122,32767,32767,32767
61470,-239,-680,-798,683,687,-80,32767,32767,32767
61570,-135,-675,-686,423,713,-135,32767,32767,32767
61670,-82,-665,-686,253,423,-34,32767,32767,32767
61770,-110,-625,-745,259,391,-87,32767,32767,32767
61870,-119,-655,-725,342,394,-75,32767,32767,32767
61970,-136,-653,-729,335,336,-40,32767,32767,32767
62070,-121,-645,-729,275,324,-57,32767,32767,32767
62170,-124,-650,-732,354,352,-54,32767,32767,32767
62270,-127,-650,-718,322,313,-68,32767,32767,32767
62370,-143,-647,-725,323,387,-50,32767,32767,32767
62470,-122,-656,-729,302,365,-73,32767,32767,32767
62570,-121,-650,-721,302,362,-55,32767,32767,32767
62670,-125,-649,-740,292,385,-35,32767,32767,32767
62770,-123,-647,-729,300,374,-64,32767,32767,32767
62870,-119,-636,-729,297,373,-61,32767,32767,32767
62970,-123,-641,-729,272,402,-64,32767,32767,32767
63070,-112,-641,-732,254,420,-38,32767,32767,32767
63170,-120,-653,-785,346,601,-207,32767,32767,32767
63270,-67,-610,-732,194,370,-84,32767,32767,32767
63370,-88,-638,-789,159,354,-51,32767,32767,32767
63470,-49,-613,-785,195,78,-15,32767,32767,32767
63570,-195,-558,-734,-696,-1608,136,32767,32767,32767
63670,-285,-545,-770,96,1,-64,32767,32767,32767
63870,-378,-443,-708,-546,-1781,-499,32767,32767,32767
63970,-698,-303,-645,-597,-1826,-470,32767,32767,32767
64070,-317,-637,-697,534,913,-1961,32767,32767,32767
64170,-393,-536,-606,192,-944,547,32767,32767,32767
64270,-571,-419,-487,-44,-809,112,32767,32767,32767
64370,-562,-424,-433,123,-723,-42,32767,32767,32767
64470,-958,-311,-469,-2009,-741,639,32767,32767,32767
64570,-797,-332,-507,-428,518,-1175,32767,32767,32767
64670,-731,-349,-513,264,634,-374,32767,32767,32767
64770,-694,-351,-580,-134,149,26,32767,32767,32767
64870,-627,-337,-565,-106,843,-61,32767,32767,32767
64970,-663,-231,-618,-95,-1118,638,32767,32767,32767
65070,-915,-231,-274,290,-1153,619,32767,32767,32767
65170,-917,-113,-588,-144,1674,922,32767,32767,32767
65270,-882,21,-485,-1089,5826,2050,32767,32767,32767
65370,202,235,-879,-248,3585,818,32767,32767,32767
65470,28,209,-937,638,-450,-1299,32767,32767,32767
65570,-289,-129,-929,895,261,-699,32767,32767,32767
65670,-46,491,-915,-248,2823,622,32767,32767,32767
65770,-220,335,-938,1365,4641,537,32767,32767,32767
65870,1394,-583,-69,935,6829,3154,32767,32767,32767
65970,989,-160,-358,-35,2542,-173,32767,32767,32767
66070,1067,-81,-92,355,2517,720,32767,32767,32767
66170,947,-220,12,967,-83,1780,32767,32767,32767
66270,881,-416,-88,686,-385,1293,32767,32767,32767
66370,801,-460,-90,589,113,212,32767,32767,32767
66470,847,-487,-62,-24,655,-23,32767,32767,32767
66570,941,-470,-108,93,83,219,32767,32767,32767
66670,817,-599,-172,195,446,205,32767,32767,32767
66770,934,-505,-43,297,286,21,32767,32767,32767
66870,912,-596,-181,345,971,178,32767,32767,32767
66970,953,-531,-43,560,2382,-357,32767,32767,32767
67070,833,-567,182,342,2068,159,32767,32767,32767
67170,741,-555,271,187,1659,106,32767,32767,32767
67270,710,-553,375,219,1284,177,32767,32767,32767
67370,670,-583,395,398,1715,190,32767,32767,32767
67470,669,-612,502,607,2004,257,32767,32767,32767
67570,539,-637,621,627,1551,615,32767,32767,32767
67670,347,-630,645,205,1714,345,32767,32767,32767
67770,270,-628,708,310,1544,-28,32767,32767,32767
67870,169,-647,754,302,119,-152,32767,32767,32767
67970,277,-651,701,329,468,62,32767,32767,32767
68070,208,-650,787,317,396,-197,32767,32767,32767
68170,269,-635,727,310,418,-54,32767,32767,32767
68270,241,-641,739,436,754,170,32767,32767,32767
68370,198,-661,800,414,652,106,32767,32767,32767
68470,145,-634,764,230,584,81,32767,32767,32767
68570,133,-656,745,131,493,94,32767,32767,32767
68670,108,-672,740,145,664,139,32767,32767,32767
68770,62,-688,716,191,638,40,32767,32767,32767
68870,43,-683,706,254,402,7,32767,32767,32767
68970,52,-689,731,355,261,-16,32767,32767,32767
69070,62,-689,741,391,106,-83,32767,32767,32767
69170,63,-696,748,287,37,-110,32767,32767,32767
69270,105,-704,738,359,-1011,-103,32767,32767,32767
69370,254,-702,665,390,-863,103,32767,32767,32767
69470,259,-669,578,437,-1407,-285,32767,32767,32767
69570,543,-590,559,357,-2750,-548,32767,32767,32767
69670,791,-606,312,457,-2462,-509,32767,32767,32767
69770,850,-640,227,-115,-959,-296,32767,32767,32767
69870,832,-542,139,-491,-392,-871,32767,32767,32767
70070,897,-405,-316,-2010,1024,-414,32767,32767,32767
70270,1086,-180,-66,-251,1073,-1330,32767,32767,32767
70370,1173,-113,2,289,720,-417,32767,32767,32767
70670,958,-145,186,263,715,-268,32767,32767,32767
70870,1072,-156,118,861,-1007,1038,32767,32767,32767
71070,934,-324,-103,58,6,451,32767,32767,32767
71270,1067,-313,150,-260,1184,-182,32767,32767,32767
71370,962,-361,-46,302,-238,266,32767,32767,32767
71470,1012,-363,6,398,-11,228,32767,32767,32767
71570,914,-385,-39,303,-1167,451,32767,32767,32767
71870,444,-762,-422,2336,-2115,1293,32767,32767,32767
72170,244,-929,-117,1059,47,-541,32767,32767,32767
72370,483,-755,-441,-1427,1667,-1600,32767,32767,32767
72670,194,-679,-731,-451,-1180,284,32767,32767,32767
72970,-61,-349,-922,-1700,-316,-923,32767,32767,32767
73280,-166,-272,-939,291,663,-376,32767,32767,32767
73370,-177,-249,-950,909,606,-100,32767,32767,32767
73470,-29,-427,-946,985,961,493,32767,32767,32767
73570,27,-429,-889,892,1712,-106,32767,32767,32767
73670,30,-384,-937,-652,-284,-249,32767,32767,32767
73770,88,-415,-988,270,-121,-22,32767,32767,32767
73870,-132,-294,-950,24,-830,-168,32767,32767,32767
73970,-168,-268,-883,317,-91,302,32767,32767,32767
74070,-125,-351,-924,561,-40,105,32767,32767,32767
74170,-96,-400,-902,288,209,-276,32767,32767,32767
74270,-162,-320,-894,124,-221,494,32767,32767,32767
74370,-185,-377,-934,488,364,195,32767,32767,32767
74470,-319,-305,-966,505,226,214,32767,32767,32767
74570,-345,-302,-815,783,640,-257,32767,32767,32767
74670,-169,-488,-838,632,354,211,32767,32767,32767
74770,-130,-464,-877,1105,1170,-237,32767,32767,32767
74870,-84,-474,-853,656,561,52,32767,32767,32767
74970,-64,-545,-858,987,1173,-63,32767,32767,32767
75070,-20,-624,-771,220,80,498,32767,32767,32767
75170,-35,-635,-818,528,754,917,32767,32767,32767
75370,-119,-546,-812,650,-224,-63,32767,32767,32767
75670,-200,-530,-854,1086,1058,20,32767,32767,32767
75970,-73,-695,-831,1001,1102,145,32767,32767,32767
76270,-42,-729,-598,277,549,-205,32767,32767,32767
76570,-16,-735,-566,277,155,-85,32767,32767,32767
76870,-118,-680,-682,-33,199,-331,32767,32767,32767
77170,-149,-666,-711,278,1261,-216,32767,32767,32767
77470,-45,-629,-729,658,738,-330,32767,32767,32767
77770,11,-681,-838,618,434,-592,32767,32767,32767
78070,-208,-521,-762,-310,-676,-805,32767,32767,32767
78370,-562,-445,-928,130,-570,-1019,32767,32767,32767
78470,-410,-471,-841,536,-559,-627,32767,32767,32767
78570,-291,-511,-637,467,-356,-497,32767,32767,32767
78670,-472,-512,-662,550,162,-360,32767,32767,32767
78770,-410,-528,-663,409,71,-198,32767,32767,32767
78870,-409,-522,-673,377,236,132,32767,32767,32767
78970,-520,-533,-635,381,228,355,32767,32767,32767
79070,-515,-535,-545,280,-22,340,32767,32767,32767
79170,-625,-498,-589,277,544,-47,32767,32767,32767
79270,-556,-495,-580,267,339,72,32767,32767,32767
79470,-297,-668,-589,327,568,-95,32767,32767,32767
79670,-341,-680,-707,431,764,-126,32767,32767,32767
79770,-317,-586,-685,90,174,-619,32767,32767,32767
79870,-280,-618,-798,124,-622,-125,32767,32767,32767
79970,-248,-669,-668,636,653,-452,32767,32767,32767
80070,-168,-669,-601,94,102,32,32767,32767,32767
80170,-298,-602,-670,458,20,1188,32767,32767,32767
80270,-389,-603,-710,123,965,339,32767,32767,32767
80370,-409,-619,-630,533,807,342,32767,32767,32767
80470,-420,-621,-587,-353,477,-72,32767,32767,32767
80570,-340,-450,-731,-1483,316,76,32767,32767,32767
80670,-291,-270,-796,-1741,456,130,32767,32767,32767
80770,-411,28,-1003,-1341,151,880,32767,32767,32767
80870,-362,-1,-940,1365,-746,1170,32767,32767,32767
80970,-577,-169,-1083,810,-2807,1425,32767,32767,32767
81070,-809,37,-181,1978,-2702,-343,32767,32767,32767
81170,-875,-54,-173,2362,-221,-15,32767,32767,32767
81470,-820,-178,-270,986,1573,-168,32767,32767,32767
81770,-921,-333,-389,1332,-1367,-589,32767,32767,32767
82070,-805,-287,454,444,-593,96,32767,32767,32767
82170,-850,-272,451,310,478,-270,32767,32767,32767
82270,-868,-292,467,550,791,-330,32767,32767,32767
82370,-859,-304,450,323,271,-149,32767,32767,32767
82470,-784,-318,420,311,-206,0,32767,32767,32767
82570,-802,-254,630,509,-1583,354,32767,32767,32767
82670,-651,-267,776,23,-860,145,32767,32767,32767
82770,-619,-307,676,-221,1239,-107,32767,32767,32767
82870,-631,-309,602,131,355,-385,32767,32767,32767
82970,-624,-409,491,255,398,-587,32767,32767,32767
83070,-601,-354,577,688,55,-12,32767,32767,32767
83170,-600,-312,596,613,631,157,32767,32767,32767
83270,-727,-275,744,14,978,-131,32767,32767,32767
83370,-632,-394,490,198,1356,-585,32767,32767,32767
83470,-720,-445,505,116,48,-247,32767,32767,32767
83570,-716,-401,684,900,-803,25,32767,32767,32767
83670,-641,-432,702,433,129,-588,32767,32767,32767
83770,-628,-400,571,176,1546,-1078,32767,32767,32767
83870,-541,-423,603,128,1383,-559,32767,32767,32767
83970,-594,-540,440,-256,1984,-364,32767,32767,32767
84070,-673,-646,335,1218,87,851,32767,32767,32767
84170,-742,-437,492,897,1007,-61,32767,32767,32767
84270,-802,-477,428,718,1147,-255,32767,32767,32767
84370,-757,-509,404,267,1754,-832,32767,32767,32767
84470,-774,-646,77,607,1811,-470,32767,32767,32767
84570,-721,-653,145,400,1562,-226,32767,32767,32767
84670,-739,-613,-33,448,1562,-398,32767,32767,32767
84770,-637,-613,-28,447,145,167,32767,32767,32767
84870,-684,-593,6,544,229,286,32767,32767,32767
84970,-835,-564,-63,149,428,182,32767,32767,32767
85270,-847,-515,8,-117,-574,335,32767,32767,32767
85570,-838,-456,39,151,207,40,32767,32767,32767
85870,-787,-497,0,194,198,-18,32767,32767,32767
86170,-840,-449,25,154,199,329,32767,32767,32767
86470,-859,-410,-9,90,403,200,32767,32767,32767
86680,-847,-399,-72,573,824,-85,32767,32767,32767
86770,-916,-336,-105,71,451,-84,32767,32767,32767
86870,-934,-364,-72,466,443,-63,32767,32767,32767
86970,-841,-415,-191,457,1293,-422,32767,32767,32767
87070,-865,-363,-145,470,975,-152,32767,32767,32767
87170,-779,-408,-282,-47,56,385,32767,32767,32767
87270,-808,-310,-204,-59,100,554,32767,32767,32767
87370,-919,-265,-147,842,978,15,32767,32767,32767
87480,-985,-259,-174,842,1160,-272,32767,32767,32767
87570,-829,-388,-238,593,398,-1,32767,32767,32767
87670,-802,-358,-271,344,416,-492,32767,32767,32767
87780,-846,-342,-260,253,331,-165,32767,32767,32767
87880,-874,-384,-220,900,1006,-1070,32767,32767,32767
87980,-727,-660,-333,854,42,-1100,32767,32767,32767
88080,-769,-535,-148,514,-529,-902,32767,32767,32767
88180,-535,-761,-162,156,-348,-1132,32767,32767,32767
88280,-597,-708,-163,148,-387,-854,32767,32767,32767
88380,-564,-767,-136,-171,-277,-517,32767,32767,32767
88480,-473,-782,-130,-201,-195,-461,32767,32767,32767
88570,-482,-811,-184,-779,229,-738,32767,32767,32767
88670,-393,-863,-267,-494,215,-680,32767,32767,32767
88770,-468,-803,-288,-836,-362,-369,32767,32767,32767
88870,-358,-746,-354,-649,-190,-308,32767,32767,32767
88970,-377,-777,-417,-411,81,-583,32767,32767,32767
89070,-429,-740,-472,-135,-334,42,32767,32767,32767
89170,-415,-748,-538,-391,-285,686,32767,32767,32767
89270,-360,-673,-448,751,-481,80,32767,32767,32767
89370,-736,-615,-518,332,-539,141,32767,32767,32767
89470,-590,-750,-372,-223,-310,-340,32767,32767,32767
89570,-635,-805,-352,-55,273,-383,32767,32767,32767
89670,-520,-681,-395,-554,460,-698,32767,32767,32767
89770,-516,-714,-503,-633,407,-490,32767,32767,32767
89870,-392,-625,-496,-1178,869,-181,32767,32767,32767
89970,-351,-490,-627,-232,137,-154,32767,32767,32767
90070,-477,-649,-684,113,43,-240,32767,32767,32767
90170,-405,-545,-598,-135,-102,-467,32767,32767,32767
90270,-475,-495,-708,-59,-459,105,32767,32767,32767
90370,-529,-608,-620,509,-64,-663,32767,32767,32767
90470,-504,-556,-564,-71,-46,-491,32767,32767,32767
90570,-513,-511,-556,45,-482,106,32767,32767,32767
90670,-610,-577,-541,185,-718,-30,32767,32767,32767
90770,-723,-510,-437,334,-801,-116,32767,32767,32767
90870,-713,-526,-372,490,-200,60,32767,32767,32767
91070,-824,-507,1,469,-2230,-338,32767,32767,32767
91170,-767,-556,67,570,-959,-163,32767,32767,32767
91270,-837,-511,368,555,-965,834,32767,32767,32767
91370,-851,-461,89,-244,2328,380,32767,32767,32767
91470,-750,-459,58,86,-456,-688,32767,32767,32767
91570,-798,-580,82,-489,-108,-1301,32767,32767,32767
91870,-711,-672,130,603,312,-184,32767,32767,32767
92170,-693,-652,191,749,75,-316,32767,32767,32767
92370,-782,-536,267,-281,363,854,32767,32767,32767
92470,-783,-591,186,-1799,926,-220,32767,32767,32767
92570,-819,-576,-3,-1321,-698,489,32767,32767,32767
92770,-825,-563,109,1450,844,651,32767,32767,32767
92870,-786,-437,148,1272,-646,830,32767,32767,32767
92970,-779,-517,190,-679,-282,-365,32767,32767,32767
93070,-783,-399,293,-729,515,-268,32767,32767,32767
93170,-848,-569,87,459,-523,-241,32767,32767,32767
93370,-743,-452,399,458,116,-426,32767,32767,32767
93670,-578,-397,591,52,-194,-287,32767,32767,32767
93970,-631,-399,624,646,-175,-321,32767,32767,32767
94270,-457,-333,757,601,532,264,32767,32767,32767
94570,-571,-287,813,529,512,94,32767,32767,32767
94870,-664,-318,708,-58,900,225,32767,32767,32767
95170,-761,-294,576,116,368,63,32767,32767,32767
95470,-643,-242,670,226,159,-90,32767,32767,32767
95770,-569,-131,686,605,-592,252,32767,32767,32767
96070,-504,-110,907,-576,1114,60,32767,32767,32767
96370,-330,-519,757,-2331,402,-867,32767,32767,32767
96670,-950,-149,339,-260,1628,1150,32767,32767,32767
96970,-964,-8,-143,-1036,1229,110,32767,32767,32767
97070,-829,139,-232,-868,1572,598,32767,32767,32767
97170,-899,63,-268,-647,-232,-846,32767,32767,32767
97270,-1013,83,-95,-442,124,-77,32767,32767,32767
97370,-918,151,-181,52,426,423,32767,32767,32767
97470,-974,143,-126,-360,-1154,-244,32767,32767,32767
97570,-949,86,-6,-804,933,625,32767,32767,32767
97770,-943,323,-117,0,1291,971,32767,32767,32767
97870,-884,462,-167,346,974,677,32767,32767,32767
97970,-912,366,-178,1336,218,741,32767,32767,32767
98070,-793,518,-270,716,-20,270,32767,32767,32767
98170,-761,499,-204,115,90,-843,32767,32767,32767
98270,-930,404,-208,151,250,-548,32767,32767,32767
98370,-841,364,-106,241,331,-206,32767,32767,32767
98470,-820,305,-147,720,-163,513,32767,32767,32767
98570,-811,332,-211,756,51,-998,32767,32767,32767
98670,-961,228,-117,-201,-25,-78,32767,32767,32767
98770,-1008,121,-166,-10,1142,-791,32767,32767,32767
98870,-828,102,-91,-2619,-317,141,32767,32767,32767
98970,-1020,275,18,-1835,-209,-619,32767,32767,32767
99070,-1081,206,172,1319,-1797,-401,32767,32767,32767
99170,-908,142,410,-875,-1614,-1270,32767,32767,32767
99270,-700,53,488,-885,-798,240,32767,32767,32767
99570,-831,116,573,-61,1101,807,32767,32767,32767
99870,-908,243,431,533,1066,426,32767,32767,32767
100070,-1041,7,296,376,1446,-1337,32767,32767,32767
100170,-869,54,286,-95,490,-1080,32767,32767,32767
100270,-957,-130,150,576,751,-1097,32767,32767,32767
100370,-1009,262,221,1561,988,1729,32767,32767,32767
100470,-919,72,76,1254,854,-637,32767,32767,32767
100580,-918,231,194,1132,-125,60,32767,32767,32767
100680,-1062,-75,71,1598,-963,1783,32767,32767,32767
100780,-856,535,148,-580,453,162,32767,32767,32767
100880,-736,223,83,-734,2057,851,32767,32767,32767
100980,-919,725,-17,-636,2496,2072,32767,32767,32767
101080,-839,590,-20,1025,845,88,32767,32767,32767
101180,-776,573,-29,916,594,-431,32767,32767,32767
101280,-859,423,-251,-156,708,-650,32767,32767,32767
101370,-821,434,-209,409,658,-135,32767,32767,32767
101470,-844,405,-243,-168,-107,312,32767,32767,32767
101570,-832,497,-62,-161,312,209,32767,32767,32767
101870,-813,547,-146,495,466,254,32767,32767,32767
102170,-791,482,-253,264,681,-386,32767,32767,32767
102470,-692,440,-209,218,332,-24,32767,32767,32767
102770,-789,568,-216,345,254,-152,32767,32767,32767
103070,-395,611,53,775,-505,-255,32767,32767,32767
103370,-860,370,-139,320,841,-412,32767,32767,32767
103470,-885,395,-307,197,1090,-90,32767,32767,32767
103570,-839,368,-271,173,689,178,32767,32767,32767
103670,-840,400,-330,-47,797,371,32767,32767,32767
103770,-750,369,-325,-170,1009,118,32767,32767,32767
103870,-525,334,-517,99,408,-109,32767,32767,32767
103970,-792,487,-301,0,59,560,32767,32767,32767
104070,-747,506,-344,115,194,-138,32767,32767,32767
104170,-789,482,-260,-15,-524,-996,32767,32767,32767
104270,-801,335,-173,-27,43,-666,32767,32767,32767
104370,-854,274,-42,251,837,-1077,32767,32767,32767
104470,-1043,390,-114,-50,765,-866,32767,32767,32767
104570,-951,119,-242,-461,659,-1925,32767,32767,32767
104670,-863,-154,-271,-799,-156,-962,32767,32767,32767
104770,-888,-124,-207,-1516,176,-382,32767,32767,32767
104870,-871,-96,-202,-127,200,-572,32767,32767,32767
104970,-1070,-14,-55,426,485,-716,32767,32767,32767
105070,-764,-34,-220,352,1243,-820,32767,32767,32767
105170,-796,-135,-350,467,1626,-415,32767,32767,32767
105270,-807,-224,-440,49,1495,-701,32767,32767,32767
105370,-735,-283,-531,-39,1332,-1517,32767,32767,32767
105470,-629,-228,-804,-244,1166,-1218,32767,32767,32767
105570,-651,-285,-980,-1298,981,-474,32767,32767,32767
105670,-553,-282,-630,-2337,252,120,32767,32767,32767
105770,-578,-290,-527,916,642,793,32767,32767,32767
105870,-551,-37,-738,3522,4159,474,32767,32767,32767
106170,-357,-362,-785,66,165,528,32767,32767,32767
106470,-369,-349,-807,-62,539,16,32767,32767,32767
106770,-355,-301,-857,406,-140,-99,32767,32767,32767
107070,-463,-429,-697,391,446,-47,32767,32767,32767
107370,-458,-411,-767,446,279,-28,32767,32767,32767
107670,-342,-384,-786,290,391,-230,32767,32767,32767
107970,-534,-434,-685,451,533,227,32767,32767,32767
108270,-459,-419,-754,253,352,-210,32767,32767,32767
108570,-422,-380,-803,99,431,-142,32767,32767,32767
108870,-343,-440,-853,112,281,-456,32767,32767,32767
109170,-506,-364,-781,352,221,97,32767,32767,32767
109470,-498,-370,-738,-168,180,-379,32767,32767,32767
109770,-494,-286,-767,-73,154,-362,32767,32767,32767
110070,-1616,208,-615,-497,-396,-3304,32767,32767,32767
110270,-596,-675,-87,899,779,-14,32767,32767,32767
110370,-561,-534,-655,148,482,-47,32767,32767,32767
110480,-390,-701,-569,232,271,-116,32767,32767,32767
110580,-363,-622,-635,204,781,93,32767,32767,32767
110670,-392,-632,-626,212,800,-49,32767,32767,32767
110770,-375,-632,-651,252,381,-165,32767,32767,32767
110870,-332,-633,-649,244,424,-135,32767,32767,32767
110970,-349,-646,-666,240,500,-67,32767,32767,32767
111080,-317,-625,-663,369,371,-91,32767,32767,32767
111180,-319,-648,-660,238,512,-99,32767,32767,32767
111280,-316,-642,-678,337,398,-92,32767,32767,32767
111480,-288,-641,-674,274,387,-124,32767,32767,32767
111570,-299,-648,-683,276,448,-73,32767,32767,32767
111870,-298,-625,-687,386,413,-4,32767,32767,32767
112170,-333,-639,-640,427,57,-28,32767,32767,32767
112470,-411,-625,-632,539,-141,118,32767,32767,32767
112570,-436,-648,-508,596,-141,24,32767,32767,32767
112670,-541,-649,-418,320,831,203,32767,32767,32767
112770,-432,-619,-672,-475,-1,-644,32767,32767,32767
112970,-488,-141,-986,-2022,3525,-956,32767,32767,32767
113270,-363,-262,-718,31,-1084,-117,32767,32767,32767
113370,-628,-259,-757,-20,-900,506,32767,32767,32767
113470,-616,-302,-605,619,-348,-555,32767,32767,32767
113570,-1076,-67,-463,926,-4347,1209,32767,32767,32767
113670,-888,-232,-8,2024,-2420,506,32767,32767,32767
113770,-985,-176,-25,1571,430,767,32767,32767,32767
113870,-934,-21,11,2198,2019,327,32767,32767,32767
113970,-1067,108,-41,1756,1727,339,32767,32767,32767
114070,-876,-65,-92,-1132,-1616,775,32767,32767,32767
114170,-1029,366,413,-1720,-1996,502,32767,32767,32767
114270,-756,265,354,1247,-726,-412,32767,32767,32767
114370,-828,-96,515,1254,-221,-1426,32767,32767,32767
114470,-867,-24,369,1897,2107,-1419,32767,32767,32767
114770,-905,25,258,630,630,-307,32767,32767,32767
115070,-991,-36,221,556,653,-556,32767,32767,32767
115370,-935,34,212,577,324,543,32767,32767,32767
115470,-937,65,237,497,483,83,32767,32767,32767
115570,-917,51,199,464,672,-141,32767,32767,32767
115670,-924,86,174,302,516,131,32767,32767,32767
115770,-938,122,160,317,522,77,32767,32767,32767
115870,-938,121,170,332,375,-47,32767,32767,32767
115970,-946,128,145,281,444,-68,32767,32767,32767
116070,-937,112,158,335,379,-108,32767,32767,32767
116170,-927,119,146,282,333,-101,32767,32767,32767
116270,-927,125,148,322,432,-25,32767,32767,32767
116370,-940,100,153,255,410,-27,32767,32767,32767
116470,-941,127,134,253,357,-65,32767,32767,32767
116570,-952,115,141,281,269,-171,32767,32767,32767
116670,-938,113,156,198,444,-130,32767,32767,32767
116770,-965,104,156,330,303,-201,32767,32767,32767
116870,-953,52,182,301,169,-620,32767,32767,32767
116970,-918,6,179,433,93,-445,32767,32767,32767
117070,-928,0,194,503,236,-40,32767,32767,32767
117170,-937,-11,228,396,404,224,32767,32767,32767
117270,-934,48,193,495,329,-331,32767,32767,32767
117370,-939,-52,248,593,195,59,32767,32767,32767
117470,-964,31,264,292,252,352,32767,32767,32767
117570,-908,54,232,90,292,-94,32767,32767,32767
117670,-929,48,249,263,166,66,32767,32767,32767
117770,-919,27,263,343,241,-382,32767,32767,32767
117870,-915,1,229,521,264,-418,32767,32767,32767
117970,-927,1,306,550,240,-66,32767,32767,32767
118070,-872,-19,344,508,2,-366,32767,32767,32767
118170,-886,-42,321,298,419,-163,32767,32767,32767
118270,-883,-38,305,401,465,-101,32767,32767,32767
118370,-908,-51,333,260,462,1,32767,32767,32767
118480,-913,-59,329,292,220,-111,32767,32767,32767
118580,-900,-65,334,305,186,-214,32767,32767,32767
118670,-888,-75,354,360,317,-206,32767,32767,32767
118770,-874,-86,348,330,391,-159,32767,32767,32767
118870,-900,-101,339,294,444,5,32767,32767,32767
118970,-890,-87,326,292,519,82,32767,32767,32767
119070,-879,-49,326,281,571,63,32767,32767,32767
119170,-901,-95,318,346,320,-130,32767,32767,32767
119270,-918,-49,328,363,426,12,32767,32767,32767
119370,-878,-63,297,287,515,363,32767,32767,32767
119480,-931,7,287,225,439,-61,32767,32767,32767
119580,-935,-6,305,381,273,-298,32767,32767,32767
119670,-969,-44,275,307,445,-481,32767,32767,32767
119770,-897,-101,267,190,500,-149,32767,32767,32767
119870,-913,-74,264,182,565,195,32767,32767,32767
120070,-925,-64,280,427,247,-85,32767,32767,32767
120170,-911,-43,249,202,381,120,32767,32767,32767
120270,-928,-35,259,484,301,-157,32767,32767,32767
120370,-921,-40,298,422,284,-45,32767,32767,32767
120480,-911,-37,277,220,394,-101,32767,32767,32767
120580,-919,-64,295,249,441,90,32767,32767,32767
120680,-913,-16,260,182,452,168,32767,32767,32767
120780,-924,0,267,268,413,288,32767,32767,32767
120880,-906,27,264,267,375,195,32767,32767,32767
120980,-953,58,239,199,537,74,32767,32767,32767
121070,-941,32,247,374,274,-272,32767,32767,32767
121170,-943,-1,256,492,211,-244,32767,32767,32767
121270,-940,11,291,364,413,-293,32767,32767,32767
121370,-922,-26,266,293,400,52,32767,32767,32767
121470,-913,-4,247,372,364,89,32767,32767,32767
121570,-948,6,253,337,361,106,32767,32767,32767
121670,-926,16,259,118,444,44,32767,32767,32767
121770,-910,7,191,216,649,207,32767,32767,32767
121870,-932,27,217,247,556,205,32767,32767,32767
121970,-931,56,177,259,481,45,32767,32767,32767
122070,-910,71,166,372,494,187,32767,32767,32767
122170,-961,91,204,151,422,266,32767,32767,32767
122270,-894,125,145,181,294,60,32767,32767,32767
122370,-916,104,179,345,236,-12,32767,32767,32767
122470,-939,139,196,327,234,-185,32767,32767,32767
122570,-922,139,197,486,123,-336,32767,32767,32767
122670,-892,89,247,350,223,46,32767,32767,32767
122770,-936,95,258,357,342,-12,32767,32767,32767
122870,-921,84,256,273,258,-188,32767,32767,32767
122970,-896,84,270,346,189,-164,32767,32767,32767
123070,-891,100,262,308,370,-116,32767,32767,32767
123170,-977,59,291,426,357,42,32767,32767,32767
123270,-925,83,249,410,355,-60,32767,32767,32767
123370,-895,60,285,403,337,10,32767,32767,32767
123470,-911,146,298,324,78,108,32767,32767,32767
123570,-918,80,302,426,363,42,32767,32767,32767
123670,-916,115,284,331,563,141,32767,32767,32767
123770,-922,131,280,123,665,85,32767,32767,32767
123870,-894,151,250,298,444,31,32767,32767,32767
123970,-905,166,250,521,297,234,32767,32767,32767
124070,-919,201,193,553,266,219,32767,32767,32767
124170,-889,196,259,434,336,107,32767,32767,32767
124270,-890,214,248,314,667,342,32767,32767,32767
124370,-939,239,214,152,597,121,32767,32767,32767
124470,-885,245,217,62,567,55,32767,32767,32767
124580,-890,262,185,220,601,-85,32767,32767,32767
124670,-905,256,166,389,364,-104,32767,32767,32767
124770,-929,249,190,328,344,67,32767,32767,32767
124870,-900,263,165,357,302,-224,32767,32767,32767
124970,-913,248,219,320,258,-94,32767,32767,32767
125070,-880,236,200,219,266,-164,32767,32767,32767
125170,-940,227,175,367,666,-111,32767,32767,32767
125270,-909,220,169,271,437,-114,32767,32767,32767
125370,-895,207,180,305,64,-213,32767,32767,32767
125470,-889,153,189,506,270,-113,32767,32767,32767
125580,-924,208,198,448,510,159,32767,32767,32767
125670,-940,237,211,467,407,-118,32767,32767,32767
125770,-918,211,165,311,561,-701,32767,32767,32767
125870,-881,125,126,556,746,-18,32767,32767,32767
125970,-945,214,100,587,1036,585,32767,32767,32767
126070,-950,196,53,710,654,-70,32767,32767,32767
126170,-950,197,11,706,647,-284,32767,32767,32767
126270,-951,178,-30,632,668,47,32767,32767,32767
126370,-932,210,-39,370,626,-8,32767,32767,32767
126480,-934,186,-64,264,433,-70,32767,32767,32767
126570,-933,209,-68,342,448,39,32767,32767,32767
126670,-967,188,-75,497,121,-148,32767,32767,32767
126770,-932,177,-54,460,313,-267,32767,32767,32767
126870,-897,175,-89,327,653,341,32767,32767,32767
126970,-961,201,-30,457,47,-99,32767,32767,32767
127070,-920,190,-56,369,224,-63,32767,32767,32767
127170,-915,214,-25,292,308,173,32767,32767,32767
127270,-946,233,-11,313,151,-2,32767,32767,32767
127370,-963,169,0,137,651,-33,32767,32767,32767
127470,-899,198,-10,527,534,-231,32767,32767,32767
127570,-955,195,-49,424,197,-231,32767,32767,32767
127670,-884,113,-53,227,519,-906,32767,32767,32767
127770,-944,115,-33,454,222,-1,32767,32767,32767
127870,-959,129,-73,111,81,-226,32767,32767,32767
127970,-958,110,-40,350,493,140,32767,32767,32767
128070,-979,104,-37,452,555,-44,32767,32767,32767
128170,-962,93,-31,359,158,-339,32767,32767,32767
128270,-953,60,-46,425,17,-316,32767,32767,32767
128370,-1006,38,-15,288,357,-537,32767,32767,32767
128470,-904,28,9,125,899,-339,32767,32767,32767
128570,-951,-20,-53,240,557,-304,32767,32767,32767
128670,-945,-53,-68,261,512,-116,32767,32767,32767
128770,-944,5,-74,290,385,-100,32767,32767,32767
128880,-958,-94,-67,451,165,-152,32767,32767,32767
128980,-924,-50,-41,340,598,-16,32767,32767,32767
129080,-962,-67,-97,315,480,150,32767,32767,32767
129180,-950,-51,-40,176,319,120,32767,32767,32767
129270,-941,5,-81,55,-9,611,32767,32767,32767
129370,-943,63,-24,267,-218,190,32767,32767,32767
129470,-946,56,46,135,-280,-316,32767,32767,32767
129570,-955,11,92,329,16,-232,32767,32767,32767
129670,-951,20,100,195,325,-141,32767,32767,32767
129770,-943,0,136,111,-14,-379,32767,32767,32767
129870,-930,-40,181,372,-160,-272,32767,32767,32767
129970,-931,-46,225,337,-119,-54,32767,32767,32767
130070,-892,-75,306,546,-175,1,32767,32767,32767
130270,-929,-25,328,475,440,195,32767,32767,32767
130470,-929,28,269,259,501,412,32767,32767,32767
130570,-941,84,255,335,255,305,32767,32767,32767
130670,-912,97,311,372,195,-53,32767,32767,32767
130870,-911,92,238,179,808,106,32767,32767,32767
130970,-915,84,225,259,412,-63,32767,32767,32767
131070,-912,80,217,392,237,-54,32767,32767,32767
131170,-909,88,252,329,413,-93,32767,32767,32767
131270,-925,48,300,478,63,-324,32767,32767,32767
131370,-918,84,279,357,199,-434,32767,32767,32767
131470,-904,47,268,227,718,26,32767,32767,32767
131570,-934,14,257,373,333,-165,32767,32767,32767
131670,-937,19,230,348,611,-181,32767,32767,32767
131770,-923,8,214,300,491,-65,32767,32767,32767
131870,-924,15,222,245,497,17,32767,32767,32767
131970,-942,40,193,287,445,97,32767,32767,32767
132070,-952,76,145,481,413,397,32767,32767,32767
132170,-938,120,186,400,545,302,32767,32767,32767
132270,-954,74,204,401,416,21,32767,32767,32767
132370,-930,85,193,337,60,-234,32767,32767,32767
132470,-947,45,200,296,287,-160,32767,32767,32767
132570,-929,58,216,173,73,-246,32767,32767,32767
132670,-922,14,250,484,-56,-239,32767,32767,32767
132770,-915,44,272,374,416,23,32767,32767,32767
132870,-918,41,282,337,633,55,32767,32767,32767
132970,-961,30,270,199,907,-200,32767,32767,32767
133070,-916,75,130,189,857,231,32767,32767,32767
133170,-939,62,182,527,347,60,32767,32767,32767
133270,-943,53,177,370,311,48,32767,32767,32767
133370,-934,94,149,309,314,210,32767,32767,32767
133470,-937,118,166,330,645,294,32767,32767,32767
133570,-938,145,175,301,59,-208,32767,32767,32767
133670,-898,132,118,327,419,108,32767,32767,32767
133770,-949,136,184,428,493,381,32767,32767,32767
133870,-945,159,165,327,257,0,32767,32767,32767
133970,-909,189,151,161,571,267,32767,32767,32767
134070,-934,227,181,248,1252,46,32767,32767,32767
134170,-949,182,8,314,329,-276,32767,32767,32767
134270,-933,163,45,332,236,-55,32767,32767,32767
134370,-972,117,105,410,-163,-191,32767,32767,32767
134470,-930,184,65,499,-35,-43,32767,32767,32767
134570,-920,181,130,293,121,195,32767,32767,32767
134670,-920,182,150,541,135,1,32767,32767,32767
134970,-933,177,138,169,663,80,32767,32767,32767
135270,-906,230,108,215,427,112,32767,32767,32767
135570,-890,229,119,140,98,-401,32767,32767,32767
135670,-955,161,92,367,611,6,32767,32767,32767
135970,-926,216,56,317,291,124,32767,32767,32767
136270,-934,263,67,348,304,-90,32767,32767,32767
136570,-905,275,53,292,274,-167,32767,32767,32767
136670,-925,240,87,357,307,-193,32767,32767,32767
136970,-933,242,69,475,264,47,32767,32767,32767
137280,-914,267,115,408,3,-144,32767,32767,32767
137570,-918,259,102,604,663,308,32767,32767,32767
137670,-913,296,38,634,585,-157,32767,32767,32767
137770,-937,297,9,476,1047,342,32767,32767,32767
137870,-913,344,29,249,170,-32,32767,32767,32767
137970,-896,324,-23,192,168,-73,32767,32767,32767
138070,-911,304,54,262,8,-252,32767,32767,32767
138170,-909,296,62,346,272,-156,32767,32767,32767
138270,-904,294,76,344,355,-63,32767,32767,32767
138370,-915,283,58,426,259,-288,32767,32767,32767
138470,-915,281,70,391,486,-247,32767,32767,32767
138570,-907,274,60,352,446,-703,32767,32767,32767
138670,-931,162,43,491,374,-554,32767,32767,32767
138770,-932,109,24,387,593,-396,32767,32767,32767
138870,-922,56,25,393,310,-741,32767,32767,32767
138970,-969,40,50,557,303,-423,32767,32767,32767
139070,-937,-13,65,248,673,-304,32767,32767,32767
139170,-958,-9,21,239,407,-59,32767,32767,32767
139270,-958,-33,32,588,-20,-185,32767,32767,32767
139370,-952,-13,77,532,476,-7,32767,32767,32767
139470,-958,-21,42,380,438,54,32767,32767,32767
139570,-967,-48,54,364,322,-184,32767,32767,32767
139670,-958,-2,18,263,579,-66,32767,32767,32767
139770,-946,-30,-11,445,373,-99,32767,32767,32767
139870,-968,-39,10,247,706,67,32767,32767,32767
139970,-988,-22,1,-96,2,-147,32767,32767,32767
140070,-958,-28,79,-226,-1107,-253,32767,32767,32767
140170,-875,-29,229,-125,-1194,479,32767,32767,32767
140270,-877,-29,305,62,454,552,32767,32767,32767
140370,-960,28,224,-24,1350,1005,32767,32767,32767
140470,-922,194,124,-23,988,660,32767,32767,32767
140570,-925,217,87,452,1424,186,32767,32767,32767
140670,-920,255,-73,749,1599,370,32767,32767,32767
140770,-927,239,-135,606,1081,80,32767,32767,32767
140870,-903,270,-187,368,460,98,32767,32767,32767
140970,-936,236,-149,351,222,-327,32767,32767,32767
141070,-898,249,-138,261,81,-181,32767,32767,32767
141170,-916,219,-112,222,-8,111,32767,32767,32767
141270,-926,240,-100,205,432,150,32767,32767,32767
141370,-867,280,-95,246,307,30,32767,32767,32767
141470,-925,287,-110,344,312,-48,32767,32767,32767
141570,-927,242,-83,459,229,58,32767,32767,32767
141670,-941,263,-108,464,274,-215,32767,32767,32767
141770,-916,239,-81,435,139,-156,32767,32767,32767
141870,-936,212,-57,318,285,-54,32767,32767,32767
141970,-917,245,-66,306,307,35,32767,32767,32767
142070,-948,248,-66,499,234,-295,32767,32767,32767
142170,-950,178,-8,390,-75,-234,32767,32767,32767
142270,-954,187,8,245,319,-154,32767,32767,32767
142370,-931,191,-50,340,876,311,32767,32767,32767
142470,-934,218,-52,390,468,134,32767,32767,32767
142570,-922,246,-66,273,358,-37,32767,32767,32767
142670,-937,206,-50,350,390,-317,32767,32767,32767
142770,-938,213,-82,331,191,-404,32767,32767,32767
142870,-928,196,-56,352,383,213,32767,32767,32767
142970,-916,215,-57,360,485,122,32767,32767,32767
143070,-923,239,-67,380,426,72,32767,32767,32767
143170,-926,236,-66,462,490,73,32767,32767,32767
143270,-962,240,-62,228,562,-107,32767,32767,32767
143370,-935,214,-106,-38,171,-1019,32767,32767,32767
143470,-952,156,-84,-4,-323,-578,32767,32767,32767
143570,-969,69,36,-129,-483,-412,32767,32767,32767
143670,-884,21,179,426,-769,-714,32767,32767,32767
143770,-1136,10,245,-196,-768,92,32767,32767,32767
143870,-890,-9,454,-817,-2531,-434,32767,32767,32767
143970,-852,-149,530,-506,158,859,32767,32767,32767
144070,-750,18,528,-200,-276,-1166,32767,32767,32767
144170,-781,-124,489,807,369,-1254,32767,32767,32767
144270,-730,-61,444,346,871,-945,32767,32767,32767
144380,-857,-230,544,408,808,-260,32767,32767,32767
144480,-660,-315,531,591,-35,-337,32767,32767,32767
144580,-821,-244,610,247,482,1003,32767,32767,32767
144680,-783,-166,380,667,428,-679,32767,32767,32767
144770,-801,-263,530,301,-775,-806,32767,32767,32767
144870,-776,-274,623,1033,-770,-35,32767,32767,32767
144970,-555,-177,753,1064,-116,509,32767,32767,32767
145070,-536,-284,644,-466,19,793,32767,32767,32767
145170,-432,-213,900,-1135,-1139,697,32767,32767,32767
145270,-174,-202,936,-1070,-371,1671,32767,32767,32767
145370,-388,-242,939,791,46,293,32767,32767,32767
145470,-362,-343,885,35,1504,-807,32767,32767,32767
145570,-612,-320,761,98,2388,-715,32767,32767,32767
145670,-652,-343,634,388,1572,-714,32767,32767,32767
145970,-562,-364,658,441,-348,43,32767,32767,32767
146270,-554,-313,736,805,-49,-19,32767,32767,32767
146570,-595,-235,727,308,616,-40,32767,32767,32767
146670,-633,-253,676,114,383,291,32767,32767,32767
146870,-663,-264,701,278,575,-98,32767,32767,32767
147070,-685,-283,647,198,506,-202,32767,32767,32767
147270,-682,-325,614,345,468,-55,32767,32767,32767
147470,-714,-385,503,138,759,-279,32767,32767,32767
147570,-695,-373,520,328,141,100,32767,32767,32767
147670,-719,-396,551,431,200,31,32767,32767,32767
147770,-693,-369,530,328,136,159,32767,32767,32767
147870,-714,-327,566,-101,341,298,32767,32767,32767
147970,-727,-355,537,424,19,276,32767,32767,32767
148070,-750,-336,569,106,605,-74,32767,32767,32767
148170,-723,-357,502,201,622,-179,32767,32767,32767
148270,-729,-340,545,301,379,-75,32767,32767,32767
148370,-739,-383,532,-121,691,-90,32767,32767,32767
148470,-738,-378,452,-4,829,-298,32767,32767,32767
148570,-765,-396,480,690,23,130,32767,32767,32767
148670,-748,-362,479,680,209,-156,32767,32767,32767
148770,-745,-327,568,488,0,240,32767,32767,32767
148870,-709,-364,480,111,387,76,32767,32767,32767
148970,-726,-337,549,568,191,-7,32767,32767,32767
149070,-708,-330,566,314,107,163,32767,32767,32767
149170,-744,-346,587,-236,853,-198,32767,32767,32767
149270,-715,-385,453,-196,411,-77,32767,32767,32767
149370,-756,-385,468,768,-72,-11,32767,32767,32767
149470,-737,-381,567,1379,86,-66,32767,32767,32767
149580,-750,-315,590,800,33,-201,32767,32767,32767
149680,-711,-324,602,-301,1831,-1215,32767,32767,32767
149770,-696,-408,528,-1077,2011,-1095,32767,32767,32767
149870,-762,-549,444,-94,349,-308,32767,32767,32767
149970,-649,-614,101,-247,537,-183,32767,32767,32767
150070,-701,-598,194,-174,1179,-407,32767,32767,32767
150170,-676,-632,249,938,1023,478,32767,32767,32767
150270,-799,-574,33,858,1913,82,32767,32767,32767
150370,-769,-612,117,666,1257,-194,32767,32767,32767
150470,-785,-568,-45,821,985,153,32767,32767,32767
150580,-831,-604,-129,246,1944,-1083,32767,32767,32767
150670,-705,-575,-116,-279,3758,-1039,32767,32767,32767
150770,-560,-752,-556,2102,4974,302,32767,32767,32767
150870,-147,-754,-373,2500,1494,-2219,32767,32767,32767
150970,12,-902,-227,1952,883,-1022,32767,32767,32767
151080,32,-969,-107,1240,694,-154,32767,32767,32767
151180,-23,-987,-137,433,440,183,32767,32767,32767
151280,35,-1034,-89,400,589,-499,32767,32767,32767
151370,75,-941,-84,-38,451,118,32767,32767,32767
151470,30,-1014,-166,308,570,-173,32767,32767,32767
151570,26,-984,-123,164,204,8,32767,32767,32767
151670,75,-977,-57,205,350,-189,32767,32767,32767
151770,34,-995,-167,608,399,-302,32767,32767,32767
151870,68,-921,-149,322,312,26,32767,32767,32767
151970,44,-937,-100,234,91,104,32767,32767,32767
152070,34,-996,-99,132,-188,422,32767,32767,32767
152170,50,-986,-86,314,195,87,32767,32767,32767
152270,-15,-983,-122,291,285,24,32767,32767,32767
152370,-1,-978,-115,453,301,-5,32767,32767,32767
152470,-10,-969,-89,297,281,170,32767,32767,32767
152570,36,-966,-37,318,827,-559,32767,32767,32767
152670,13,-1071,-138,319,529,-310,32767,32767,32767
152770,50,-1012,-174,359,47,515,32767,32767,32767
152870,-20,-1017,-209,-957,-1359,2640,32767,32767,32767
152970,-443,-701,-178,-1515,-2428,5257,32767,32767,32767
153070,-841,-335,-96,-657,-1269,2599,32767,32767,32767
153170,-939,-204,-48,-437,-888,1677,32767,32767,32767
153270,-946,-95,39,-284,-644,1069,32767,32767,32767
153370,-935,22,108,43,-3,534,32767,32767,32767
153470,-964,42,119,133,87,492,32767,32767,32767
153570,-955,98,175,79,29,460,32767,32767,32767
153670,-974,134,227,-470,-583,869,32767,32767,32767
153770,-825,160,360,-948,-993,752,32767,32767,32767
153870,-784,219,513,46,-826,807,32767,32767,32767
153970,-800,225,531,507,230,-284,32767,32767,32767
154070,-750,253,627,673,-470,-184,32767,32767,32767
154170,-719,229,619,525,516,-658,32767,32767,32767
154270,-726,159,558,335,564,-272,32767,32767,32767
154370,-785,184,587,522,86,6,32767,32767,32767
154470,-716,209,592,254,262,-264,32767,32767,32767
154570,-738,189,596,447,318,-230,32767,32767,32767
154670,-758,206,581,363,818,-558,32767,32767,32767
154770,-686,120,635,777,1136,-703,32767,32767,32767
154870,-889,16,394,733,447,166,32767,32767,32767
154970,-1006,87,470,242,-670,45,32767,32767,32767
155070,-686,216,777,-69,-1089,-114,32767,32767,32767
155170,-523,-41,776,-198,213,34,32767,32767,32767
155270,-727,273,1051,-820,-675,522,32767,32767,32767
155370,-333,-175,458,-1487,976,-1050,32767,32767,32767
155470,-576,3,504,1473,765,924,32767,32767,32767
155570,-863,281,867,143,306,81,32767,32767,32767
155680,-482,-270,533,439,848,-125,32767,32767,32767
155770,-961,240,908,1087,99,628,32767,32767,32767
155870,-575,-169,629,-234,1075,-1298,32767,32767,32767
155970,-752,64,765,1383,-7,348,32767,32767,32767
156070,-703,80,763,-216,669,-1035,32767,32767,32767
156170,-302,-377,394,527,328,131,32767,32767,32767
156270,-971,437,865,2127,390,1394,32767,32767,32767
156370,-701,84,434,1473,1803,-710,32767,32767,32767
156470,-583,75,212,2223,683,892,32767,32767,32767
156580,-1164,718,437,1342,1109,-842,32767,32767,32767
156680,-480,-62,224,912,774,132,32767,32767,32767
156770,-1017,665,351,966,1133,813,32767,32767,32767
156870,-1094,506,285,-887,567,-944,32767,32767,32767
156970,-633,19,99,-301,420,-136,32767,32767,32767
157070,-750,418,175,607,908,721,32767,32767,32767
157180,-956,703,239,-30,688,43,32767,32767,32767
157280,-543,231,290,-321,730,-60,32767,32767,32767
157380,-1104,770,359,-299,1099,740,32767,32767,32767
157470,-937,473,254,-1644,854,-1495,32767,32767,32767
157570,-437,-21,183,-962,411,296,32767,32767,32767
157670,-1282,739,224,-468,1035,177,32767,32767,32767
157770,-760,187,92,-647,362,-1021,32767,32767,32767
157870,-584,98,176,522,751,511,32767,32767,32767
157970,-1378,626,220,244,443,110,32767,32767,32767
158070,-734,97,160,38,-259,-832,32767,32767,32767
158170,-697,77,148,1318,718,372,32767,32767,32767
158270,-1410,594,82,703,324,-610,32767,32767,32767
158370,-482,-175,-41,1320,713,-1626,32767,32767,32767
158470,-1006,375,-58,2499,455,1143,32767,32767,32767
158570,-1109,556,317,1232,-1285,-432,32767,32767,32767
158670,-430,-171,98,1799,655,-357,32767,32767,32767
158770,-1139,499,251,1930,672,309,32767,32767,32767
158870,-784,44,122,1014,973,-753,32767,32767,32767
158970,-996,154,146,1106,485,799,32767,32767,32767
159070,-1058,277,250,298,480,-373,32767,32767,32767
159170,-841,194,247,-300,-6,-99,32767,32767,32767
159270,-814,318,300,-964,253,-58,32767,32767,32767
159370,-947,307,271,-1399,480,9,32767,32767,32767
159470,-1161,314,103,-1246,348,-173,32767,32767,32767
159570,-1029,173,-35,-419,232,-753,32767,32767,32767
159670,-872,159,62,679,422,-923,32767,32767,32767
159770,-812,116,-34,1254,1044,-690,32767,32767,32767
159870,-759,-16,47,1283,1756,-1162,32767,32767,32767
159970,-875,-90,214,-1177,573,740,32767,32767,32767
160070,-1056,76,285,-543,-290,1341,32767,32767,32767
160170,-1072,130,184,-977,416,-82,32767,32767,32767
160270,-985,116,161,-1586,-7,-144,32767,32767,32767
160370,-1030,198,134,-1894,597,-530,32767,32767,32767
160470,-997,76,105,-1893,725,-950,32767,32767,32767
160570,-839,-127,106,-1302,780,-756,32767,32767,32767
160670,-857,-199,-32,-966,810,-837,32767,32767,32767
160770,-831,-138,28,-411,394,-109,32767,32767,32767
160870,-997,-130,-116,-215,962,621,32767,32767,32767
160970,-1126,61,-594,-524,497,486,32767,32767,32767
161070,-646,-195,-531,-229,301,-381,32767,32767,32767
161170,-809,-131,-514,284,749,232,32767,32767,32767
161270,-888,-83,-354,542,488,-2,32767,32767,32767
161370,-934,-117,-294,634,-12,126,32767,32767,32767
161470,-957,-128,-240,554,-588,-45,32767,32767,32767
161570,-1121,-72,-180,706,-563,281,32767,32767,32767
161670,-984,64,-172,790,-726,-6,32767,32767,32767
161770,-897,33,-145,1230,95,-417,32767,32767,32767
161870,-808,56,-151,2024,645,-151,32767,32767,32767
161970,-695,-12,-70,2357,965,-174,32767,32767,32767
