time_boot_ms,q1,q2,q3,q4,rollspeed,pitchspeed,yawspeed
0,0.95406174659729,-0.028488198295235634,0.2965817153453827,0.0035622536670416594,0.0,0.0,0.0
0,0.9482774138450623,-0.032395265996456146,0.3103562295436859,0.0048148552887141705,0.0,0.0,0.0
0,0.9434568881988525,-0.03618698567152023,0.32429230213165283,0.006149181164801121,0.0,0.0,0.0
0,0.9398388862609863,-0.03888264670968056,0.3343102037906647,0.00717286067083478,0.0,0.0,0.0
0,0.9347126483917236,-0.04247862845659256,0.3479325771331787,0.008616412989795208,0.0,0.0,0.0
0,0.9299139976501465,-0.04555395245552063,0.3601491451263428,0.010032841935753822,0.0,0.0,0.0
0,0.9249848127365112,-0.04845672845840454,0.37221530079841614,0.011582846753299236,0.0,0.0,0.0
0,0.9199308753013611,-0.051173485815525055,0.38413020968437195,0.013256293721497059,0.0,0.0,0.0
0,0.9147593975067139,-0.053708408027887344,0.3958902657032013,0.014995758421719074,0.0,0.0,0.0
0,0.9094617962837219,-0.056053128093481064,0.4075240194797516,0.01686973311007023,0.0,0.0,0.0
0,0.9040727615356445,-0.05813055858016014,0.4189773499965668,0.01882617175579071,0.0,0.0,0.0
0,0.8963798880577087,-0.06008918210864067,0.43477314710617065,0.022081220522522926,0.0,0.0,0.0
0,0.8897420167922974,-0.0608377568423748,0.4478115141391754,0.027328623458743095,0.0,0.0,0.0
0,0.8906376957893372,-0.06049714237451553,0.44591906666755676,0.02986595779657364,0.0,0.0,0.0
0,0.8907021284103394,-0.06213697791099548,0.44543755054473877,0.03172443062067032,0.0,0.0,0.0
0,0.890313446521759,-0.06313730776309967,0.44592779874801636,0.03370216116309166,0.0,0.0,0.0
0,0.8903530836105347,-0.06447223573923111,0.4455164670944214,0.03553353250026703,0.0,0.0,0.0
0,0.8902318477630615,-0.06608612090349197,0.44538363814353943,0.03718787059187889,0.0,0.0,0.0
0,0.8898757100105286,-0.06686665862798691,0.44580432772636414,0.039259668439626694,0.0,0.0,0.0
0,0.8893670439720154,-0.06781250238418579,0.44648322463035583,0.04127957299351692,0.0,0.0,0.0
0,0.8894407153129578,-0.0685063898563385,0.4460347890853882,0.04333573952317238,0.0,0.0,0.0
0,0.889827311038971,-0.06925850361585617,0.44495323300361633,0.04538566619157791,0.0,0.0,0.0
0,0.8892331123352051,-0.070384681224823,0.4457489848136902,0.047347091138362885,0.0,0.0,0.0
0,0.8892731070518494,-0.07107561826705933,0.4453360438346863,0.04941319674253464,0.0,0.0,0.0
0,0.8892685174942017,-0.07254697382450104,0.4449155032634735,0.05115204676985741,0.0,0.0,0.0
0,0.8893845677375793,-0.07343672960996628,0.44430607557296753,0.05315812677145004,0.0,0.0,0.0
0,0.8890862464904785,-0.07481934130191803,0.4444481432437897,0.05496860295534134,0.0,0.0,0.0
0,0.8890387415885925,-0.0746324360370636,0.44421306252479553,0.057813674211502075,0.0,0.0,0.0
0,0.889128565788269,-0.07666046917438507,0.44350531697273254,0.05923730880022049,0.0,0.0,0.0
0,0.8888711333274841,-0.0769425481557846,0.44366052746772766,0.06152941286563873,0.0,0.0,0.0
0,0.8883899450302124,-0.07885006815195084,0.4440702497959137,0.06301628053188324,0.0,0.0,0.0
0,0.888314425945282,-0.07906685769557953,0.4438544809818268,0.0653560608625412,0.0,0.0,0.0
0,0.8884871006011963,-0.08010445535182953,0.4430348575115204,0.06727143377065659,0.0,0.0,0.0
0,0.888178825378418,-0.08119983226060867,0.4431564211845398,0.06918716430664062,0.0,0.0,0.0
0,0.8880757689476013,-0.08207870274782181,0.4428814649581909,0.071222223341465,0.0,0.0,0.0
0,0.8877809047698975,-0.08403974026441574,0.4428636133670807,0.07266433537006378,0.0,0.0,0.0
0,0.8875085711479187,-0.08465240150690079,0.4429437220096588,0.07480277121067047,0.0,0.0,0.0
0,0.8877206444740295,-0.085507832467556,0.4420125484466553,0.07679194211959839,0.0,0.0,0.0
0,0.8877297043800354,-0.0863613560795784,0.4414718747138977,0.0788196325302124,0.0,0.0,0.0
0,0.8871071934700012,-0.08688761293888092,0.44222190976142883,0.08101474493741989,0.0,0.0,0.0
0,0.8870528936386108,-0.08882789313793182,0.4416719377040863,0.08246522396802902,0.0,0.0,0.0
0,0.8868631720542908,-0.08910048007965088,0.4415207803249359,0.08500868082046509,0.0,0.0,0.0
0,0.8865386843681335,-0.09055191278457642,0.44153454899787903,0.08674154430627823,0.0,0.0,0.0
0,0.8862739205360413,-0.09089671820402145,0.4415522813796997,0.08899467438459396,0.0,0.0,0.0
0,0.8864631652832031,-0.09263820946216583,0.44050151109695435,0.09049023687839508,0.0,0.0,0.0
0,0.8861132264137268,-0.09323760122060776,0.4406374990940094,0.09262779355049133,0.0,0.0,0.0
0,0.8859336376190186,-0.09422421455383301,0.44036683440208435,0.09460288286209106,0.0,0.0,0.0
0,0.8858197927474976,-0.09599920362234116,0.4398738145828247,0.09615010023117065,0.0,0.0,0.0
0,0.8853595852851868,-0.09667649865150452,0.44019195437431335,0.09825024753808975,0.0,0.0,0.0
0,0.8845325708389282,-0.09715719521045685,0.44123753905296326,0.10047715157270432,0.0,0.0,0.0
0,0.885165810585022,-0.09786166250705719,0.4393613934516907,0.10246098786592484,0.0,0.0,0.0
0,0.8845168352127075,-0.09868741035461426,0.4399791955947876,0.10456129163503647,0.0,0.0,0.0
0,0.8846459984779358,-0.10040581226348877,0.43897029757499695,0.10608544200658798,0.0,0.0,0.0
0,0.8844361901283264,-0.10011168569326401,0.43883389234542847,0.10865887254476547,0.0,0.0,0.0
0,0.8843339085578918,-0.10191792249679565,0.4382401406764984,0.11020078510046005,0.0,0.0,0.0
0,0.883453369140625,-0.10207860171794891,0.4392874836921692,0.11289644986391068,0.0,0.0,0.0
0,0.8833898305892944,-0.10356967896223068,0.4386298656463623,0.11458095163106918,0.0,0.0,0.0
0,0.8834324479103088,-0.10481253266334534,0.43777740001678467,0.11638089269399643,0.0,0.0,0.0
0,0.8830760717391968,-0.10572253912687302,0.4377410113811493,0.11838354915380478,0.0,0.0,0.0
0,0.8824148774147034,-0.10615002363920212,0.43833544850349426,0.12067628651857376,0.0,0.0,0.0
0,0.8824255466461182,-0.10785746574401855,0.43748417496681213,0.12219616770744324,0.0,0.0,0.0
0,0.8820520639419556,-0.10883358865976334,0.43744364380836487,0.12412320822477341,0.0,0.0,0.0
0,0.8813721537590027,-0.10973959416151047,0.43800175189971924,0.12617363035678864,0.0,0.0,0.0
0,0.8818632960319519,-0.11042038351297379,0.4362591505050659,0.1281951665878296,0.0,0.0,0.0
0,0.8818064332008362,-0.11227050423622131,0.4354671537876129,0.1296544075012207,0.0,0.0,0.0
0,0.8814611434936523,-0.11214443296194077,0.43544864654541016,0.13216137886047363,0.0,0.0,0.0
0,0.8806408047676086,-0.11291536688804626,0.4362700879573822,0.1342257410287857,0.0,0.0,0.0
0,0.880483090877533,-0.11368782073259354,0.4357471168041229,0.13630527257919312,0.0,0.0,0.0
0,0.8798596262931824,-0.11617491394281387,0.435970276594162,0.13750334084033966,0.0,0.0,0.0
0,0.8799512982368469,-0.1154884546995163,0.43502482771873474,0.14047454297542572,0.0,0.0,0.0
0,0.8795124888420105,-0.11738625913858414,0.4349169135093689,0.14197830855846405,0.0,0.0,0.0
0,0.879255473613739,-0.1193583607673645,0.4344293177127838,0.14339852333068848,0.0,0.0,0.0
0,0.879101574420929,-0.11880143731832504,0.4339953660964966,0.14610005915164948,0.0,0.0,0.0
0,0.8783383965492249,-0.1205064207315445,0.43451619148254395,0.1477128267288208,0.0,0.0,0.0
0,0.8785059452056885,-0.12161760032176971,0.43325331807136536,0.14952710270881653,0.0,0.0,0.0
0,0.8780224919319153,-0.12219506502151489,0.4333229064941406,0.1516842395067215,0.0,0.0,0.0
0,0.8774092793464661,-0.12314371764659882,0.4336133301258087,0.15362349152565002,0.0,0.0,0.0
0,0.8774865865707397,-0.12399949133396149,0.432522714138031,0.1555575430393219,0.0,0.0,0.0
0,0.8768664598464966,-0.12470665574073792,0.43281280994415283,0.1576661616563797,0.0,0.0,0.0
0,0.8767430186271667,-0.12498797476291656,0.4321395754814148,0.15995287895202637,0.0,0.0,0.0
0,0.8758966326713562,-0.12723368406295776,0.4326971471309662,0.16128621995449066,0.0,0.0,0.0
0,0.875693142414093,-0.1281721144914627,0.4321005642414093,0.16324134171009064,0.0,0.0,0.0
0,0.8757010698318481,-0.12805573642253876,0.43118688464164734,0.16570933163166046,0.0,0.0,0.0
0,0.8746506571769714,-0.12881776690483093,0.4321739673614502,0.16808009147644043,0.0,0.0,0.0
0,0.8742584586143494,-0.1304735243320465,0.4318355321884155,0.16967840492725372,0.0,0.0,0.0
0,0.8741174936294556,-0.1313798427581787,0.43108057975769043,0.17161837220191956,0.0,0.0,0.0
0,0.8742064833641052,-0.13338011503219604,0.42974433302879333,0.17298312485218048,0.0,0.0,0.0
0,0.8736711740493774,-0.13384386897087097,0.42979034781455994,0.17520557343959808,0.0,0.0,0.0
0,0.8733620643615723,-0.13532274961471558,0.4292738735675812,0.17686805129051208,0.0,0.0,0.0
0,0.8729936480522156,-0.13561691343784332,0.4290061593055725,0.17909856140613556,0.0,0.0,0.0
0,0.8719906210899353,-0.13689351081848145,0.42984792590141296,0.18098540604114532,0.0,0.0,0.0
0,0.8721164464950562,-0.13698391616344452,0.4285632073879242,0.18334108591079712,0.0,0.0,0.0
0,0.8716302514076233,-0.1382492035627365,0.4283845126628876,0.1851111501455307,0.0,0.0,0.0
0,0.8709136843681335,-0.13926871120929718,0.4286728501319885,0.18702277541160583,0.0,0.0,0.0
0,0.8708392381668091,-0.1402009129524231,0.4277149438858032,0.18887820839881897,0.0,0.0,0.0
0,0.8701632618904114,-0.14208775758743286,0.4278208613395691,0.19031581282615662,0.0,0.0,0.0
0,0.8695825934410095,-0.1424470990896225,0.4278968572616577,0.19253920018672943,0.0,0.0,0.0
0,0.8695868849754333,-0.14326174557209015,0.4267396926879883,0.1944732815027237,0.0,0.0,0.0
0,0.8691208958625793,-0.1450381726026535,0.4262799918651581,0.19623807072639465,0.0,0.0,0.0
0,0.8689080476760864,-0.14562302827835083,0.4255423843860626,0.19834348559379578,0.0,0.0,0.0
0,0.8677493929862976,-0.14573532342910767,0.4267141819000244,0.20078326761722565,0.0,0.0,0.0
0,0.8674594163894653,-0.1478206217288971,0.42596882581710815,0.20208211243152618,0.0,0.0,0.0
0,0.8674589395523071,-0.14744645357131958,0.424893319606781,0.20462672412395477,0.0,0.0,0.0
0,0.8669750690460205,-0.14898602664470673,0.42455634474754333,0.20625202357769012,0.0,0.0,0.0
0,0.8659973740577698,-0.15042418241500854,0.4252130091190338,0.2079598307609558,0.0,0.0,0.0
0,0.865868866443634,-0.15040519833564758,0.4243304133415222,0.21029730141162872,0.0,0.0,0.0
0,0.865419864654541,-0.1507469117641449,0.4240146577358246,0.21252690255641937,0.0,0.0,0.0
0,0.8650626540184021,-0.15245790779590607,0.42338597774505615,0.214004784822464,0.0,0.0,0.0
0,0.8641468286514282,-0.15362609922885895,0.4238879680633545,0.21587100625038147,0.0,0.0,0.0
0,0.8638396859169006,-0.15386450290679932,0.4232648015022278,0.21813775599002838,0.0,0.0,0.0
0,0.8632841110229492,-0.15492171049118042,0.4230627417564392,0.2199646681547165,0.0,0.0,0.0
0,0.8631532788276672,-0.15668317675590515,0.4219294786453247,0.22141455113887787,0.0,0.0,0.0
0,0.861869752407074,-0.15692321956157684,0.4231022298336029,0.22398555278778076,0.0,0.0,0.0
0,0.8615925908088684,-0.15790298581123352,0.42230868339538574,0.22585633397102356,0.0,0.0,0.0
0,0.8614078760147095,-0.159572571516037,0.42121800780296326,0.22740215063095093,0.0,0.0,0.0
0,0.8605004549026489,-0.16117113828659058,0.4215567708015442,0.2290792316198349,0.0,0.0,0.0
0,0.860403835773468,-0.1613677442073822,0.42045122385025024,0.23134168982505798,0.0,0.0,0.0
0,0.8600718975067139,-0.16199460625648499,0.4197756052017212,0.233355313539505,0.0,0.0,0.0
0,0.8590734004974365,-0.162767693400383,0.4203789532184601,0.23538346588611603,0.0,0.0,0.0
0,0.8590118288993835,-0.16328391432762146,0.4191342890262604,0.23747646808624268,0.0,0.0,0.0
0,0.8582742810249329,-0.16629159450531006,0.41895705461502075,0.23835523426532745,0.0,0.0,0.0
0,0.8580740094184875,-0.16566987335681915,0.41810932755470276,0.24099703133106232,0.0,0.0,0.0
0,0.8580880761146545,-0.16681604087352753,0.41661232709884644,0.2427366077899933,0.0,0.0,0.0
0,0.8567941784858704,-0.16805879771709442,0.41772863268852234,0.24453195929527283,0.0,0.0,0.0
0,0.8559018969535828,-0.16918033361434937,0.41800975799560547,0.24637573957443237,0.0,0.0,0.0
0,0.8555982708930969,-0.17019443213939667,0.4171592593193054,0.2481851577758789,0.0,0.0,0.0
0,0.8548990488052368,-0.17135047912597656,0.4170626699924469,0.24995221197605133,0.0,0.0,0.0
0,0.8548792004585266,-0.1705443263053894,0.4156680107116699,0.2528715431690216,0.0,0.0,0.0
0,0.8547239303588867,-0.17267540097236633,0.4143262505531311,0.2541559934616089,0.0,0.0,0.0
0,0.8529039025306702,-0.17315606772899628,0.4164852797985077,0.25640684366226196,0.0,0.0,0.0
0,0.8526800870895386,-0.17494361102581024,0.41531801223754883,0.25781920552253723,0.0,0.0,0.0
0,0.8522384762763977,-0.17488303780555725,0.4147648215293884,0.2602052092552185,0.0,0.0,0.0
0,0.8515298962593079,-0.17624397575855255,0.41457727551460266,0.2619028389453888,0.0,0.0,0.0
0,0.8514075875282288,-0.17604178190231323,0.4133654534816742,0.26433151960372925,0.0,0.0,0.0
0,0.8502421975135803,-0.1781453937292099,0.413987398147583,0.26569733023643494,0.0,0.0,0.0
0,0.8503053784370422,-0.17918917536735535,0.41228121519088745,0.26744821667671204,0.0,0.0,0.0
0,0.8487197160720825,-0.17988857626914978,0.41385889053344727,0.2695557475090027,0.0,0.0,0.0
0,0.8485580682754517,-0.18042294681072235,0.4126298725605011,0.27159276604652405,0.0,0.0,0.0
0,0.8476662635803223,-0.18217019736766815,0.41252070665359497,0.273360013961792,0.0,0.0,0.0
0,0.847589373588562,-0.18193647265434265,0.41133081912994385,0.2755545377731323,0.0,0.0,0.0
0,0.846958577632904,-0.18337775766849518,0.41091543436050415,0.27715015411376953,0.0,0.0,0.0
0,0.8459445834159851,-0.183306023478508,0.4112532138824463,0.27978000044822693,0.0,0.0,0.0
0,0.8456910848617554,-0.18471361696720123,0.41008439660072327,0.2813359797000885,0.0,0.0,0.0
0,0.8444919586181641,-0.18641746044158936,0.4107547104358673,0.2828177213668823,0.0,0.0,0.0
0,0.8445356488227844,-0.18738116323947906,0.409029096364975,0.2845616340637207,0.0,0.0,0.0
0,0.8440428972244263,-0.18885104358196259,0.4082956612110138,0.2860974669456482,0.0,0.0,0.0
0,0.8426307439804077,-0.18928776681423187,0.409504234790802,0.2882383465766907,0.0,0.0,0.0
0,0.8424628973007202,-0.18983769416809082,0.4081955850124359,0.2902184724807739,0.0,0.0,0.0
0,0.8417726755142212,-0.19054441154003143,0.40788429975509644,0.2921890318393707,0.0,0.0,0.0
0,0.8411855697631836,-0.19195671379566193,0.4072568416595459,0.2938234806060791,0.0,0.0,0.0
0,0.8407871723175049,-0.19234630465507507,0.4063737094402313,0.2959267199039459,0.0,0.0,0.0
0,0.8399302959442139,-0.19346757233142853,0.4063057005405426,0.2977171242237091,0.0,0.0,0.0
0,0.8391427993774414,-0.19379965960979462,0.40620851516723633,0.2998470664024353,0.0,0.0,0.0
0,0.8387665152549744,-0.19533289968967438,0.4051387310028076,0.3013463020324707,0.0,0.0,0.0
0,0.8378430008888245,-0.19602155685424805,0.40524598956108093,0.3033198416233063,0.0,0.0,0.0
0,0.8366851210594177,-0.19759894907474518,0.40552592277526855,0.3051065504550934,0.0,0.0,0.0
0,0.8366988897323608,-0.19797788560390472,0.40378379821777344,0.30713361501693726,0.0,0.0,0.0
0,0.8355791568756104,-0.19910860061645508,0.4041890799999237,0.30891209840774536,0.0,0.0,0.0
0,0.8353061079978943,-0.1997421830892563,0.4029506742954254,0.3108532428741455,0.0,0.0,0.0
0,0.8346263766288757,-0.20145519077777863,0.4024033844470978,0.31227758526802063,0.0,0.0,0.0
0,0.8340162634849548,-0.20145538449287415,0.40189221501350403,0.31455978751182556,0.0,0.0,0.0
0,0.8332820534706116,-0.20289407670497894,0.40147754549980164,0.31610530614852905,0.0,0.0,0.0
0,0.8323502540588379,-0.20319773256778717,0.4015640616416931,0.31824907660484314,0.0,0.0,0.0
0,0.831602156162262,-0.20458616316318512,0.401122510433197,0.31986701488494873,0.0,0.0,0.0
0,0.8306769728660583,-0.20431503653526306,0.40124040842056274,0.3222799003124237,0.0,0.0,0.0
0,0.8301380276679993,-0.206359401345253,0.40029317140579224,0.3235495090484619,0.0,0.0,0.0
0,0.829414427280426,-0.20594768226146698,0.3999856412410736,0.32603591680526733,0.0,0.0,0.0
0,0.8293057084083557,-0.20809338986873627,0.3981923758983612,0.32714709639549255,0.0,0.0,0.0
0,0.8279339671134949,-0.2084464132785797,0.3988877832889557,0.32953304052352905,0.0,0.0,0.0
0,0.8274044990539551,-0.2092110812664032,0.3980397582054138,0.33140528202056885,0.0,0.0,0.0
0,0.8264156579971313,-0.21015441417694092,0.39807504415512085,0.33323022723197937,0.0,0.0,0.0
0,0.8257988095283508,-0.21106719970703125,0.3973540961742401,0.3350357413291931,0.0,0.0,0.0
0,0.8251988291740417,-0.21317659318447113,0.39644569158554077,0.33624792098999023,0.0,0.0,0.0
0,0.8238877654075623,-0.21359990537166595,0.39714720845222473,0.3383515775203705,0.0,0.0,0.0
0,0.8231202363967896,-0.2148410975933075,0.3966478705406189,0.3400163948535919,0.0,0.0,0.0
0,0.8229217529296875,-0.21493028104305267,0.395148366689682,0.3421907126903534,0.0,0.0,0.0
0,0.822578489780426,-0.21517425775527954,0.39390161633491516,0.34429171681404114,0.0,0.0,0.0
0,0.8214350342750549,-0.2168033868074417,0.3940945863723755,0.34577810764312744,0.0,0.0,0.0
0,0.8202178478240967,-0.21807381510734558,0.39447176456451416,0.34743332862854004,0.0,0.0,0.0
0,0.8204072117805481,-0.2181691974401474,0.3921207785606384,0.3495824337005615,0.0,0.0,0.0
0,0.8191796541213989,-0.21891272068023682,0.3925720453262329,0.351485013961792,0.0,0.0,0.0
0,0.8184725046157837,-0.2204906940460205,0.39186832308769226,0.35291725397109985,0.0,0.0,0.0
0,0.8172432780265808,-0.2210930436849594,0.39212578535079956,0.35510697960853577,0.0,0.0,0.0
0,0.8167476058006287,-0.22242489457130432,0.39101430773735046,0.3566328287124634,0.0,0.0,0.0
0,0.8158443570137024,-0.2231755256652832,0.3907553255558014,0.35851526260375977,0.0,0.0,0.0
0,0.8149791955947876,-0.2241385132074356,0.39038345217704773,0.3602828085422516,0.0,0.0,0.0
0,0.8142192363739014,-0.2236844152212143,0.38997137546539307,0.36271950602531433,0.0,0.0,0.0
0,0.813792884349823,-0.22540691494941711,0.388622522354126,0.36405399441719055,0.0,0.0,0.0
0,0.8126648664474487,-0.22610454261302948,0.38876238465309143,0.3659800589084625,0.0,0.0,0.0
0,0.8119810223579407,-0.22688472270965576,0.38801687955856323,0.36781221628189087,0.0,0.0,0.0
0,0.8107431530952454,-0.22799699008464813,0.38832390308380127,0.369514137506485,0.0,0.0,0.0
0,0.8103070855140686,-0.2285740226507187,0.38711583614349365,0.37138932943344116,0.0,0.0,0.0
0,0.809526801109314,-0.22891424596309662,0.38654080033302307,0.3734721541404724,0.0,0.0,0.0
0,0.8088575601577759,-0.23106929659843445,0.38558366894721985,0.37458330392837524,0.0,0.0,0.0
0,0.8072582483291626,-0.23297007381916046,0.38648465275764465,0.37591832876205444,0.0,0.0,0.0
0,0.8067981004714966,-0.2313235104084015,0.3855075240135193,0.3789188265800476,0.0,0.0,0.0
0,0.8059505820274353,-0.23280049860477448,0.38477957248687744,0.380557656288147,0.0,0.0,0.0
0,0.8050271272659302,-0.23513366281986237,0.3842887878417969,0.3815701901912689,0.0,0.0,0.0
0,0.8042799234390259,-0.2345036268234253,0.3837319612503052,0.3840876817703247,0.0,0.0,0.0
0,0.8035391569137573,-0.23670971393585205,0.38286301493644714,0.3851414918899536,0.0,0.0,0.0
0,0.8025928735733032,-0.2364908903837204,0.38265207409858704,0.38746097683906555,0.0,0.0,0.0
0,0.8018174171447754,-0.23753765225410461,0.38193878531455994,0.3891203999519348,0.0,0.0,0.0
0,0.8012142181396484,-0.23871421813964844,0.3808772563934326,0.39068442583084106,0.0,0.0,0.0
0,0.7996625900268555,-0.23892271518707275,0.3818098306655884,0.3928113281726837,0.0,0.0,0.0
0,0.7990988492965698,-0.23931722342967987,0.38074544072151184,0.39475759863853455,0.0,0.0,0.0
0,0.7987316250801086,-0.24025799334049225,0.37922483682632446,0.39639031887054443,0.0,0.0,0.0
0,0.7976309657096863,-0.24099653959274292,0.3791625201702118,0.39821305871009827,0.0,0.0,0.0
0,0.7972443103790283,-0.24212567508220673,0.3776320815086365,0.3997534513473511,0.0,0.0,0.0
0,0.7953675985336304,-0.24348126351833344,0.37900808453559875,0.40136319398880005,0.0,0.0,0.0
0,0.7947115302085876,-0.24507570266723633,0.37789618968963623,0.40273210406303406,0.0,0.0,0.0
0,0.7941974401473999,-0.24499906599521637,0.37652209401130676,0.40507933497428894,0.0,0.0,0.0
0,0.79329913854599,-0.2452353686094284,0.37607648968696594,0.40710559487342834,0.0,0.0,0.0
0,0.7916795611381531,-0.2464848905801773,0.3769122362136841,0.4087226986885071,0.0,0.0,0.0
0,0.7914229035377502,-0.2466878592967987,0.3751712739467621,0.41069746017456055,0.0,0.0,0.0
0,0.790327787399292,-0.24797509610652924,0.3749830722808838,0.4122007191181183,0.0,0.0,0.0
0,0.7896705865859985,-0.24910324811935425,0.37393394112586975,0.4137296974658966,0.0,0.0,0.0
0,0.7886313796043396,-0.24972671270370483,0.3736724257469177,0.41556939482688904,0.0,0.0,0.0
0,0.7871136665344238,-0.24983224272727966,0.3743889033794403,0.4177284240722656,0.0,0.0,0.0
0,0.7869813442230225,-0.25202083587646484,0.37208831310272217,0.418717622756958,0.0,0.0,0.0
0,0.7856762409210205,-0.25291895866394043,0.37224695086479187,0.42047908902168274,0.0,0.0,0.0
0,0.7847877144813538,-0.25272291898727417,0.3717210590839386,0.42271727323532104,0.0,0.0,0.0
0,0.7835485339164734,-0.2533324956893921,0.37182366847991943,0.42455819249153137,0.0,0.0,0.0
0,0.7827377319335938,-0.25428593158721924,0.37096795439720154,0.426232248544693,0.0,0.0,0.0
0,0.7815390229225159,-0.2560911774635315,0.37057429552078247,0.42769280076026917,0.0,0.0,0.0
0,0.7809256911277771,-0.2567465007305145,0.36938077211380005,0.4294390082359314,0.0,0.0,0.0
0,0.7794989943504333,-0.25770485401153564,0.369706392288208,0.4311729967594147,0.0,0.0,0.0
0,0.7790983319282532,-0.2578987777233124,0.3680955171585083,0.4331654906272888,0.0,0.0,0.0
0,0.7777127623558044,-0.2589021623134613,0.36835426092147827,0.4348238706588745,0.0,0.0,0.0
0,0.7774431705474854,-0.2591819167137146,0.36644384264945984,0.43675848841667175,0.0,0.0,0.0
0,0.7760254144668579,-0.2602863907814026,0.3666757345199585,0.43842312693595886,0.0,0.0,0.0
0,0.7753743529319763,-0.2609497308731079,0.36545875668525696,0.44019514322280884,0.0,0.0,0.0
0,0.7738291621208191,-0.26216956973075867,0.3659622073173523,0.44176024198532104,0.0,0.0,0.0
0,0.7727670073509216,-0.26277831196784973,0.36560723185539246,0.4435476064682007,0.0,0.0,0.0
0,0.7721841931343079,-0.2645969092845917,0.3641328811645508,0.44469547271728516,0.0,0.0,0.0
0,0.771527886390686,-0.26546213030815125,0.3629125952720642,0.4463169574737549,0.0,0.0,0.0
0,0.7701289653778076,-0.2648717761039734,0.36327821016311646,0.4487820267677307,0.0,0.0,0.0
0,0.7690721750259399,-0.2667139768600464,0.3626827299594879,0.4499768614768982,0.0,0.0,0.0
0,0.7680783271789551,-0.26740774512290955,0.3618675470352173,0.4519195556640625,0.0,0.0,0.0
0,0.7667737603187561,-0.267863392829895,0.36190178990364075,0.4538267254829407,0.0,0.0,0.0
0,0.7662960290908813,-0.2685908079147339,0.35995426774024963,0.45575737953186035,0.0,0.0,0.0
0,0.7650372982025146,-0.2696496248245239,0.3600686490535736,0.457152783870697,0.0,0.0,0.0
0,0.7646138668060303,-0.2705783545970917,0.3582790791988373,0.45871657133102417,0.0,0.0,0.0
0,0.7633419632911682,-0.27170494198799133,0.35816577076911926,0.4602521061897278,0.0,0.0,0.0
0,0.7615183591842651,-0.27183300256729126,0.35926562547683716,0.4623299539089203,0.0,0.0,0.0
0,0.7610251903533936,-0.27298983931541443,0.35755300521850586,0.46378588676452637,0.0,0.0,0.0
0,0.760237991809845,-0.2727608382701874,0.3566192388534546,0.465934157371521,0.0,0.0,0.0
0,0.7588951587677002,-0.2742987871170044,0.3565646708011627,0.4672602713108063,0.0,0.0,0.0
0,0.7579822540283203,-0.27404943108558655,0.3557918071746826,0.4694690704345703,0.0,0.0,0.0
0,0.7569094896316528,-0.27612876892089844,0.3545674979686737,0.4709089398384094,0.0,0.0,0.0
0,0.7555467486381531,-0.2764631509780884,0.35513418912887573,0.47246256470680237,0.0,0.0,0.0
0,0.7548088431358337,-0.2782876789569855,0.3538186550140381,0.4735601544380188,0.0,0.0,0.0
0,0.7538893222808838,-0.27763232588768005,0.35282862186431885,0.47614574432373047,0.0,0.0,0.0
0,0.7527544498443604,-0.2791638970375061,0.3523312211036682,0.47741255164146423,0.0,0.0,0.0
0,0.7517555356025696,-0.27935168147087097,0.3516544699668884,0.47937124967575073,0.0,0.0,0.0
0,0.7504826188087463,-0.27986258268356323,0.35145798325538635,0.48120900988578796,0.0,0.0,0.0
0,0.7496341466903687,-0.28185218572616577,0.3502419888973236,0.4822487235069275,0.0,0.0,0.0
0,0.7479826211929321,-0.2827463448047638,0.3507848381996155,0.4838992953300476,0.0,0.0,0.0
0,0.7469013929367065,-0.2826167643070221,0.35026073455810547,0.4860151708126068,0.0,0.0,0.0
0,0.7467517852783203,-0.28393542766571045,0.34772273898124695,0.48729944229125977,0.0,0.0,0.0
0,0.7446324825286865,-0.28378933668136597,0.3492836058139801,0.4895026981830597,0.0,0.0,0.0
0,0.7439040541648865,-0.2844254970550537,0.34793025255203247,0.49120235443115234,0.0,0.0,0.0
0,0.7428327202796936,-0.2861059904098511,0.3472173511981964,0.49235692620277405,0.0,0.0,0.0
0,0.7411913275718689,-0.28611239790916443,0.3478004038333893,0.4944087862968445,0.0,0.0,0.0
0,0.7404962778091431,-0.28778108954429626,0.3462923467159271,0.49553218483924866,0.0,0.0,0.0
0,0.7398762702941895,-0.2875732183456421,0.3445374667644501,0.49780669808387756,0.0,0.0,0.0
0,0.7383518815040588,-0.28873175382614136,0.3446979820728302,0.49928486347198486,0.0,0.0,0.0
0,0.7374016046524048,-0.28965792059898376,0.3437197804450989,0.5008170008659363,0.0,0.0,0.0
0,0.7366623282432556,-0.2897012233734131,0.34236791729927063,0.5028107762336731,0.0,0.0,0.0
0,0.7351394891738892,-0.2909497618675232,0.3424646854400635,0.5042487382888794,0.0,0.0,0.0
0,0.7342326641082764,-0.29198533296585083,0.3413463830947876,0.5057286620140076,0.0,0.0,0.0
0,0.7320975065231323,-0.29298335313796997,0.3427187502384186,0.5073104500770569,0.0,0.0,0.0
0,0.7317491769790649,-0.293999582529068,0.34050509333610535,0.5087196826934814,0.0,0.0,0.0
0,0.7305423617362976,-0.2935963273048401,0.34016039967536926,0.510912299156189,0.0,0.0,0.0
0,0.72942054271698,-0.2958363890647888,0.33931639790534973,0.5117822289466858,0.0,0.0,0.0
0,0.7287522554397583,-0.29562970995903015,0.33781012892723083,0.5138481855392456,0.0,0.0,0.0
0,0.7275331616401672,-0.2959979772567749,0.33729150891304016,0.5157020688056946,0.0,0.0,0.0
0,0.7263954281806946,-0.2976163327693939,0.33649367094039917,0.5168923139572144,0.0,0.0,0.0
0,0.7250730395317078,-0.29765498638153076,0.33622753620147705,0.5188917517662048,0.0,0.0,0.0
0,0.7239426374435425,-0.29883840680122375,0.33517560362815857,0.5204730033874512,0.0,0.0,0.0
0,0.7224708199501038,-0.29899951815605164,0.33517444133758545,0.522421658039093,0.0,0.0,0.0
0,0.7217010855674744,-0.299772173166275,0.333761066198349,0.5239466428756714,0.0,0.0,0.0
0,0.72034752368927,-0.3005412817001343,0.33343279361724854,0.5255752205848694,0.0,0.0,0.0
0,0.7192560434341431,-0.3011036813259125,0.3326016366481781,0.5272694230079651,0.0,0.0,0.0
0,0.7173240780830383,-0.30403316020965576,0.33320555090904236,0.5278370380401611,0.0,0.0,0.0
0,0.7164390683174133,-0.3035650849342346,0.33209043741226196,0.530010461807251,0.0,0.0,0.0
0,0.715195894241333,-0.3047386109828949,0.3315427601337433,0.5313494801521301,0.0,0.0,0.0
0,0.714658260345459,-0.3041379451751709,0.3297729790210724,0.5335224270820618,0.0,0.0,0.0
0,0.7130643725395203,-0.30482378602027893,0.3299621343612671,0.5351372361183167,0.0,0.0,0.0
0,0.7116559147834778,-0.3062022030353546,0.3293367922306061,0.5366066694259644,0.0,0.0,0.0
0,0.710647702217102,-0.3061981201171875,0.328386127948761,0.5385328531265259,0.0,0.0,0.0
0,0.70924973487854,-0.30796578526496887,0.3282690644264221,0.5394297242164612,0.0,0.0,0.0
0,0.708704948425293,-0.3093031942844391,0.3262336254119873,0.5406208038330078,0.0,0.0,0.0
0,0.7070098519325256,-0.3100058436393738,0.32625994086265564,0.5424128770828247,0.0,0.0,0.0
0,0.7058528065681458,-0.3096153140068054,0.32562118768692017,0.5445295572280884,0.0,0.0,0.0
0,0.7047672867774963,-0.3099520802497864,0.32473501563072205,0.546271562576294,0.0,0.0,0.0
0,0.7034260034561157,-0.3112775385379791,0.32426363229751587,0.5475249290466309,0.0,0.0,0.0
0,0.7025892734527588,-0.3112351596355438,0.32293570041656494,0.5494052171707153,0.0,0.0,0.0
0,0.7012272477149963,-0.3129201829433441,0.3224124610424042,0.5504928231239319,0.0,0.0,0.0
0,0.6998646855354309,-0.31318095326423645,0.3220676779747009,0.5522788763046265,0.0,0.0,0.0
0,0.6986120939254761,-0.3141164183616638,0.3211153745651245,0.5538856983184814,0.0,0.0,0.0
0,0.6977213025093079,-0.3143652081489563,0.32015007734298706,0.5554234385490417,0.0,0.0,0.0
0,0.6959545016288757,-0.3163420259952545,0.32043713331222534,0.5563437342643738,0.0,0.0,0.0
0,0.6949980854988098,-0.31607750058174133,0.3193458318710327,0.5583221912384033,0.0,0.0,0.0
0,0.693484365940094,-0.31712988018989563,0.31911179423332214,0.5597392916679382,0.0,0.0,0.0
0,0.6921589970588684,-0.31849005818367004,0.3184643089771271,0.5609667897224426,0.0,0.0,0.0
0,0.6908748745918274,-0.31790944933891296,0.317709743976593,0.5633066892623901,0.0,0.0,0.0
0,0.6899608373641968,-0.31926658749580383,0.3163240849971771,0.564440906047821,0.0,0.0,0.0
0,0.6886014938354492,-0.31985291838645935,0.31585654616355896,0.5660210847854614,0.0,0.0,0.0
0,0.6874342560768127,-0.32048702239990234,0.31468722224235535,0.5677372813224792,0.0,0.0,0.0
0,0.6862260699272156,-0.3213588297367096,0.3138416111469269,0.569172203540802,0.0,0.0,0.0
0,0.6848680377006531,-0.3223232626914978,0.31361180543899536,0.5703854560852051,0.0,0.0,0.0
0,0.683345377445221,-0.3225262761116028,0.3135010302066803,0.5721532702445984,0.0,0.0,0.0
0,0.6823003888130188,-0.32297283411026,0.3123459815979004,0.5737835168838501,0.0,0.0,0.0
0,0.6810506582260132,-0.3235207498073578,0.3115812838077545,0.5753725171089172,0.0,0.0,0.0
0,0.6795306205749512,-0.3246692717075348,0.31124719977378845,0.5767021179199219,0.0,0.0,0.0
0,0.6786576509475708,-0.3259222209453583,0.30961376428604126,0.5778979063034058,0.0,0.0,0.0
0,0.6774314045906067,-0.3261245787143707,0.3088904619216919,0.5796087384223938,0.0,0.0,0.0
0,0.6758590936660767,-0.3268033564090729,0.30878135561943054,0.5811197757720947,0.0,0.0,0.0
0,0.6745913028717041,-0.3275258243083954,0.3073761463165283,0.582927405834198,0.0,0.0,0.0
0,0.6728846430778503,-0.3293793499469757,0.3076832890510559,0.5836870670318604,0.0,0.0,0.0
0,0.6724636554718018,-0.3283539116382599,0.30535367131233215,0.5859754085540771,0.0,0.0,0.0
0,0.6707667708396912,-0.32960858941078186,0.3053991496562958,0.5871913433074951,0.0,0.0,0.0
0,0.6697494387626648,-0.32996052503585815,0.3041374385356903,0.5888078808784485,0.0,0.0,0.0
0,0.6683963537216187,-0.3317520320415497,0.3034490942955017,0.5896874666213989,0.0,0.0,0.0
0,0.6671055555343628,-0.3310951590538025,0.3028724193572998,0.5918170213699341,0.0,0.0,0.0
0,0.6653919816017151,-0.33162903785705566,0.3029596209526062,0.5933958888053894,0.0,0.0,0.0
0,0.6638393998146057,-0.33318835496902466,0.30258122086524963,0.5944496989250183,0.0,0.0,0.0
0,0.6626689434051514,-0.33484452962875366,0.3014809787273407,0.595384955406189,0.0,0.0,0.0
0,0.6611546874046326,-0.3343498110771179,0.3012387454509735,0.5974649786949158,0.0,0.0,0.0
0,0.6597960591316223,-0.3360120952129364,0.3004847764968872,0.5984119772911072,0.0,0.0,0.0
0,0.6590858697891235,-0.33499783277511597,0.2987139821052551,0.6006536483764648,0.0,0.0,0.0
0,0.6576141715049744,-0.33633288741111755,0.29816243052482605,0.601788341999054,0.0,0.0,0.0
0,0.6564280390739441,-0.33725810050964355,0.29677921533584595,0.6032493114471436,0.0,0.0,0.0
0,0.6544663906097412,-0.33814749121665955,0.2971813976764679,0.6046788692474365,0.0,0.0,0.0
0,0.6536673307418823,-0.3385387361049652,0.2953905165195465,0.6062049865722656,0.0,0.0,0.0
0,0.6520853042602539,-0.3386092782020569,0.29521194100379944,0.6079574227333069,0.0,0.0,0.0
0,0.6505519151687622,-0.33947455883026123,0.29484274983406067,0.6092895269393921,0.0,0.0,0.0
0,0.6491017937660217,-0.33975356817245483,0.29430845379829407,0.6109366416931152,0.0,0.0,0.0
0,0.6479610204696655,-0.3401832580566406,0.2931676506996155,0.6124606132507324,0.0,0.0,0.0
0,0.6471418738365173,-0.3418079614639282,0.2912765443325043,0.6133197546005249,0.0,0.0,0.0
0,0.6450667381286621,-0.34180331230163574,0.2920394837856293,0.6151458024978638,0.0,0.0,0.0
0,0.6437401175498962,-0.3417949974536896,0.291237473487854,0.6169141530990601,0.0,0.0,0.0
0,0.6423017978668213,-0.34317076206207275,0.290475994348526,0.6180077791213989,0.0,0.0,0.0
0,0.6413509249687195,-0.3440036177635193,0.2888234853744507,0.6193075776100159,0.0,0.0,0.0
0,0.6395916938781738,-0.3448769450187683,0.28880009055137634,0.6206480860710144,0.0,0.0,0.0
0,0.6382452249526978,-0.34522339701652527,0.2879948616027832,0.6222150325775146,0.0,0.0,0.0
0,0.6367684602737427,-0.34487640857696533,0.28718554973602295,0.6242936253547668,0.0,0.0,0.0
0,0.6349232792854309,-0.34792158007621765,0.2871444523334503,0.6244975328445435,0.0,0.0,0.0
0,0.6341753005981445,-0.3482080399990082,0.2851775288581848,0.6260001063346863,0.0,0.0,0.0
0,0.6329098343849182,-0.34772393107414246,0.2842757999897003,0.6279593110084534,0.0,0.0,0.0
0,0.6315560936927795,-0.34731319546699524,0.28352677822113037,0.6298843622207642,0.0,0.0,0.0
0,0.6297934651374817,-0.35003024339675903,0.28331321477890015,0.6302351355552673,0.0,0.0,0.0
0,0.6282534003257751,-0.3509225845336914,0.28278034925460815,0.6315140128135681,0.0,0.0,0.0
0,0.6270200610160828,-0.35034048557281494,0.2814813256263733,0.6336467862129211,0.0,0.0,0.0
0,0.6255447268486023,-0.350633442401886,0.28086718916893005,0.6352100372314453,0.0,0.0,0.0
0,0.6240506768226624,-0.35184523463249207,0.2802131474018097,0.6363005042076111,0.0,0.0,0.0
0,0.621360719203949,-0.35389646887779236,0.27835938334465027,0.6385990381240845,0.0,0.0,0.0
0,0.6184268593788147,-0.3541713356971741,0.2770649194717407,0.6418483257293701,0.0,0.0,0.0
0,0.615818202495575,-0.3551701605319977,0.2750421166419983,0.6446748971939087,0.0,0.0,0.0
0,0.6130405068397522,-0.35668373107910156,0.27334851026535034,0.647201657295227,0.0,0.0,0.0
0,0.6118179559707642,-0.3568519949913025,0.2722170054912567,0.6487420797348022,0.0,0.0,0.0
0,0.6099737882614136,-0.3582822382450104,0.27251845598220825,0.6495568752288818,0.0,0.0,0.0
0,0.6088352203369141,-0.35764989256858826,0.2708996534347534,0.6516527533531189,0.0,0.0,0.0
0,0.6071222424507141,-0.358697772026062,0.27067527174949646,0.6527672410011292,0.0,0.0,0.0
0,0.6060855388641357,-0.35912594199180603,0.26912587881088257,0.6541348695755005,0.0,0.0,0.0
0,0.6038714647293091,-0.35989266633987427,0.2698461711406708,0.6554599404335022,0.0,0.0,0.0
0,0.6029170155525208,-0.36000150442123413,0.268133282661438,0.6569825410842896,0.0,0.0,0.0
0,0.6012994647026062,-0.36151912808418274,0.2675408124923706,0.657866358757019,0.0,0.0,0.0
0,0.6000877022743225,-0.36149513721466064,0.26638591289520264,0.6594595313072205,0.0,0.0,0.0
0,0.5984841585159302,-0.36214685440063477,0.26590362191200256,0.6607524156570435,0.0,0.0,0.0
0,0.597038209438324,-0.36272650957107544,0.26508036255836487,0.6620708703994751,0.0,0.0,0.0
0,0.5958437919616699,-0.36423227190971375,0.2636471092700958,0.6628865599632263,0.0,0.0,0.0
0,0.5945202708244324,-0.3643920421600342,0.262308269739151,0.6645220518112183,0.0,0.0,0.0
0,0.5926858186721802,-0.36405831575393677,0.26268768310546875,0.6661906838417053,0.0,0.0,0.0
0,0.5912115573883057,-0.3656041920185089,0.2616977393627167,0.6670445799827576,0.0,0.0,0.0
0,0.5897644758224487,-0.3650040328502655,0.2610260546207428,0.668912947177887,0.0,0.0,0.0
0,0.587679386138916,-0.36649981141090393,0.2609390914440155,0.6699607372283936,0.0,0.0,0.0
0,0.5863510370254517,-0.3669023811817169,0.2598615884780884,0.6713259816169739,0.0,0.0,0.0
0,0.5852241516113281,-0.3678956925868988,0.2583428919315338,0.6723451614379883,0.0,0.0,0.0
0,0.5842480063438416,-0.36891889572143555,0.2565232813358307,0.673332154750824,0.0,0.0,0.0
0,0.5821231007575989,-0.3692534863948822,0.2569846510887146,0.67481529712677,0.0,0.0,0.0
0,0.5810216069221497,-0.3688635528087616,0.25540870428085327,0.6765740513801575,0.0,0.0,0.0
0,0.5793890357017517,-0.3702874183654785,0.25474369525909424,0.6774408221244812,0.0,0.0,0.0
0,0.5773260593414307,-0.370587021112442,0.2549976706504822,0.6789405345916748,0.0,0.0,0.0
0,0.5765448808670044,-0.3702539801597595,0.2528645694255829,0.680587649345398,0.0,0.0,0.0
0,0.5754644274711609,-0.3717501163482666,0.2511168420314789,0.6813334226608276,0.0,0.0,0.0
0,0.5732036828994751,-0.3721393644809723,0.25187748670578003,0.6827440857887268,0.0,0.0,0.0
0,0.5716666579246521,-0.3720436096191406,0.25123515725135803,0.6843191981315613,0.0,0.0,0.0
0,0.5697711110115051,-0.3733219802379608,0.2511231005191803,0.6852400898933411,0.0,0.0,0.0
0,0.569012463092804,-0.37376657128334045,0.24878983199596405,0.6864830255508423,0.0,0.0,0.0
0,0.5675432682037354,-0.3744572401046753,0.2474938929080963,0.6877872347831726,0.0,0.0,0.0
0,0.5657875537872314,-0.37464001774787903,0.24720874428749084,0.6892383694648743,0.0,0.0,0.0
0,0.5644325017929077,-0.37552663683891296,0.24591727554798126,0.6903265118598938,0.0,0.0,0.0
0,0.5623342394828796,-0.37589317560195923,0.24631349742412567,0.6916938424110413,0.0,0.0,0.0
0,0.5608407855033875,-0.37651219964027405,0.24541547894477844,0.692889392375946,0.0,0.0,0.0
0,0.5595723986625671,-0.37652823328971863,0.24405042827129364,0.694386899471283,0.0,0.0,0.0
0,0.5576343536376953,-0.3771887719631195,0.24398092925548553,0.695613443851471,0.0,0.0,0.0
0,0.5566959977149963,-0.37787702679634094,0.2418852001428604,0.6967220902442932,0.0,0.0,0.0
0,0.5549015998840332,-0.37991219758987427,0.24133823812007904,0.6972336173057556,0.0,0.0,0.0
0,0.5531123876571655,-0.37896713614463806,0.24106690287590027,0.6992577910423279,0.0,0.0,0.0
0,0.5520063042640686,-0.37856563925743103,0.23946870863437653,0.7009022235870361,0.0,0.0,0.0
0,0.5498452186584473,-0.3808269202709198,0.23964543640613556,0.7013146281242371,0.0,0.0,0.0
0,0.5485414862632751,-0.3807869255542755,0.23835782706737518,0.7027918100357056,0.0,0.0,0.0
0,0.5467982888221741,-0.3814683258533478,0.2374124974012375,0.7041012048721313,0.0,0.0,0.0
0,0.5450301170349121,-0.38254696130752563,0.23691457509994507,0.7050499320030212,0.0,0.0,0.0
0,0.5440569519996643,-0.382534384727478,0.23492060601711273,0.7064799070358276,0.0,0.0,0.0
0,0.5422635078430176,-0.3824792504310608,0.2345859259366989,0.707998514175415,0.0,0.0,0.0
0,0.5406346917152405,-0.38333314657211304,0.23388856649398804,0.7090120315551758,0.0,0.0,0.0
0,0.5392847657203674,-0.3834018409252167,0.23266921937465668,0.7104032635688782,0.0,0.0,0.0
0,0.5372750163078308,-0.3849708139896393,0.23259718716144562,0.7110939621925354,0.0,0.0,0.0
0,0.5357267260551453,-0.3843827545642853,0.2318752259016037,0.7128164768218994,0.0,0.0,0.0
0,0.5343705415725708,-0.3861237168312073,0.2305232137441635,0.713330864906311,0.0,0.0,0.0
0,0.5326879024505615,-0.38531413674354553,0.23005393147468567,0.7151784896850586,0.0,0.0,0.0
0,0.530752956867218,-0.3871038854122162,0.22977977991104126,0.7157356142997742,0.0,0.0,0.0
0,0.5296027660369873,-0.387349009513855,0.2276913970708847,0.7171207070350647,0.0,0.0,0.0
0,0.5276448130607605,-0.3871939182281494,0.22762665152549744,0.718666672706604,0.0,0.0,0.0
0,0.5261277556419373,-0.3879852592945099,0.2266709953546524,0.7196552157402039,0.0,0.0,0.0
0,0.5248841047286987,-0.38727641105651855,0.224473774433136,0.7216354012489319,0.0,0.0,0.0
0,0.5245501399040222,-0.3836844861507416,0.22077681124210358,0.724929928779602,0.0,0.0,0.0
0,0.5228244066238403,-0.3845738172531128,0.2202267050743103,0.7258720397949219,0.0,0.0,0.0
0,0.5214036703109741,-0.38495373725891113,0.21902991831302643,0.7270536422729492,0.0,0.0,0.0
0,0.5196095705032349,-0.3855215013027191,0.21853242814540863,0.7281847596168518,0.0,0.0,0.0
0,0.5178398489952087,-0.38633111119270325,0.2180437594652176,0.7291588187217712,0.0,0.0,0.0
0,0.5171577334403992,-0.38591432571411133,0.21548819541931152,0.730625331401825,0.0,0.0,0.0
0,0.5150566101074219,-0.3864600956439972,0.21562492847442627,0.7317819595336914,0.0,0.0,0.0
0,0.5136290192604065,-0.38683056831359863,0.21440741419792175,0.7329453825950623,0.0,0.0,0.0
0,0.5120565295219421,-0.3873119056224823,0.21298955380916595,0.7342036962509155,0.0,0.0,0.0
0,0.5103832483291626,-0.3886197507381439,0.21223410964012146,0.7348955869674683,0.0,0.0,0.0
0,0.5082626938819885,-0.38966748118400574,0.21234874427318573,0.7357712388038635,0.0,0.0,0.0
0,0.507108211517334,-0.3902947008609772,0.2105744630098343,0.7367480397224426,0.0,0.0,0.0
0,0.5051100850105286,-0.38925671577453613,0.21064911782741547,0.7386438250541687,0.0,0.0,0.0
0,0.5038771033287048,-0.39048510789871216,0.20896843075752258,0.7393204569816589,0.0,0.0,0.0
0,0.5024347305297852,-0.3908713161945343,0.20772328972816467,0.7404447793960571,0.0,0.0,0.0
0,0.5000247359275818,-0.39138904213905334,0.2085341215133667,0.7415714263916016,0.0,0.0,0.0
0,0.4986734986305237,-0.3909513056278229,0.20727406442165375,0.7430684566497803,0.0,0.0,0.0
0,0.49693411588668823,-0.39142316579818726,0.20666006207466125,0.7441531419754028,0.0,0.0,0.0
0,0.49507108330726624,-0.39325517416000366,0.20568057894706726,0.7447031736373901,0.0,0.0,0.0
0,0.49374547600746155,-0.3931221663951874,0.2046671062707901,0.745925784111023,0.0,0.0,0.0
0,0.4927607774734497,-0.39347702264785767,0.2024916708469391,0.7469878196716309,0.0,0.0,0.0
0,0.4905838668346405,-0.3931231200695038,0.2027314454317093,0.7485400438308716,0.0,0.0,0.0
0,0.4889698624610901,-0.3943442702293396,0.20134684443473816,0.7493281364440918,0.0,0.0,0.0
0,0.4864421486854553,-0.3946983814239502,0.20227952301502228,0.7505302429199219,0.0,0.0,0.0
0,0.48544225096702576,-0.3952485918998718,0.20010682940483093,0.7514742016792297,0.0,0.0,0.0
0,0.48411133885383606,-0.3948298692703247,0.19866293668746948,0.7529347538948059,0.0,0.0,0.0
0,0.482027143239975,-0.39549094438552856,0.19864673912525177,0.7539260387420654,0.0,0.0,0.0
0,0.4808109998703003,-0.39730072021484375,0.1967528611421585,0.7542452812194824,0.0,0.0,0.0
0,0.47889867424964905,-0.39659062027931213,0.1965731680393219,0.7558848261833191,0.0,0.0,0.0
0,0.4768368899822235,-0.3977508842945099,0.19644947350025177,0.7566053867340088,0.0,0.0,0.0
0,0.4752931296825409,-0.39732834696769714,0.19551008939743042,0.75804203748703,0.0,0.0,0.0
0,0.4735753834247589,-0.3977310359477997,0.19472914934158325,0.7591089606285095,0.0,0.0,0.0
0,0.472394198179245,-0.39812102913856506,0.19290150701999664,0.760107696056366,0.0,0.0,0.0
0,0.4709549844264984,-0.39915987849235535,0.191580131649971,0.7607893347740173,0.0,0.0,0.0
0,0.46889111399650574,-0.3995054364204407,0.19153837859630585,0.7618911862373352,0.0,0.0,0.0
0,0.46751901507377625,-0.39957496523857117,0.19013574719429016,0.763045072555542,0.0,0.0,0.0
0,0.4657571613788605,-0.39973434805870056,0.18908512592315674,0.7643046975135803,0.0,0.0,0.0
0,0.4635894000530243,-0.40098458528518677,0.18900473415851593,0.7649818062782288,0.0,0.0,0.0
0,0.4623423218727112,-0.4002692699432373,0.1874380111694336,0.7665008306503296,0.0,0.0,0.0
0,0.46043816208839417,-0.4010896682739258,0.1869705766439438,0.7673318386077881,0.0,0.0,0.0
0,0.4588913321495056,-0.40240612626075745,0.1857983022928238,0.767849862575531,0.0,0.0,0.0
0,0.4574100077152252,-0.4009154736995697,0.18473732471466064,0.7697709798812866,0.0,0.0,0.0
0,0.45518219470977783,-0.40225958824157715,0.18477921187877655,0.7703804969787598,0.0,0.0,0.0
0,0.45361196994781494,-0.4031819999217987,0.1835830956697464,0.7711095213890076,0.0,0.0,0.0
0,0.4522912800312042,-0.403390496969223,0.18194593489170074,0.7721618413925171,0.0,0.0,0.0
0,0.44989660382270813,-0.4042515456676483,0.18246665596961975,0.7729883193969727,0.0,0.0,0.0
0,0.44864973425865173,-0.4037838280200958,0.1807841658592224,0.7743467688560486,0.0,0.0,0.0
0,0.44713184237480164,-0.40431734919548035,0.17958462238311768,0.775230348110199,0.0,0.0,0.0
0,0.44490739703178406,-0.4053449034690857,0.17977440357208252,0.7759255170822144,0.0,0.0,0.0
0,0.4434855282306671,-0.4047769606113434,0.17804503440856934,0.7774372100830078,0.0,0.0,0.0
0,0.4413679838180542,-0.4057600200176239,0.17801697552204132,0.7781333923339844,0.0,0.0,0.0
0,0.4403581917285919,-0.40586620569229126,0.17582820355892181,0.7791483402252197,0.0,0.0,0.0
0,0.43871721625328064,-0.40601253509521484,0.17486460506916046,0.7802153825759888,0.0,0.0,0.0
0,0.4362000823020935,-0.40678200125694275,0.1755003184080124,0.7810773253440857,0.0,0.0,0.0
0,0.43479371070861816,-0.40723878145217896,0.1739206463098526,0.7819812893867493,0.0,0.0,0.0
0,0.4335234463214874,-0.40674036741256714,0.17220920324325562,0.7833238840103149,0.0,0.0,0.0
0,0.4313203692436218,-0.408722460269928,0.17211171984672546,0.7835268974304199,0.0,0.0,0.0
0,0.4297906160354614,-0.4080922603607178,0.17094899713993073,0.7849516868591309,0.0,0.0,0.0
0,0.42826414108276367,-0.40859249234199524,0.16962146759033203,0.7858127355575562,0.0,0.0,0.0
0,0.42634788155555725,-0.40867093205451965,0.1690933108329773,0.7869278192520142,0.0,0.0,0.0
0,0.4242744445800781,-0.4095991849899292,0.16886630654335022,0.7876121997833252,0.0,0.0,0.0
0,0.4232249855995178,-0.410519540309906,0.16655340790748596,0.7881883978843689,0.0,0.0,0.0
0,0.4208386242389679,-0.40987730026245117,0.16705594956874847,0.7896937727928162,0.0,0.0,0.0
0,0.4191540777683258,-0.4105720818042755,0.16555075347423553,0.7905443906784058,0.0,0.0,0.0
0,0.4172329008579254,-0.41098344326019287,0.1651027649641037,0.7914406061172485,0.0,0.0,0.0
0,0.41581740975379944,-0.4118865132331848,0.163370743393898,0.7920776605606079,0.0,0.0,0.0
0,0.41439133882522583,-0.41132792830467224,0.161894291639328,0.7934166193008423,0.0,0.0,0.0
0,0.4121272563934326,-0.4119654893875122,0.16196106374263763,0.7942514419555664,0.0,0.0,0.0
0,0.4107753038406372,-0.41271576285362244,0.1602954864501953,0.7948991656303406,0.0,0.0,0.0
0,0.40825480222702026,-0.4126300513744354,0.16100449860095978,0.7960947155952454,0.0,0.0,0.0
0,0.40701228380203247,-0.4127435088157654,0.15906594693660736,0.7970654368400574,0.0,0.0,0.0
0,0.4052043855190277,-0.4129795432090759,0.15818418562412262,0.7980386018753052,0.0,0.0,0.0
0,0.40370696783065796,-0.41365846991539,0.15665562450885773,0.7987478971481323,0.0,0.0,0.0
0,0.401618093252182,-0.41517987847328186,0.15635894238948822,0.7990647554397583,0.0,0.0,0.0
0,0.4004049599170685,-0.4134773910045624,0.15458707511425018,0.800903856754303,0.0,0.0,0.0
0,0.39809364080429077,-0.4146830141544342,0.15478642284870148,0.8013940453529358,0.0,0.0,0.0
0,0.39626994729042053,-0.4145955741405487,0.15360334515571594,0.8025645613670349,0.0,0.0,0.0
0,0.3949248492717743,-0.4157242476940155,0.15184824168682098,0.8029794692993164,0.0,0.0,0.0
0,0.392473429441452,-0.41656649112701416,0.15237225592136383,0.8036438822746277,0.0,0.0,0.0
0,0.3909913897514343,-0.4160849452018738,0.15091539919376373,0.8048950433731079,0.0,0.0,0.0
0,0.3892711400985718,-0.41672441363334656,0.1497890204191208,0.8056071996688843,0.0,0.0,0.0
0,0.38788041472435,-0.415818452835083,0.14825330674648285,0.8070296049118042,0.0,0.0,0.0
0,0.3862658739089966,-0.4172074496746063,0.14689017832279205,0.8073357939720154,0.0,0.0,0.0
0,0.3834925889968872,-0.41743457317352295,0.14810509979724884,0.8083158135414124,0.0,0.0,0.0
0,0.38215354084968567,-0.4174625277519226,0.14636504650115967,0.8092549443244934,0.0,0.0,0.0
0,0.3810276985168457,-0.4186495542526245,0.14412225782871246,0.809572696685791,0.0,0.0,0.0
0,0.3782511055469513,-0.4197174608707428,0.14516672492027283,0.8101342916488647,0.0,0.0,0.0
0,0.37694790959358215,-0.4180424213409424,0.14356158673763275,0.811894416809082,0.0,0.0,0.0
0,0.375225305557251,-0.4196379780769348,0.1424115151166916,0.8120666146278381,0.0,0.0,0.0
0,0.3734952509403229,-0.4187432527542114,0.141517773270607,0.81348717212677,0.0,0.0,0.0
0,0.3720337450504303,-0.41951999068260193,0.13945133984088898,0.8141123652458191,0.0,0.0,0.0
0,0.36973708868026733,-0.42012080550193787,0.1396276354789734,0.8148187398910522,0.0,0.0,0.0
0,0.36831894516944885,-0.4201858937740326,0.13789701461791992,0.815721333026886,0.0,0.0,0.0
0,0.3659522831439972,-0.4203435778617859,0.13821855187416077,0.8166505098342896,0.0,0.0,0.0
0,0.36408179998397827,-0.4208714962005615,0.1374809592962265,0.8173351883888245,0.0,0.0,0.0
0,0.362663209438324,-0.4216550290584564,0.1357201188802719,0.8178556561470032,0.0,0.0,0.0
0,0.36101531982421875,-0.42221716046333313,0.13450419902801514,0.8184943199157715,0.0,0.0,0.0
0,0.35916441679000854,-0.4214785397052765,0.1338220089673996,0.819800078868866,0.0,0.0,0.0
0,0.3572591245174408,-0.42208728194236755,0.13317157328128815,0.8204285502433777,0.0,0.0,0.0
0,0.3551742136478424,-0.423090398311615,0.13274388015270233,0.820888102054596,0.0,0.0,0.0
0,0.3540266454219818,-0.42269167304039,0.13064232468605042,0.8219245672225952,0.0,0.0,0.0
0,0.35242530703544617,-0.4234626293182373,0.12923379242420197,0.8224356770515442,0.0,0.0,0.0
0,0.3503648042678833,-0.4230491816997528,0.1288221776485443,0.8235958218574524,0.0,0.0,0.0
0,0.34806567430496216,-0.42322593927383423,0.1289503276348114,0.824459969997406,0.0,0.0,0.0
0,0.3463176488876343,-0.42321979999542236,0.12745293974876404,0.8254307508468628,0.0,0.0,0.0
0,0.34461861848831177,-0.42427366971969604,0.12619701027870178,0.8257918953895569,0.0,0.0,0.0
0,0.3425445556640625,-0.42361757159233093,0.12587131559848785,0.8270427584648132,0.0,0.0,0.0
0,0.340998113155365,-0.4244067966938019,0.1244058683514595,0.8274983763694763,0.0,0.0,0.0
0,0.338878333568573,-0.42413589358329773,0.12413331866264343,0.8285495638847351,0.0,0.0,0.0
0,0.33737361431121826,-0.42438480257987976,0.12259788066148758,0.8292640447616577,0.0,0.0,0.0
0,0.3356844484806061,-0.42443838715553284,0.12144330888986588,0.8300909399986267,0.0,0.0,0.0
0,0.3334813117980957,-0.4255964756011963,0.12117312103509903,0.8304257392883301,0.0,0.0,0.0
0,0.3319435119628906,-0.4253057539463043,0.11966530978679657,0.8314090371131897,0.0,0.0,0.0
0,0.33031368255615234,-0.4262486398220062,0.11829446256160736,0.8317710757255554,0.0,0.0,0.0
0,0.32784515619277954,-0.4267245829105377,0.11868348717689514,0.8324468731880188,0.0,0.0,0.0
0,0.32583266496658325,-0.4259120523929596,0.11831263452768326,0.8337047100067139,0.0,0.0,0.0
0,0.3249231278896332,-0.427433580160141,0.1154269203543663,0.8336840271949768,0.0,0.0,0.0
0,0.3222990036010742,-0.42811402678489685,0.11557518690824509,0.8343313336372375,0.0,0.0,0.0
0,0.3206629157066345,-0.42878925800323486,0.11428327858448029,0.83479243516922,0.0,0.0,0.0
0,0.31896647810935974,-0.4282766580581665,0.11321279406547546,0.8358554840087891,0.0,0.0,0.0
0,0.31650060415267944,-0.4278329610824585,0.11371821910142899,0.8369496464729309,0.0,0.0,0.0
0,0.3152143955230713,-0.4277789890766144,0.11177411675453186,0.8377252221107483,0.0,0.0,0.0
0,0.31334900856018066,-0.42801928520202637,0.11098110675811768,0.8384074568748474,0.0,0.0,0.0
0,0.31170570850372314,-0.4285412132740021,0.10965894907712936,0.8389269113540649,0.0,0.0,0.0
0,0.31001025438308716,-0.42927858233451843,0.10837968438863754,0.8393427133560181,0.0,0.0,0.0
0,0.3080143630504608,-0.4282954931259155,0.10783033818006516,0.8406516909599304,0.0,0.0,0.0
0,0.3061416447162628,-0.4292525351047516,0.10688397288322449,0.8409683704376221,0.0,0.0,0.0
0,0.30455026030540466,-0.4288632273674011,0.10549110174179077,0.8419201374053955,0.0,0.0,0.0
0,0.30226343870162964,-0.43029144406318665,0.10490849614143372,0.8420830965042114,0.0,0.0,0.0
0,0.3000839948654175,-0.43050459027290344,0.10515879094600677,0.8427267074584961,0.0,0.0,0.0
0,0.2984629273414612,-0.4307393431663513,0.10377488285303116,0.8433505296707153,0.0,0.0,0.0
0,0.29679831862449646,-0.43100374937057495,0.10198866575956345,0.8440194725990295,0.0,0.0,0.0
0,0.2946608364582062,-0.430101603269577,0.10180258005857468,0.8452552556991577,0.0,0.0,0.0
0,0.2929787337779999,-0.43074914813041687,0.10048229992389679,0.8456652164459229,0.0,0.0,0.0
0,0.2912110686302185,-0.4325927495956421,0.09916680306196213,0.8454875349998474,0.0,0.0,0.0
0,0.2899837791919708,-0.4311010539531708,0.09721042960882187,0.8469017744064331,0.0,0.0,0.0
0,0.28756871819496155,-0.43101340532302856,0.09745325893163681,0.8477419018745422,0.0,0.0,0.0
0,0.28578588366508484,-0.43150410056114197,0.09638723731040955,0.8482173681259155,0.0,0.0,0.0
0,0.2839632034301758,-0.4325074851512909,0.09536837786436081,0.848431408405304,0.0,0.0,0.0
0,0.2817878723144531,-0.43178150057792664,0.0951937660574913,0.849545955657959,0.0,0.0,0.0
0,0.28035926818847656,-0.4313744008541107,0.09351812303066254,0.8504127264022827,0.0,0.0,0.0
0,0.27828773856163025,-0.4324067234992981,0.09296371042728424,0.8506296277046204,0.0,0.0,0.0
0,0.27629730105400085,-0.4330989718437195,0.0922551229596138,0.8509988188743591,0.0,0.0,0.0
0,0.2746523916721344,-0.43191903829574585,0.09104972332715988,0.852264940738678,0.0,0.0,0.0
0,0.2727625370025635,-0.43360432982444763,0.09005744010210037,0.8521154522895813,0.0,0.0,0.0
0,0.2704527974128723,-0.4340938925743103,0.08947799354791641,0.8526635766029358,0.0,0.0,0.0
0,0.2692474126815796,-0.4326516091823578,0.08738105744123459,0.853999674320221,0.0,0.0,0.0
0,0.2669360935688019,-0.43385666608810425,0.0872754231095314,0.8541234135627747,0.0,0.0,0.0
0,0.2651304006576538,-0.43354102969169617,0.08627382665872574,0.8549489974975586,0.0,0.0,0.0
0,0.2636503279209137,-0.43265199661254883,0.08472218364477158,0.856011688709259,0.0,0.0,0.0
0,0.26117774844169617,-0.4340762197971344,0.08485118299722672,0.8560324907302856,0.0,0.0,0.0
0,0.2595328092575073,-0.4345141351222992,0.08345402777194977,0.8564485311508179,0.0,0.0,0.0
0,0.2576252222061157,-0.4359142780303955,0.08241107314825058,0.8564109802246094,0.0,0.0,0.0
0,0.25609785318374634,-0.43535587191581726,0.08082245290279388,0.8573066592216492,0.0,0.0,0.0
0,0.25391194224357605,-0.4348362386226654,0.08054468780755997,0.8582468032836914,0.0,0.0,0.0
0,0.2522370517253876,-0.4345457851886749,0.07927914708852768,0.859008252620697,0.0,0.0,0.0
0,0.25030454993247986,-0.4352691173553467,0.07844402641057968,0.8592817187309265,0.0,0.0,0.0
0,0.24846041202545166,-0.43519508838653564,0.07751285284757614,0.85993891954422,0.0,0.0,0.0
0,0.2465623915195465,-0.4359540641307831,0.07653623819351196,0.8601841330528259,0.0,0.0,0.0
0,0.2443455308675766,-0.43536821007728577,0.07595481723546982,0.8611690402030945,0.0,0.0,0.0
0,0.24288514256477356,-0.43532273173332214,0.0741296112537384,0.8617635369300842,0.0,0.0,0.0
0,0.24053128063678741,-0.4354817867279053,0.07405246049165726,0.8623477220535278,0.0,0.0,0.0
0,0.2388674020767212,-0.4359332025051117,0.07268433272838593,0.862701416015625,0.0,0.0,0.0
0,0.2368783950805664,-0.4362317621707916,0.07190357893705368,0.8631644248962402,0.0,0.0,0.0
0,0.23518653213977814,-0.4373760521411896,0.07033707946538925,0.8631719350814819,0.0,0.0,0.0
0,0.23266597092151642,-0.43680939078330994,0.07076648622751236,0.8641085624694824,0.0,0.0,0.0
0,0.23153147101402283,-0.43730297684669495,0.06813269108533859,0.8643758296966553,0.0,0.0,0.0
0,0.22929240763187408,-0.4374847412109375,0.0678504928946495,0.8649049401283264,0.0,0.0,0.0
0,0.22794252634048462,-0.4365844130516052,0.06592895090579987,0.8658647537231445,0.0,0.0,0.0
0,0.22578170895576477,-0.43747177720069885,0.06545029580593109,0.8660183548927307,0.0,0.0,0.0
0,0.22390928864479065,-0.4374047517776489,0.06454923003911972,0.866604208946228,0.0,0.0,0.0
0,0.22192296385765076,-0.4376259744167328,0.0637957751750946,0.8670614361763,0.0,0.0,0.0
0,0.22000540792942047,-0.4375842809677124,0.06293009966611862,0.8676347136497498,0.0,0.0,0.0
0,0.21784210205078125,-0.43869131803512573,0.061813272535800934,0.8676965236663818,0.0,0.0,0.0
0,0.21597178280353546,-0.4375501871109009,0.06101657450199127,0.8687998056411743,0.0,0.0,0.0
0,0.21374966204166412,-0.4382476806640625,0.06053697690367699,0.8690281510353088,0.0,0.0,0.0
0,0.21200749278068542,-0.43898627161979675,0.05906221270561218,0.8691835999488831,0.0,0.0,0.0
0,0.2103605568408966,-0.438888281583786,0.05768786743283272,0.8697289228439331,0.0,0.0,0.0
0,0.2079387754201889,-0.4384360611438751,0.057871390134096146,0.8705268502235413,0.0,0.0,0.0
0,0.20578771829605103,-0.43924230337142944,0.057397689670324326,0.8706606030464172,0.0,0.0,0.0
0,0.20455484092235565,-0.43800944089889526,0.05515623465180397,0.8717198967933655,0.0,0.0,0.0
0,0.20224355161190033,-0.43911415338516235,0.05499379336833954,0.8717104196548462,0.0,0.0,0.0
0,0.20045773684978485,-0.4386047124862671,0.05379927530884743,0.8724547624588013,0.0,0.0,0.0
0,0.19896046817302704,-0.43980664014816284,0.051760777831077576,0.8723139762878418,0.0,0.0,0.0
0,0.196726456284523,-0.4388195872306824,0.0515347495675087,0.8733341693878174,0.0,0.0,0.0
0,0.1949007362127304,-0.43905434012413025,0.05043617635965347,0.8736890554428101,0.0,0.0,0.0
0,0.19236227869987488,-0.4390966594219208,0.05029100552201271,0.8742369413375854,0.0,0.0,0.0
0,0.1910390704870224,-0.44019532203674316,0.048025257885456085,0.8740997314453125,0.0,0.0,0.0
0,0.18879730999469757,-0.4403362572193146,0.04777326062321663,0.874529242515564,0.0,0.0,0.0
0,0.18714097142219543,-0.4398134648799896,0.046364039182662964,0.8752282857894897,0.0,0.0,0.0
0,0.1850467473268509,-0.4397934675216675,0.04574676603078842,0.8757160305976868,0.0,0.0,0.0
0,0.18335609138011932,-0.4396955966949463,0.044294584542512894,0.8761952519416809,0.0,0.0,0.0
0,0.1809258908033371,-0.440154105424881,0.044332850724458694,0.8764673471450806,0.0,0.0,0.0
0,0.17961198091506958,-0.4394167959690094,0.04224015772342682,0.8772120475769043,0.0,0.0,0.0
0,0.17725086212158203,-0.4406488835811615,0.04207751899957657,0.8770766854286194,0.0,0.0,0.0
0,0.17554782330989838,-0.43946343660354614,0.04070761427283287,0.8780824542045593,0.0,0.0,0.0
0,0.1736242026090622,-0.4407743215560913,0.03958893194794655,0.8778548240661621,0.0,0.0,0.0
0,0.17161604762077332,-0.43991783261299133,0.038946732878685,0.8787124156951904,0.0,0.0,0.0
0,0.16973356902599335,-0.4405083954334259,0.037929780781269073,0.8788246512413025,0.0,0.0,0.0
0,0.16786114871501923,-0.44053032994270325,0.036444731056690216,0.8792341947555542,0.0,0.0,0.0
0,0.16561542451381683,-0.4405222535133362,0.03617629408836365,0.8796775341033936,0.0,0.0,0.0
0,0.1638549268245697,-0.4405471384525299,0.0348195880651474,0.8800508379936218,0.0,0.0,0.0
0,0.16178299486637115,-0.4403255879878998,0.034205786883831024,0.8805683255195618,0.0,0.0,0.0
0,0.16020572185516357,-0.44102293252944946,0.03249151259660721,0.8805734515190125,0.0,0.0,0.0
0,0.15774425864219666,-0.4410172700881958,0.032702188938856125,0.8810074329376221,0.0,0.0,0.0
0,0.1558719426393509,-0.4407728910446167,0.031708795577287674,0.8815031051635742,0.0,0.0,0.0
0,0.1543252170085907,-0.44038981199264526,0.030006632208824158,0.8820275068283081,0.0,0.0,0.0
0,0.15244130790233612,-0.4404805600643158,0.029018482193350792,0.8823422193527222,0.0,0.0,0.0
0,0.1504036784172058,-0.44067806005477905,0.028206482529640198,0.882620096206665,0.0,0.0,0.0
0,0.14821386337280273,-0.4414631724357605,0.027679817751049995,0.8826146721839905,0.0,0.0,0.0
0,0.14655539393424988,-0.4422568082809448,0.025993933901190758,0.8825457096099854,0.0,0.0,0.0
0,0.14451798796653748,-0.441877543926239,0.025359733030200005,0.8830852508544922,0.0,0.0,0.0
0,0.14295928180217743,-0.4406023919582367,0.023868801072239876,0.8840223550796509,0.0,0.0,0.0
0,0.14078542590141296,-0.4412399232387543,0.023342685773968697,0.8840670585632324,0.0,0.0,0.0
0,0.13849814236164093,-0.44203346967697144,0.022564496845006943,0.8840519189834595,0.0,0.0,0.0
0,0.13620072603225708,-0.4427882134914398,0.02225683070719242,0.8840351700782776,0.0,0.0,0.0
0,0.13484056293964386,-0.4419049024581909,0.0202273391187191,0.8847379684448242,0.0,0.0,0.0
0,0.13346683979034424,-0.4412701725959778,0.018235672265291214,0.8853049278259277,0.0,0.0,0.0
0,0.1310187578201294,-0.4414147734642029,0.018351655453443527,0.885597288608551,0.0,0.0,0.0
0,0.12905262410640717,-0.44218504428863525,0.017298223450779915,0.8855226039886475,0.0,0.0,0.0
0,0.12687504291534424,-0.44120535254478455,0.0169704370200634,0.8863324522972107,0.0,0.0,0.0
0,0.125385582447052,-0.44151371717453003,0.015026259236037731,0.8864264488220215,0.0,0.0,0.0
0,0.12311553955078125,-0.44166624546051025,0.014699374325573444,0.8866716623306274,0.0,0.0,0.0
0,0.12129345536231995,-0.44151437282562256,0.013550831936299801,0.8870184421539307,0.0,0.0,0.0
