time_boot_ms,xacc,yacc,zacc,xgyro,ygyro,zgyro,xmag,ymag,zmag
6300,-771,-79,573,-25,20,4,32767,32767,32767
6410,-771,-80,573,-25,20,4,32767,32767,32767
6520,-771,-79,574,-25,20,6,32767,32767,32767
6600,-772,-80,573,-25,20,4,32767,32767,32767
6710,-770,-80,573,-25,20,4,32767,32767,32767
6800,-771,-80,574,-25,20,4,32767,32767,32767
6900,-772,-79,575,-25,20,6,32767,32767,32767
7000,-771,-80,574,-25,20,6,32767,32767,32767
7100,-771,-80,574,-25,20,6,32767,32767,32767
7200,-771,-80,573,-25,20,6,32767,32767,32767
7300,-770,-80,573,-25,20,4,32767,32767,32767
7440,-771,-81,573,-25,20,6,32767,32767,32767
7900,-771,-79,572,-25,20,6,32767,32767,32767
8000,-770,-79,574,-25,20,4,32767,32767,32767
8110,-770,-80,574,-25,20,6,32767,32767,32767
8200,-770,-79,574,-25,20,4,32767,32767,32767
8300,-771,-80,574,-26,20,6,32767,32767,32767
8400,-770,-80,574,-25,20,4,32767,32767,32767
8500,-772,-81,573,-25,20,6,32767,32767,32767
8600,-771,-80,573,-25,20,4,32767,32767,32767
8700,-771,-80,573,-25,20,4,32767,32767,32767
8800,-771,-80,573,-25,20,6,32767,32767,32767
8900,-771,-79,573,-25,20,4,32767,32767,32767
9000,-770,-79,573,-25,20,4,32767,32767,32767
9100,-771,-80,574,-25,20,4,32767,32767,32767
9200,-770,-80,573,-25,20,6,32767,32767,32767
9300,-771,-79,574,-25,20,6,32767,32767,32767
9410,-771,-80,575,-25,20,6,32767,32767,32767
9500,-770,-80,574,-25,20,4,32767,32767,32767
9600,-772,-79,574,-25,20,4,32767,32767,32767
9700,-770,-81,574,-25,20,4,32767,32767,32767
9800,-771,-79,573,-25,20,6,32767,32767,32767
9900,-770,-79,574,-25,20,6,32767,32767,32767
10000,-770,-80,573,-25,20,4,32767,32767,32767
10100,-770,-79,574,-25,20,6,32767,32767,32767
10200,-770,-80,573,-25,20,4,32767,32767,32767
10300,-771,-81,573,-25,20,6,32767,32767,32767
10400,-770,-80,573,-26,20,4,32767,32767,32767
10500,-770,-80,574,-25,20,4,32767,32767,32767
10600,-771,-79,573,-25,20,4,32767,32767,32767
10700,-772,-80,575,-25,20,4,32767,32767,32767
10810,-770,-80,573,-25,20,4,32767,32767,32767
10900,-770,-80,573,-25,20,6,32767,32767,32767
11000,-770,-79,574,-25,20,4,32767,32767,32767
11100,-770,-80,575,-25,20,4,32767,32767,32767
11200,-771,-80,575,-25,20,4,32767,32767,32767
11300,-770,-80,574,-25,20,6,32767,32767,32767
11400,-770,-81,574,-25,20,4,32767,32767,32767
11500,-771,-80,573,-25,20,4,32767,32767,32767
11600,-770,-80,572,-25,20,4,32767,32767,32767
11700,-770,-80,574,-25,20,6,32767,32767,32767
11800,-770,-80,573,-25,20,6,32767,32767,32767
11900,-770,-80,574,-25,20,6,32767,32767,32767
12000,-770,-80,574,-25,20,4,32767,32767,32767
12100,-770,-80,575,-25,20,6,32767,32767,32767
12210,-771,-80,573,-25,19,4,32767,32767,32767
12300,-772,-80,574,-25,20,6,32767,32767,32767
12400,-770,-80,574,-25,20,6,32767,32767,32767
12500,-770,-80,574,-25,19,6,32767,32767,32767
12600,-770,-79,573,-25,20,6,32767,32767,32767
12700,-770,-80,575,-25,20,6,32767,32767,32767
12800,-770,-79,574,-25,20,4,32767,32767,32767
12900,-770,-81,572,-25,20,6,32767,32767,32767
13000,-769,-79,574,-25,20,4,32767,32767,32767
13100,-770,-80,575,-25,20,6,32767,32767,32767
13200,-770,-79,575,-25,21,4,32767,32767,32767
13300,-770,-79,574,-25,20,4,32767,32767,32767
13400,-770,-79,574,-25,20,6,32767,32767,32767
13500,-771,-80,573,-25,20,4,32767,32767,32767
13610,-771,-79,574,-25,20,6,32767,32767,32767
13700,-770,-80,574,-25,20,6,32767,32767,32767
13800,-770,-80,574,-25,20,4,32767,32767,32767
13900,-770,-80,574,-25,20,4,32767,32767,32767
14000,-771,-80,574,-25,20,6,32767,32767,32767
14100,-770,-80,575,-25,20,4,32767,32767,32767
14200,-770,-80,573,-25,20,6,32767,32767,32767
14300,-770,-79,574,-25,20,4,32767,32767,32767
14400,-771,-81,575,-25,20,6,32767,32767,32767
14500,-771,-79,574,-25,20,6,32767,32767,32767
14600,-770,-79,574,-26,20,6,32767,32767,32767
14700,-771,-80,574,-25,20,4,32767,32767,32767
14800,-771,-79,574,-25,21,6,32767,32767,32767
14900,-770,-80,574,-25,20,6,32767,32767,32767
15010,-770,-78,572,-25,20,6,32767,32767,32767
15100,-771,-79,574,-25,20,6,32767,32767,32767
15200,-770,-79,573,-26,20,4,32767,32767,32767
15300,-770,-80,575,-25,20,6,32767,32767,32767
15400,-770,-80,576,-25,20,4,32767,32767,32767
15500,-770,-80,574,-25,20,4,32767,32767,32767
15600,-770,-80,574,-25,20,6,32767,32767,32767
15700,-771,-80,573,-26,21,6,32767,32767,32767
15800,-770,-79,574,-25,20,6,32767,32767,32767
15900,-770,-80,574,-25,20,4,32767,32767,32767
16000,-771,-80,575,-25,20,4,32767,32767,32767
16100,-770,-79,575,-25,20,4,32767,32767,32767
16200,-770,-80,574,-26,20,4,32767,32767,32767
16300,-770,-80,573,-25,20,6,32767,32767,32767
16400,-770,-80,574,-25,20,6,32767,32767,32767
16500,-771,-81,574,-26,20,6,32767,32767,32767
16600,-770,-80,575,-25,20,6,32767,32767,32767
16700,-771,-80,574,-25,20,6,32767,32767,32767
16800,-770,-80,573,-25,20,6,32767,32767,32767
16900,-770,-80,574,-25,20,6,32767,32767,32767
17000,-770,-80,575,-25,21,4,32767,32767,32767
17100,-770,-80,573,-25,20,6,32767,32767,32767
17200,-770,-80,573,-25,20,4,32767,32767,32767
17300,-771,-79,574,-26,20,6,32767,32767,32767
17400,-771,-80,575,-25,20,4,32767,32767,32767
17500,-770,-79,574,-25,20,6,32767,32767,32767
17600,-770,-80,573,-25,20,6,32767,32767,32767
17700,-770,-79,574,-25,20,4,32767,32767,32767
17800,-771,-80,575,-25,20,6,32767,32767,32767
17910,-771,-80,572,-25,20,6,32767,32767,32767
18000,-771,-79,572,-25,20,6,32767,32767,32767
18100,-771,-80,575,-26,20,4,32767,32767,32767
18200,-770,-80,573,-25,20,6,32767,32767,32767
18300,-770,-80,574,-25,20,6,32767,32767,32767
18400,-770,-80,574,-25,20,4,32767,32767,32767
18500,-770,-79,574,-25,20,6,32767,32767,32767
18600,-770,-79,574,-25,20,6,32767,32767,32767
18700,-770,-81,574,-25,20,6,32767,32767,32767
18800,-771,-80,575,-25,19,4,32767,32767,32767
18900,-768,-79,576,-24,19,6,32767,32767,32767
19000,-770,-80,573,-26,21,4,32767,32767,32767
19100,-770,-80,574,-25,21,6,32767,32767,32767
19200,-770,-81,574,-25,20,4,32767,32767,32767
19300,-771,-80,572,-25,20,4,32767,32767,32767
19410,-770,-80,577,-26,19,6,32767,32767,32767
19500,-769,-80,576,-25,19,4,32767,32767,32767
19600,-772,-79,572,-26,22,6,32767,32767,32767
19700,-771,-79,574,-25,20,6,32767,32767,32767
19800,-769,-79,573,-25,20,6,32767,32767,32767
19900,-771,-80,573,-25,19,6,32767,32767,32767
20000,-769,-80,576,-25,20,6,32767,32767,32767
20100,-770,-80,573,-25,20,6,32767,32767,32767
20200,-770,-80,575,-25,20,6,32767,32767,32767
20300,-770,-80,574,-25,20,6,32767,32767,32767
20400,-770,-79,573,-25,20,6,32767,32767,32767
20510,-770,-80,573,-25,20,6,32767,32767,32767
20600,-770,-79,575,-25,20,6,32767,32767,32767
20700,-770,-80,575,-25,20,4,32767,32767,32767
20810,-770,-79,575,-25,20,6,32767,32767,32767
20900,-770,-79,575,-25,19,4,32767,32767,32767
21000,-770,-79,574,-25,20,4,32767,32767,32767
21100,-770,-80,575,-25,20,4,32767,32767,32767
21200,-770,-80,574,-25,20,4,32767,32767,32767
21300,-771,-80,573,-25,20,4,32767,32767,32767
21400,-770,-80,574,-25,20,6,32767,32767,32767
21500,-771,-79,574,-25,20,6,32767,32767,32767
21600,-770,-79,573,-25,20,6,32767,32767,32767
21700,-770,-79,575,-25,20,6,32767,32767,32767
21800,-770,-80,575,-25,20,6,32767,32767,32767
21900,-771,-80,574,-25,20,4,32767,32767,32767
22000,-770,-79,574,-25,20,6,32767,32767,32767
22100,-770,-80,573,-25,20,4,32767,32767,32767
22200,-772,-81,573,-25,20,6,32767,32767,32767
22300,-770,-80,575,-25,20,6,32767,32767,32767
22400,-770,-80,573,-25,20,6,32767,32767,32767
22500,-771,-80,576,-25,19,4,32767,32767,32767
22600,-770,-80,574,-25,18,4,32767,32767,32767
22700,-770,-80,574,-25,19,4,32767,32767,32767
22800,-770,-80,575,-25,20,4,32767,32767,32767
22900,-770,-79,574,-25,20,6,32767,32767,32767
23000,-770,-80,574,-25,20,4,32767,32767,32767
23100,-770,-79,575,-25,20,6,32767,32767,32767
23200,-770,-80,574,-25,20,6,32767,32767,32767
23300,-770,-79,574,-25,20,4,32767,32767,32767
23400,-770,-80,575,-25,20,4,32767,32767,32767
23510,-770,-80,575,-25,20,6,32767,32767,32767
23600,-770,-80,574,-25,20,6,32767,32767,32767
23700,-771,-79,574,-25,20,6,32767,32767,32767
23800,-770,-79,574,-25,20,6,32767,32767,32767
23900,-770,-81,575,-26,20,4,32767,32767,32767
24000,-770,-79,574,-25,20,6,32767,32767,32767
24100,-770,-80,574,-25,20,6,32767,32767,32767
24200,-771,-80,576,-25,20,4,32767,32767,32767
24300,-769,-81,576,-25,20,6,32767,32767,32767
24400,-770,-80,575,-25,20,6,32767,32767,32767
24500,-770,-80,573,-25,20,6,32767,32767,32767
24600,-770,-80,577,-25,20,6,32767,32767,32767
24700,-770,-79,575,-25,20,4,32767,32767,32767
24800,-769,-80,576,-25,20,6,32767,32767,32767
24910,-770,-80,574,-25,20,4,32767,32767,32767
25000,-770,-80,575,-25,20,6,32767,32767,32767
25100,-770,-80,573,-25,20,6,32767,32767,32767
25200,-770,-81,574,-25,20,6,32767,32767,32767
25300,-770,-78,576,-25,20,4,32767,32767,32767
25400,-769,-80,576,-25,20,6,32767,32767,32767
25500,-770,-80,576,-25,20,4,32767,32767,32767
25600,-770,-80,574,-26,21,6,32767,32767,32767
25700,-770,-79,575,-25,20,4,32767,32767,32767
25800,-769,-79,577,-25,20,4,32767,32767,32767
25900,-769,-79,576,-25,20,6,32767,32767,32767
26000,-770,-80,576,-25,20,6,32767,32767,32767
26100,-770,-80,573,-25,20,4,32767,32767,32767
26200,-770,-79,576,-25,20,4,32767,32767,32767
26310,-770,-80,574,-25,20,4,32767,32767,32767
26400,-770,-80,573,-25,20,6,32767,32767,32767
26500,-769,-79,575,-25,20,4,32767,32767,32767
26600,-769,-81,575,-25,20,4,32767,32767,32767
26700,-769,-79,574,-25,20,4,32767,32767,32767
26800,-769,-80,575,-25,20,4,32767,32767,32767
26900,-770,-80,575,-25,20,4,32767,32767,32767
27000,-770,-79,574,-25,20,4,32767,32767,32767
27100,-770,-80,574,-25,20,4,32767,32767,32767
27200,-770,-80,576,-25,20,4,32767,32767,32767
27300,-769,-79,575,-25,20,4,32767,32767,32767
27400,-769,-80,576,-25,20,6,32767,32767,32767
27500,-770,-80,574,-25,20,4,32767,32767,32767
27600,-770,-80,575,-25,20,6,32767,32767,32767
27710,-769,-80,575,-25,20,4,32767,32767,32767
27800,-770,-80,576,-25,20,4,32767,32767,32767
27900,-770,-79,574,-25,20,6,32767,32767,32767
28000,-769,-80,576,-25,20,4,32767,32767,32767
28100,-770,-80,576,-25,20,4,32767,32767,32767
28200,-769,-79,575,-25,20,4,32767,32767,32767
28300,-768,-80,576,-25,20,4,32767,32767,32767
28400,-770,-79,575,-25,20,6,32767,32767,32767
28500,-770,-80,577,-26,20,6,32767,32767,32767
28600,-769,-80,576,-25,20,6,32767,32767,32767
28700,-769,-80,575,-25,20,4,32767,32767,32767
28800,-769,-79,574,-25,20,6,32767,32767,32767
28900,-770,-79,575,-25,20,6,32767,32767,32767
29010,-770,-80,574,-25,20,4,32767,32767,32767
29100,-770,-81,577,-25,20,4,32767,32767,32767
29200,-769,-80,574,-26,20,6,32767,32767,32767
29300,-770,-80,575,-25,20,4,32767,32767,32767
29400,-770,-80,575,-25,20,6,32767,32767,32767
29500,-769,-80,576,-25,20,6,32767,32767,32767
29600,-770,-79,575,-26,21,6,32767,32767,32767
29700,-770,-80,577,-25,20,4,32767,32767,32767
29800,-770,-80,576,-25,20,4,32767,32767,32767
29900,-770,-79,575,-25,20,6,32767,32767,32767
30000,-770,-80,575,-25,20,6,32767,32767,32767
30100,-769,-81,574,-25,20,4,32767,32767,32767
30200,-770,-80,574,-25,20,6,32767,32767,32767
30300,-770,-79,575,-25,20,4,32767,32767,32767
30410,-769,-80,574,-25,20,4,32767,32767,32767
30500,-770,-80,575,-26,20,6,32767,32767,32767
30610,-769,-80,576,-25,20,6,32767,32767,32767
30700,-769,-80,574,-25,20,6,32767,32767,32767
30800,-770,-81,576,-25,20,4,32767,32767,32767
30900,-770,-80,576,-25,20,6,32767,32767,32767
31000,-770,-79,574,-25,20,4,32767,32767,32767
31100,-770,-80,576,-25,20,4,32767,32767,32767
31200,-770,-80,576,-25,20,4,32767,32767,32767
31300,-770,-80,575,-25,20,6,32767,32767,32767
31400,-769,-79,576,-25,20,6,32767,32767,32767
31520,-770,-81,576,-25,20,6,32767,32767,32767
31600,-770,-79,576,-25,19,6,32767,32767,32767
31700,-770,-80,575,-25,20,6,32767,32767,32767
31800,-770,-80,577,-25,20,4,32767,32767,32767
31900,-770,-80,575,-25,20,6,32767,32767,32767
32000,-770,-80,577,-25,20,6,32767,32767,32767
32100,-770,-80,576,-25,20,6,32767,32767,32767
32200,-769,-81,576,-25,20,4,32767,32767,32767
32300,-770,-80,574,-25,20,4,32767,32767,32767
32400,-770,-79,575,-25,20,6,32767,32767,32767
32500,-770,-81,577,-25,20,6,32767,32767,32767
32600,-770,-79,576,-25,20,6,32767,32767,32767
32700,-769,-79,576,-25,20,6,32767,32767,32767
32800,-770,-80,575,-25,20,4,32767,32767,32767
32900,-770,-79,575,-25,20,4,32767,32767,32767
33000,-770,-80,575,-26,21,4,32767,32767,32767
33110,-770,-79,576,-25,20,6,32767,32767,32767
33200,-770,-80,575,-25,20,4,32767,32767,32767
33300,-768,-80,577,-25,20,4,32767,32767,32767
33400,-769,-79,577,-25,20,6,32767,32767,32767
33500,-770,-80,576,-25,20,6,32767,32767,32767
33600,-770,-80,577,-25,20,4,32767,32767,32767
33700,-771,-79,574,-25,20,4,32767,32767,32767
33800,-770,-81,574,-25,20,6,32767,32767,32767
33900,-770,-79,575,-25,20,4,32767,32767,32767
34000,-770,-80,574,-26,21,6,32767,32767,32767
34100,-769,-80,576,-25,20,6,32767,32767,32767
34200,-769,-80,576,-26,20,6,32767,32767,32767
34300,-769,-81,576,-25,20,6,32767,32767,32767
34400,-769,-80,577,-25,20,4,32767,32767,32767
34510,-770,-80,577,-25,19,6,32767,32767,32767
34600,-769,-79,576,-25,20,6,32767,32767,32767
34700,-770,-80,577,-25,20,4,32767,32767,32767
34800,-769,-80,576,-25,20,6,32767,32767,32767
34900,-768,-80,577,-26,20,4,32767,32767,32767
35000,-770,-79,574,-25,21,6,32767,32767,32767
35100,-770,-79,575,-26,21,6,32767,32767,32767
35200,-770,-80,575,-25,21,4,32767,32767,32767
35300,-769,-80,576,-25,20,4,32767,32767,32767
35400,-768,-79,576,-25,20,4,32767,32767,32767
35510,-768,-79,576,-25,20,6,32767,32767,32767
35610,-769,-79,575,-25,20,6,32767,32767,32767
35700,-770,-79,575,-25,20,6,32767,32767,32767
35800,-770,-80,576,-25,20,6,32767,32767,32767
35900,-769,-80,576,-25,20,6,32767,32767,32767
36000,-769,-80,575,-25,20,4,32767,32767,32767
36100,-769,-79,575,-25,20,6,32767,32767,32767
36200,-768,-79,575,-25,20,4,32767,32767,32767
36300,-768,-79,575,-25,20,6,32767,32767,32767
36400,-768,-79,574,-25,20,6,32767,32767,32767
36500,-770,-79,575,-25,20,4,32767,32767,32767
36610,-768,-80,576,-25,20,4,32767,32767,32767
36700,-769,-80,577,-25,20,4,32767,32767,32767
36800,-769,-80,574,-25,20,4,32767,32767,32767
36900,-769,-79,575,-25,20,4,32767,32767,32767
37000,-770,-79,574,-26,20,4,32767,32767,32767
37100,-769,-80,574,-26,20,6,32767,32767,32767
37210,-769,-80,575,-25,20,4,32767,32767,32767
37300,-769,-80,575,-26,20,4,32767,32767,32767
37400,-769,-80,576,-25,20,6,32767,32767,32767
37510,-769,-80,576,-25,20,6,32767,32767,32767
37610,-769,-80,575,-25,20,6,32767,32767,32767
37700,-769,-79,575,-25,20,4,32767,32767,32767
37800,-769,-80,575,-25,21,6,32767,32767,32767
37900,-770,-80,575,-25,20,6,32767,32767,32767
38000,-769,-80,575,-25,20,6,32767,32767,32767
38100,-770,-79,575,-26,21,6,32767,32767,32767
38200,-770,-80,576,-25,20,6,32767,32767,32767
38300,-769,-80,576,-25,20,4,32767,32767,32767
38400,-769,-80,574,-25,20,4,32767,32767,32767
38520,-769,-79,575,-26,20,4,32767,32767,32767
38610,-769,-80,574,-25,20,6,32767,32767,32767
38700,-769,-80,577,-25,20,6,32767,32767,32767
38800,-770,-80,577,-25,20,6,32767,32767,32767
38900,-769,-81,576,-25,20,4,32767,32767,32767
39000,-769,-81,576,-25,20,4,32767,32767,32767
39100,-769,-80,576,-25,20,4,32767,32767,32767
39200,-770,-79,577,-25,20,4,32767,32767,32767
39300,-770,-79,575,-26,20,6,32767,32767,32767
39400,-770,-80,574,-25,21,6,32767,32767,32767
39500,-769,-80,575,-25,20,6,32767,32767,32767
39600,-770,-80,573,-25,20,6,32767,32767,32767
39700,-770,-80,576,-25,20,6,32767,32767,32767
39800,-769,-79,576,-25,20,6,32767,32767,32767
39910,-769,-80,576,-25,20,6,32767,32767,32767
40000,-769,-80,575,-25,20,4,32767,32767,32767
40100,-769,-80,575,-25,20,6,32767,32767,32767
40200,-769,-80,575,-25,20,4,32767,32767,32767
40300,-769,-80,575,-25,20,6,32767,32767,32767
40400,-769,-80,576,-25,20,4,32767,32767,32767
40500,-769,-80,576,-25,20,4,32767,32767,32767
40600,-769,-80,576,-25,20,4,32767,32767,32767
40700,-770,-79,575,-25,20,6,32767,32767,32767
40800,-769,-79,577,-25,20,6,32767,32767,32767
40900,-770,-80,576,-25,20,6,32767,32767,32767
41000,-769,-80,576,-25,20,6,32767,32767,32767
41100,-769,-80,575,-26,20,6,32767,32767,32767
41200,-770,-80,576,-25,20,6,32767,32767,32767
41310,-769,-79,576,-25,20,4,32767,32767,32767
41400,-770,-80,574,-25,21,4,32767,32767,32767
41500,-769,-80,576,-26,20,4,32767,32767,32767
41600,-769,-80,575,-25,20,6,32767,32767,32767
41700,-769,-79,577,-25,20,4,32767,32767,32767
41800,-770,-81,576,-26,20,6,32767,32767,32767
41900,-770,-80,575,-25,20,4,32767,32767,32767
42000,-770,-80,575,-25,20,6,32767,32767,32767
42100,-769,-80,576,-25,20,6,32767,32767,32767
42200,-770,-79,575,-26,20,4,32767,32767,32767
42600,-769,-80,575,-25,20,4,32767,32767,32767
43350,-769,-79,576,-25,20,4,32767,32767,32767
44490,-768,-80,575,-25,20,4,32767,32767,32767
45410,-769,-80,576,-25,21,4,32767,32767,32767
45510,-770,-79,576,-25,20,4,32767,32767,32767
45600,-769,-81,575,-25,20,6,32767,32767,32767
45710,-769,-80,576,-25,20,4,32767,32767,32767
45810,-769,-81,576,-25,20,4,32767,32767,32767
45900,-768,-80,577,-25,21,4,32767,32767,32767
46000,-770,-79,575,-26,20,6,32767,32767,32767
46100,-769,-78,577,-25,21,4,32767,32767,32767
46200,-769,-80,576,-25,20,6,32767,32767,32767
46300,-769,-79,576,-25,20,4,32767,32767,32767
46400,-770,-79,576,-25,20,4,32767,32767,32767
46500,-769,-79,576,-25,20,4,32767,32767,32767
46600,-769,-81,576,-25,21,4,32767,32767,32767
46710,-769,-80,576,-25,20,4,32767,32767,32767
46800,-768,-80,576,-26,20,4,32767,32767,32767
46900,-769,-80,576,-25,20,4,32767,32767,32767
47000,-768,-80,576,-25,21,4,32767,32767,32767
47110,-770,-79,576,-25,21,6,32767,32767,32767
47200,-769,-80,574,-25,20,4,32767,32767,32767
47300,-769,-80,577,-25,20,4,32767,32767,32767
47400,-769,-80,577,-25,20,4,32767,32767,32767
47500,-769,-80,575,-26,20,4,32767,32767,32767
47600,-769,-80,576,-26,20,4,32767,32767,32767
47700,-770,-80,577,-26,20,4,32767,32767,32767
47800,-769,-79,576,-25,20,4,32767,32767,32767
47900,-768,-80,577,-26,20,4,32767,32767,32767
48000,-769,-81,577,-25,20,4,32767,32767,32767
48100,-769,-79,577,-25,20,4,32767,32767,32767
48200,-769,-80,576,-25,20,4,32767,32767,32767
48300,-769,-79,576,-25,20,4,32767,32767,32767
48400,-769,-80,576,-25,20,6,32767,32767,32767
48510,-770,-80,578,-25,20,4,32767,32767,32767
48600,-769,-80,576,-26,20,4,32767,32767,32767
48700,-769,-79,576,-26,21,6,32767,32767,32767
48800,-770,-79,576,-25,20,4,32767,32767,32767
48900,-769,-80,575,-25,20,4,32767,32767,32767
49000,-769,-80,577,-25,20,4,32767,32767,32767
49100,-770,-80,576,-25,20,4,32767,32767,32767
49200,-769,-80,577,-25,20,6,32767,32767,32767
49300,-768,-80,576,-25,20,6,32767,32767,32767
49400,-769,-79,577,-25,20,6,32767,32767,32767
49500,-768,-79,578,-25,20,4,32767,32767,32767
49600,-769,-80,575,-26,21,4,32767,32767,32767
49700,-769,-81,576,-25,21,4,32767,32767,32767
49810,-770,-80,576,-26,20,4,32767,32767,32767
49900,-768,-80,575,-26,20,4,32767,32767,32767
50000,-769,-80,576,-26,20,4,32767,32767,32767
50100,-769,-80,576,-25,21,4,32767,32767,32767
50200,-769,-79,577,-25,20,4,32767,32767,32767
50300,-768,-80,576,-25,20,4,32767,32767,32767
50400,-769,-79,576,-25,21,4,32767,32767,32767
50500,-769,-79,577,-25,20,4,32767,32767,32767
50600,-769,-79,575,-25,20,4,32767,32767,32767
50700,-768,-80,577,-25,20,4,32767,32767,32767
50800,-769,-79,576,-25,20,4,32767,32767,32767
50900,-768,-80,577,-25,20,6,32767,32767,32767
51000,-768,-79,577,-26,20,4,32767,32767,32767
51100,-769,-80,577,-25,20,4,32767,32767,32767
51200,-767,-79,578,-25,20,4,32767,32767,32767
51300,-761,-79,586,-25,19,4,32767,32767,32767
51400,-761,-79,586,-25,21,4,32767,32767,32767
51500,-761,-80,588,-25,20,4,32767,32767,32767
51600,-761,-79,586,-25,20,4,32767,32767,32767
51700,-762,-79,586,-26,21,4,32767,32767,32767
51800,-760,-81,589,-25,20,4,32767,32767,32767
51900,-761,-79,587,-25,20,4,32767,32767,32767
52000,-761,-80,589,-26,20,4,32767,32767,32767
52110,-760,-80,588,-25,20,4,32767,32767,32767
52200,-761,-80,586,-25,20,6,32767,32767,32767
52300,-762,-80,586,-26,20,4,32767,32767,32767
52400,-762,-80,587,-25,20,4,32767,32767,32767
52500,-760,-79,588,-25,20,4,32767,32767,32767
52600,-761,-80,587,-26,20,6,32767,32767,32767
52700,-760,-80,587,-25,20,4,32767,32767,32767
52800,-761,-80,587,-25,20,4,32767,32767,32767
52900,-760,-78,588,-26,20,4,32767,32767,32767
53000,-761,-80,588,-25,20,6,32767,32767,32767
53110,-762,-80,586,-25,20,6,32767,32767,32767
53200,-761,-80,587,-25,21,4,32767,32767,32767
53300,-760,-80,587,-25,20,4,32767,32767,32767
53400,-760,-79,588,-26,20,6,32767,32767,32767
53510,-760,-80,586,-25,20,4,32767,32767,32767
53600,-762,-78,587,-25,20,6,32767,32767,32767
53700,-761,-80,587,-25,20,6,32767,32767,32767
53800,-760,-80,589,-25,20,4,32767,32767,32767
53900,-760,-78,587,-26,21,4,32767,32767,32767
54000,-761,-81,587,-25,20,6,32767,32767,32767
54100,-761,-80,587,-25,20,4,32767,32767,32767
54200,-761,-79,586,-25,20,4,32767,32767,32767
54300,-760,-79,588,-25,20,4,32767,32767,32767
54400,-761,-80,588,-25,20,6,32767,32767,32767
54500,-761,-79,588,-25,20,4,32767,32767,32767
54600,-761,-80,587,-25,20,4,32767,32767,32767
54700,-761,-80,587,-25,20,4,32767,32767,32767
54800,-760,-80,589,-25,20,4,32767,32767,32767
54900,-760,-80,587,-25,19,4,32767,32767,32767
55000,-762,-80,588,-25,20,6,32767,32767,32767
55100,-761,-80,588,-25,20,4,32767,32767,32767
55200,-760,-79,587,-26,21,4,32767,32767,32767
55300,-761,-80,586,-25,21,4,32767,32767,32767
55400,-760,-80,589,-25,20,4,32767,32767,32767
55500,-761,-80,588,-26,20,4,32767,32767,32767
55600,-761,-79,587,-25,21,6,32767,32767,32767
55700,-761,-79,588,-25,20,4,32767,32767,32767
55800,-761,-79,588,-25,21,4,32767,32767,32767
55900,-760,-79,588,-26,20,4,32767,32767,32767
56000,-760,-80,589,-25,20,4,32767,32767,32767
56100,-760,-79,588,-25,20,4,32767,32767,32767
56210,-761,-79,587,-25,21,4,32767,32767,32767
56300,-760,-80,587,-25,21,4,32767,32767,32767
56400,-761,-80,589,-25,21,4,32767,32767,32767
56500,-761,-80,588,-25,20,4,32767,32767,32767
56600,-764,-77,588,-24,19,8,32767,32767,32767
56700,-761,-79,588,-24,17,4,32767,32767,32767
56800,-761,-80,589,-25,19,6,32767,32767,32767
56900,-761,-80,588,-25,22,6,32767,32767,32767
57000,-761,-79,588,-25,20,4,32767,32767,32767
57100,-760,-80,587,-26,20,4,32767,32767,32767
57200,-760,-79,587,-26,20,4,32767,32767,32767
57300,-761,-80,586,-25,20,4,32767,32767,32767
57400,-760,-80,588,-25,20,4,32767,32767,32767
57500,-760,-79,587,-25,20,4,32767,32767,32767
57610,-761,-79,587,-26,20,4,32767,32767,32767
57700,-761,-79,587,-25,20,4,32767,32767,32767
57800,-761,-79,588,-25,20,4,32767,32767,32767
57900,-760,-79,588,-26,20,4,32767,32767,32767
58000,-760,-79,587,-25,20,4,32767,32767,32767
58100,-761,-79,587,-26,21,4,32767,32767,32767
58200,-761,-78,589,-25,20,4,32767,32767,32767
58300,-761,-80,588,-26,21,4,32767,32767,32767
58400,-760,-80,588,-26,20,6,32767,32767,32767
58500,-761,-79,587,-25,20,6,32767,32767,32767
58600,-762,-80,588,-26,20,6,32767,32767,32767
58700,-760,-81,589,-25,20,4,32767,32767,32767
58800,-760,-79,586,-25,21,4,32767,32767,32767
58910,-760,-79,589,-25,20,4,32767,32767,32767
59000,-760,-80,588,-25,20,4,32767,32767,32767
59100,-761,-78,587,-25,20,4,32767,32767,32767
59200,-761,-79,587,-25,20,4,32767,32767,32767
59300,-760,-79,586,-25,20,6,32767,32767,32767
59400,-760,-79,589,-25,20,6,32767,32767,32767
59500,-761,-80,588,-25,20,4,32767,32767,32767
59600,-761,-79,587,-25,20,4,32767,32767,32767
59700,-762,-80,588,-25,20,4,32767,32767,32767
59800,-760,-80,587,-25,21,4,32767,32767,32767
59900,-761,-80,586,-25,20,6,32767,32767,32767
60000,-760,-79,588,-25,20,4,32767,32767,32767
60100,-761,-80,588,-26,20,4,32767,32767,32767
60200,-760,-79,587,-26,20,4,32767,32767,32767
60310,-760,-81,587,-26,20,4,32767,32767,32767
60400,-761,-80,587,-25,20,4,32767,32767,32767
60500,-761,-80,588,-25,20,4,32767,32767,32767
60600,-761,-79,587,-25,20,4,32767,32767,32767
60700,-760,-79,587,-26,20,4,32767,32767,32767
60800,-760,-79,587,-25,20,6,32767,32767,32767
60900,-760,-81,587,-26,21,4,32767,32767,32767
61000,-759,-80,588,-25,20,4,32767,32767,32767
61100,-760,-80,587,-25,20,4,32767,32767,32767
61200,-762,-79,585,-25,20,4,32767,32767,32767
61300,-760,-80,587,-25,20,4,32767,32767,32767
61400,-759,-81,588,-26,20,4,32767,32767,32767
61500,-761,-80,588,-26,21,4,32767,32767,32767
61600,-761,-79,588,-25,20,6,32767,32767,32767
61710,-760,-79,589,-25,20,4,32767,32767,32767
61800,-760,-80,587,-26,20,4,32767,32767,32767
61900,-760,-79,588,-25,20,4,32767,32767,32767
62000,-760,-80,588,-25,20,6,32767,32767,32767
62100,-760,-80,588,-25,20,4,32767,32767,32767
62200,-760,-79,588,-25,20,6,32767,32767,32767
62300,-760,-79,589,-25,20,4,32767,32767,32767
62400,-760,-79,587,-26,20,4,32767,32767,32767
62500,-760,-80,589,-25,21,4,32767,32767,32767
62600,-762,-80,589,-26,20,4,32767,32767,32767
62700,-760,-81,586,-25,20,4,32767,32767,32767
62800,-760,-79,588,-25,20,4,32767,32767,32767
62900,-761,-80,588,-25,20,4,32767,32767,32767
63010,-761,-80,588,-26,20,4,32767,32767,32767
63100,-761,-80,587,-25,20,4,32767,32767,32767
63200,-760,-80,588,-25,20,4,32767,32767,32767
63300,-761,-79,587,-25,20,4,32767,32767,32767
63400,-760,-79,589,-25,20,4,32767,32767,32767
63500,-761,-79,588,-25,20,4,32767,32767,32767
63600,-760,-79,588,-25,21,4,32767,32767,32767
63700,-760,-80,587,-26,20,4,32767,32767,32767
63800,-760,-80,588,-25,20,4,32767,32767,32767
63900,-761,-80,588,-26,20,4,32767,32767,32767
64000,-759,-80,588,-25,20,4,32767,32767,32767
64110,-760,-80,588,-25,20,4,32767,32767,32767
64200,-761,-80,586,-26,20,4,32767,32767,32767
64300,-760,-79,586,-26,20,6,32767,32767,32767
64410,-761,-80,588,-25,20,4,32767,32767,32767
64500,-760,-80,588,-25,20,4,32767,32767,32767
64600,-760,-80,588,-25,20,4,32767,32767,32767
64700,-761,-80,586,-26,20,4,32767,32767,32767
64800,-760,-80,589,-25,20,4,32767,32767,32767
64900,-760,-80,588,-25,20,4,32767,32767,32767
65000,-760,-80,588,-25,20,4,32767,32767,32767
65100,-761,-79,587,-25,20,4,32767,32767,32767
65200,-760,-80,588,-25,20,4,32767,32767,32767
65300,-761,-79,590,-25,20,4,32767,32767,32767
65400,-761,-79,588,-25,20,6,32767,32767,32767
65500,-761,-80,588,-25,20,4,32767,32767,32767
65600,-760,-79,589,-25,20,4,32767,32767,32767
65700,-760,-80,587,-25,20,4,32767,32767,32767
65810,-761,-79,587,-25,20,4,32767,32767,32767
65900,-760,-80,589,-25,20,4,32767,32767,32767
66000,-759,-80,586,-26,20,4,32767,32767,32767
66100,-760,-79,587,-25,20,4,32767,32767,32767
66200,-759,-80,590,-25,20,4,32767,32767,32767
66300,-760,-80,588,-26,20,4,32767,32767,32767
66400,-760,-80,587,-25,20,4,32767,32767,32767
66500,-761,-80,586,-26,20,4,32767,32767,32767
66600,-761,-80,587,-25,20,4,32767,32767,32767
66700,-760,-79,588,-26,20,4,32767,32767,32767
66800,-761,-80,589,-25,20,6,32767,32767,32767
66900,-760,-80,588,-25,20,4,32767,32767,32767
67000,-760,-80,589,-25,20,4,32767,32767,32767
67100,-761,-80,588,-26,21,4,32767,32767,32767
67210,-760,-80,588,-25,20,4,32767,32767,32767
67300,-760,-80,589,-26,20,4,32767,32767,32767
67400,-760,-80,590,-25,20,4,32767,32767,32767
67500,-760,-79,590,-25,20,4,32767,32767,32767
67600,-761,-79,589,-26,20,4,32767,32767,32767
67700,-760,-81,588,-26,20,4,32767,32767,32767
67800,-759,-79,587,-25,20,4,32767,32767,32767
67900,-761,-81,588,-26,20,4,32767,32767,32767
68000,-761,-80,587,-26,20,4,32767,32767,32767
68100,-760,-80,589,-25,20,6,32767,32767,32767
68200,-761,-80,588,-25,20,4,32767,32767,32767
68300,-760,-80,588,-25,20,4,32767,32767,32767
68400,-760,-80,588,-26,20,4,32767,32767,32767
68500,-760,-80,587,-26,21,6,32767,32767,32767
68600,-761,-80,587,-25,20,4,32767,32767,32767
68700,-760,-79,590,-25,20,4,32767,32767,32767
68800,-760,-80,589,-26,20,6,32767,32767,32767
68900,-761,-79,588,-25,20,4,32767,32767,32767
69000,-761,-81,588,-25,20,4,32767,32767,32767
69100,-760,-80,588,-26,20,4,32767,32767,32767
69200,-760,-79,587,-25,20,4,32767,32767,32767
69300,-760,-80,589,-26,20,4,32767,32767,32767
69400,-761,-80,588,-25,20,4,32767,32767,32767
69500,-760,-79,589,-26,20,4,32767,32767,32767
69600,-760,-80,588,-25,20,6,32767,32767,32767
69700,-759,-80,587,-25,20,4,32767,32767,32767
69800,-760,-79,588,-25,20,4,32767,32767,32767
69910,-759,-79,588,-26,20,6,32767,32767,32767
70000,-761,-80,588,-25,20,4,32767,32767,32767
70100,-761,-80,589,-26,20,4,32767,32767,32767
70200,-760,-80,588,-26,21,4,32767,32767,32767
70300,-761,-80,588,-26,20,4,32767,32767,32767
70400,-760,-80,589,-25,20,4,32767,32767,32767
70500,-760,-78,588,-25,20,6,32767,32767,32767
70600,-760,-80,589,-26,20,4,32767,32767,32767
70700,-761,-79,588,-26,21,4,32767,32767,32767
70800,-759,-80,590,-26,20,4,32767,32767,32767
70900,-760,-80,588,-25,20,4,32767,32767,32767
71000,-760,-80,589,-25,20,4,32767,32767,32767
71100,-759,-80,588,-25,20,4,32767,32767,32767
71210,-759,-80,588,-25,21,4,32767,32767,32767
71300,-760,-80,588,-25,20,4,32767,32767,32767
71400,-760,-80,589,-26,20,4,32767,32767,32767
71500,-760,-78,589,-25,20,4,32767,32767,32767
71600,-760,-81,588,-25,20,4,32767,32767,32767
71700,-760,-78,589,-25,20,4,32767,32767,32767
71800,-761,-80,589,-26,21,4,32767,32767,32767
71900,-759,-80,589,-25,20,4,32767,32767,32767
72000,-760,-80,590,-25,20,4,32767,32767,32767
72100,-758,-79,588,-26,20,4,32767,32767,32767
72200,-760,-79,588,-25,20,4,32767,32767,32767
72300,-761,-80,586,-26,20,6,32767,32767,32767
72400,-760,-80,587,-25,21,4,32767,32767,32767
72500,-759,-81,589,-25,20,4,32767,32767,32767
72600,-761,-80,588,-26,20,4,32767,32767,32767
72700,-760,-79,587,-25,20,4,32767,32767,32767
72800,-761,-79,587,-26,20,4,32767,32767,32767
72900,-760,-80,587,-26,21,4,32767,32767,32767
73000,-760,-81,589,-26,20,4,32767,32767,32767
73100,-758,-80,589,-25,20,4,32767,32767,32767
73200,-761,-80,588,-26,20,4,32767,32767,32767
73300,-760,-79,589,-25,20,4,32767,32767,32767
73400,-760,-80,588,-26,20,6,32767,32767,32767
73500,-760,-80,589,-25,21,4,32767,32767,32767
73600,-760,-80,589,-26,20,4,32767,32767,32767
73700,-760,-79,588,-26,20,4,32767,32767,32767
73800,-760,-80,588,-26,20,4,32767,32767,32767
73900,-759,-80,590,-25,20,4,32767,32767,32767
74010,-763,-80,589,-25,19,3,32767,32767,32767
74100,-759,-80,588,-26,20,4,32767,32767,32767
74200,-759,-80,589,-26,21,4,32767,32767,32767
74300,-760,-80,589,-25,20,4,32767,32767,32767
74400,-761,-80,588,-26,21,4,32767,32767,32767
74500,-760,-80,588,-26,21,4,32767,32767,32767
74600,-759,-79,587,-26,20,6,32767,32767,32767
74700,-760,-80,589,-25,20,4,32767,32767,32767
74800,-760,-79,590,-25,20,4,32767,32767,32767
74900,-759,-80,589,-25,20,4,32767,32767,32767
75000,-759,-81,588,-26,21,4,32767,32767,32767
75100,-761,-80,588,-25,20,6,32767,32767,32767
75200,-764,-71,586,-30,-71,-86,32767,32767,32767
75410,-754,-81,598,11,-4,43,32767,32767,32767
75500,-754,-83,595,-34,23,-5,32767,32767,32767
75600,-752,-86,595,103,14,30,32767,32767,32767
75700,-756,-71,597,288,67,-196,32767,32767,32767
75800,-756,-74,596,2,35,8,32767,32767,32767
75900,-761,-75,590,-56,-13,-24,32767,32767,32767
76000,-742,-68,618,-11,42,-5,32767,32767,32767
76100,-757,-67,601,-79,26,-119,32767,32767,32767
76200,-762,-96,596,-138,154,-145,32767,32767,32767
76300,-761,-111,592,20,3,-57,32767,32767,32767
76400,-750,-118,561,-179,59,-121,32767,32767,32767
76500,-759,-110,582,-7,42,2,32767,32767,32767
76600,-755,-119,568,-54,83,-46,32767,32767,32767
76700,-764,-117,575,-17,32,10,32767,32767,32767
76810,-763,-117,574,-20,-2,15,32767,32767,32767
76900,-763,-132,572,-125,5,92,32767,32767,32767
77000,-763,-110,577,-164,-36,136,32767,32767,32767
77100,-768,-111,583,-80,5,46,32767,32767,32767
77200,-762,-115,576,-13,9,24,32767,32767,32767
77300,-758,-118,571,-71,67,-43,32767,32767,32767
77400,-761,-104,575,-155,109,10,32767,32767,32767
77500,-757,-139,561,-191,23,91,32767,32767,32767
77600,-768,3,605,-717,-197,577,32767,32767,32767
77700,-766,-107,592,-146,-228,575,32767,32767,32767
77800,-750,-89,603,-7,4,28,32767,32767,32767
77900,-749,-96,601,-19,11,9,32767,32767,32767
78000,-749,-95,601,-30,24,-1,32767,32767,32767
78100,-749,-93,601,-24,18,6,32767,32767,32767
78210,-750,-93,601,-23,17,7,32767,32767,32767
78300,-749,-94,601,-25,20,4,32767,32767,32767
78400,-748,-92,601,-25,20,4,32767,32767,32767
78500,-748,-94,602,-25,19,4,32767,32767,32767
78600,-750,-94,601,-25,20,4,32767,32767,32767
78700,-750,-93,601,-25,19,3,32767,32767,32767
78800,-749,-94,602,-26,20,3,32767,32767,32767
78900,-750,-93,602,-25,19,4,32767,32767,32767
79000,-749,-95,601,-26,20,4,32767,32767,32767
79100,-749,-93,601,-26,20,4,32767,32767,32767
79200,-749,-94,602,-26,20,4,32767,32767,32767
79300,-748,-92,601,-25,20,4,32767,32767,32767
79400,-749,-93,600,-26,20,4,32767,32767,32767
79500,-748,-94,603,-25,20,4,32767,32767,32767
79600,-750,-93,601,-26,20,4,32767,32767,32767
79700,-748,-93,602,-27,20,3,32767,32767,32767
79800,-748,-94,601,-27,20,4,32767,32767,32767
79900,-750,-92,600,-26,20,4,32767,32767,32767
80000,-749,-93,602,-26,20,4,32767,32767,32767
80100,-749,-94,602,-25,20,4,32767,32767,32767
80200,-749,-93,600,-26,20,4,32767,32767,32767
80300,-748,-93,602,-26,20,4,32767,32767,32767
80400,-749,-94,601,-25,20,4,32767,32767,32767
80500,-748,-93,601,-25,20,4,32767,32767,32767
80600,-748,-94,602,-26,20,3,32767,32767,32767
80700,-748,-93,603,-25,20,4,32767,32767,32767
80800,-749,-92,603,-24,20,3,32767,32767,32767
80910,-750,-93,604,-26,20,3,32767,32767,32767
81000,-750,-93,603,-26,20,3,32767,32767,32767
81100,-748,-93,603,-25,19,4,32767,32767,32767
81200,-748,-93,601,-26,20,4,32767,32767,32767
81300,-749,-93,603,-26,21,4,32767,32767,32767
81400,-750,-92,602,-25,20,4,32767,32767,32767
81500,-750,-94,602,-25,20,4,32767,32767,32767
81600,-748,-92,603,-25,20,6,32767,32767,32767
81700,-749,-91,602,-25,21,4,32767,32767,32767
81800,-747,-94,602,-27,23,4,32767,32767,32767
81900,-750,-93,603,-26,25,3,32767,32767,32767
82000,-749,-94,601,-25,22,4,32767,32767,32767
82100,-750,-93,602,-25,23,3,32767,32767,32767
82210,-749,-93,601,-26,22,4,32767,32767,32767
82310,-752,-91,601,-25,22,3,32767,32767,32767
82400,-751,-95,596,-24,22,3,32767,32767,32767
82500,-749,-94,602,-25,21,4,32767,32767,32767
82600,-750,-96,598,-26,22,2,32767,32767,32767
82700,-749,-95,599,-24,20,4,32767,32767,32767
82800,-750,-93,600,-24,20,6,32767,32767,32767
82900,-750,-93,600,-25,19,6,32767,32767,32767
83000,-751,-93,599,-25,20,4,32767,32767,32767
83100,-750,-93,600,-25,22,3,32767,32767,32767
83210,-750,-94,598,-26,19,6,32767,32767,32767
83300,-749,-93,601,-25,17,9,32767,32767,32767
83400,-751,-93,600,-26,19,7,32767,32767,32767
83500,-750,-92,600,-27,20,4,32767,32767,32767
83600,-749,-94,603,-27,21,3,32767,32767,32767
83710,-750,-95,598,-26,22,2,32767,32767,32767
83800,-750,-94,602,-25,20,4,32767,32767,32767
83900,-750,-94,599,-26,20,4,32767,32767,32767
84000,-750,-94,599,-25,18,8,32767,32767,32767
84100,-750,-94,602,-25,19,6,32767,32767,32767
84200,-750,-94,600,-25,20,4,32767,32767,32767
84300,-750,-94,600,-25,20,6,32767,32767,32767
84400,-749,-94,602,-25,20,4,32767,32767,32767
84500,-750,-94,601,-26,21,4,32767,32767,32767
84600,-749,-95,601,-27,20,4,32767,32767,32767
84700,-750,-93,598,-25,20,4,32767,32767,32767
84800,-749,-94,601,-25,18,7,32767,32767,32767
84900,-750,-93,600,-26,19,6,32767,32767,32767
85000,-749,-93,602,-25,19,4,32767,32767,32767
85110,-749,-94,600,-26,18,4,32767,32767,32767
85200,-750,-93,601,-25,18,6,32767,32767,32767
85300,-753,-92,597,-25,17,6,32767,32767,32767
85400,-746,-95,603,-26,17,6,32767,32767,32767
85500,-746,-95,605,-26,17,6,32767,32767,32767
85600,-750,-93,600,-25,19,4,32767,32767,32767
85700,-748,-95,601,-26,19,4,32767,32767,32767
85800,-750,-92,600,-24,19,6,32767,32767,32767
85900,-747,-93,603,-25,20,4,32767,32767,32767
86000,-748,-93,603,-26,20,4,32767,32767,32767
86100,-749,-93,601,-25,20,4,32767,32767,32767
86200,-748,-94,602,-25,20,4,32767,32767,32767
86300,-748,-92,602,-25,20,4,32767,32767,32767
86400,-748,-93,602,-25,20,4,32767,32767,32767
86510,-749,-93,601,-26,20,4,32767,32767,32767
86600,-749,-94,602,-25,20,4,32767,32767,32767
86700,-749,-93,602,-26,20,4,32767,32767,32767
86800,-748,-94,600,-26,20,4,32767,32767,32767
86900,-749,-92,603,-25,20,4,32767,32767,32767
87000,-749,-93,603,-26,20,4,32767,32767,32767
87100,-749,-93,602,-26,20,4,32767,32767,32767
87200,-748,-94,601,-26,20,4,32767,32767,32767
87300,-749,-93,600,-26,21,6,32767,32767,32767
87400,-748,-93,602,-26,20,4,32767,32767,32767
87500,-748,-94,602,-25,20,4,32767,32767,32767
87600,-750,-93,602,-25,20,4,32767,32767,32767
87700,-750,-94,603,-25,20,4,32767,32767,32767
87810,-749,-93,602,-25,20,4,32767,32767,32767
87900,-748,-93,603,-26,20,4,32767,32767,32767
88000,-748,-94,604,-26,20,4,32767,32767,32767
88100,-749,-94,602,-26,21,4,32767,32767,32767
88200,-749,-93,602,-26,20,4,32767,32767,32767
88300,-750,-93,601,-25,20,4,32767,32767,32767
88400,-749,-93,603,-25,20,4,32767,32767,32767
88500,-748,-93,602,-26,21,4,32767,32767,32767
88600,-747,-94,602,-26,20,4,32767,32767,32767
88700,-748,-93,602,-26,20,4,32767,32767,32767
88800,-749,-94,603,-26,21,4,32767,32767,32767
88900,-749,-93,602,-25,20,4,32767,32767,32767
89000,-749,-94,602,-26,20,4,32767,32767,32767
89100,-748,-93,601,-25,20,4,32767,32767,32767
89210,-748,-93,601,-26,20,4,32767,32767,32767
89300,-748,-94,601,-25,20,6,32767,32767,32767
89400,-749,-94,602,-25,20,4,32767,32767,32767
89500,-748,-92,602,-26,21,4,32767,32767,32767
89600,-749,-93,602,-25,20,4,32767,32767,32767
89700,-749,-93,601,-25,20,4,32767,32767,32767
89800,-748,-94,603,-25,20,6,32767,32767,32767
89900,-746,-93,603,-26,20,4,32767,32767,32767
90000,-749,-93,601,-25,20,4,32767,32767,32767
90100,-748,-94,601,-25,20,4,32767,32767,32767
90200,-748,-92,602,-25,20,4,32767,32767,32767
90300,-749,-93,603,-25,20,4,32767,32767,32767
90400,-749,-93,603,-25,20,4,32767,32767,32767
90510,-747,-93,603,-26,20,3,32767,32767,32767
90600,-750,-93,601,-26,20,4,32767,32767,32767
90700,-748,-92,601,-26,20,4,32767,32767,32767
90800,-748,-94,602,-25,20,6,32767,32767,32767
90900,-749,-93,603,-25,21,4,32767,32767,32767
91000,-749,-94,602,-25,20,4,32767,32767,32767
91100,-748,-94,602,-26,20,4,32767,32767,32767
91200,-750,-91,600,-26,21,4,32767,32767,32767
91300,-748,-94,604,-25,20,4,32767,32767,32767
91400,-749,-93,603,-26,21,4,32767,32767,32767
91500,-747,-94,604,-26,20,4,32767,32767,32767
91600,-748,-92,602,-25,20,4,32767,32767,32767
91700,-750,-93,601,-25,20,4,32767,32767,32767
91800,-749,-93,603,-26,20,4,32767,32767,32767
91910,-749,-93,601,-25,20,4,32767,32767,32767
92000,-747,-94,602,-25,20,4,32767,32767,32767
92100,-747,-95,603,-25,20,4,32767,32767,32767
92200,-749,-93,602,-26,20,4,32767,32767,32767
92300,-748,-93,602,-25,20,4,32767,32767,32767
92400,-748,-93,604,-25,20,4,32767,32767,32767
92500,-746,-95,606,-26,20,3,32767,32767,32767
92600,-750,-93,599,-26,19,4,32767,32767,32767
92700,-747,-94,604,-25,20,4,32767,32767,32767
92800,-750,-92,601,-25,19,6,32767,32767,32767
92900,-747,-93,603,-23,21,4,32767,32767,32767
93000,-746,-95,605,-25,20,4,32767,32767,32767
93100,-749,-93,601,-25,21,4,32767,32767,32767
93210,-748,-93,603,-25,20,4,32767,32767,32767
93310,-748,-93,603,-26,20,4,32767,32767,32767
93400,-752,-91,599,-25,20,4,32767,32767,32767
93500,-747,-93,605,-25,20,4,32767,32767,32767
93600,-747,-94,603,-26,20,3,32767,32767,32767
93700,-748,-92,602,-25,20,4,32767,32767,32767
93800,-747,-94,604,-25,20,4,32767,32767,32767
93900,-750,-93,602,-25,20,4,32767,32767,32767
94000,-749,-93,602,-25,20,4,32767,32767,32767
94100,-747,-93,603,-26,20,6,32767,32767,32767
94200,-749,-92,602,-25,20,4,32767,32767,32767
94300,-748,-92,603,-25,20,4,32767,32767,32767
94400,-748,-93,602,-26,20,4,32767,32767,32767
94500,-749,-93,601,-25,20,4,32767,32767,32767
94610,-748,-93,602,-25,20,4,32767,32767,32767
94700,-748,-93,603,-25,20,4,32767,32767,32767
94800,-748,-93,602,-26,20,4,32767,32767,32767
94900,-749,-94,602,-26,20,4,32767,32767,32767
95000,-747,-93,602,-25,20,4,32767,32767,32767
95100,-748,-93,603,-26,21,6,32767,32767,32767
95200,-748,-93,603,-26,20,4,32767,32767,32767
95300,-749,-93,603,-26,20,4,32767,32767,32767
95400,-749,-92,602,-25,20,4,32767,32767,32767
95500,-747,-93,603,-25,20,4,32767,32767,32767
95600,-750,-93,602,-26,20,4,32767,32767,32767
95700,-748,-92,603,-26,20,4,32767,32767,32767
95800,-748,-93,603,-26,20,4,32767,32767,32767
95910,-748,-93,602,-26,20,4,32767,32767,32767
96000,-749,-92,603,-25,20,4,32767,32767,32767
96100,-748,-93,602,-25,20,4,32767,32767,32767
96200,-749,-94,602,-25,20,6,32767,32767,32767
96300,-748,-93,602,-26,20,4,32767,32767,32767
96400,-748,-94,603,-26,20,4,32767,32767,32767
96500,-748,-93,602,-25,20,4,32767,32767,32767
96600,-748,-93,603,-25,20,4,32767,32767,32767
96700,-748,-93,603,-26,20,4,32767,32767,32767
96800,-748,-93,601,-26,20,4,32767,32767,32767
96900,-749,-94,603,-25,20,4,32767,32767,32767
97000,-747,-94,602,-25,20,4,32767,32767,32767
97100,-749,-93,602,-25,20,4,32767,32767,32767
97210,-748,-94,603,-26,20,4,32767,32767,32767
97300,-749,-94,602,-26,20,4,32767,32767,32767
97400,-749,-94,602,-26,20,4,32767,32767,32767
97500,-749,-93,604,-25,20,4,32767,32767,32767
97600,-749,-93,603,-25,20,4,32767,32767,32767
97700,-748,-93,603,-25,20,4,32767,32767,32767
97800,-748,-94,603,-26,20,4,32767,32767,32767
97900,-750,-93,602,-26,20,4,32767,32767,32767
98000,-749,-93,602,-26,20,4,32767,32767,32767
98100,-747,-94,603,-26,20,4,32767,32767,32767
98200,-748,-93,604,-25,20,4,32767,32767,32767
98310,-749,-93,601,-26,20,4,32767,32767,32767
98400,-749,-94,603,-26,20,4,32767,32767,32767
98500,-748,-94,603,-26,20,4,32767,32767,32767
98600,-750,-92,603,-26,20,4,32767,32767,32767
98700,-749,-93,603,-26,20,4,32767,32767,32767
98800,-748,-93,604,-26,20,4,32767,32767,32767
98900,-748,-94,604,-25,20,6,32767,32767,32767
99000,-748,-93,603,-25,20,4,32767,32767,32767
99100,-749,-93,602,-26,20,4,32767,32767,32767
99200,-747,-92,601,-25,20,4,32767,32767,32767
99310,-748,-93,602,-25,20,4,32767,32767,32767
99400,-748,-93,601,-26,20,4,32767,32767,32767
99500,-748,-94,602,-25,20,4,32767,32767,32767
99600,-748,-92,604,-26,20,4,32767,32767,32767
99700,-748,-92,603,-25,21,4,32767,32767,32767
99800,-748,-93,603,-25,20,4,32767,32767,32767
99910,-749,-93,603,-26,20,4,32767,32767,32767
100000,-748,-92,602,-26,20,4,32767,32767,32767
100100,-749,-94,602,-25,21,4,32767,32767,32767
100200,-748,-93,602,-26,20,4,32767,32767,32767
100300,-747,-94,602,-26,20,4,32767,32767,32767
100400,-748,-93,603,-26,20,4,32767,32767,32767
100500,-749,-93,602,-25,20,4,32767,32767,32767
100600,-749,-92,601,-25,20,4,32767,32767,32767
100700,-748,-93,602,-25,20,4,32767,32767,32767
100800,-748,-94,602,-26,20,4,32767,32767,32767
100900,-748,-93,603,-26,20,4,32767,32767,32767
101000,-748,-94,603,-26,20,4,32767,32767,32767
101100,-748,-93,602,-26,20,4,32767,32767,32767
101200,-748,-93,600,-26,20,4,32767,32767,32767
101310,-749,-93,602,-26,20,4,32767,32767,32767
101400,-748,-94,601,-25,20,4,32767,32767,32767
101500,-748,-93,602,-25,20,4,32767,32767,32767
101600,-749,-93,603,-26,20,4,32767,32767,32767
101700,-749,-94,603,-26,20,4,32767,32767,32767
101800,-749,-94,601,-25,20,4,32767,32767,32767
101900,-748,-94,602,-25,20,4,32767,32767,32767
102000,-748,-93,603,-25,20,4,32767,32767,32767
102100,-747,-93,602,-25,21,4,32767,32767,32767
102200,-748,-94,601,-25,20,3,32767,32767,32767
102300,-749,-93,602,-25,20,4,32767,32767,32767
102400,-748,-94,603,-25,20,4,32767,32767,32767
102500,-749,-94,603,-26,20,4,32767,32767,32767
102600,-748,-93,604,-25,20,4,32767,32767,32767
102700,-749,-93,603,-25,20,6,32767,32767,32767
102800,-748,-95,602,-26,20,4,32767,32767,32767
102900,-748,-94,602,-26,20,4,32767,32767,32767
103000,-748,-93,602,-25,20,4,32767,32767,32767
103100,-748,-93,602,-25,20,4,32767,32767,32767
103200,-749,-94,602,-27,20,4,32767,32767,32767
103300,-748,-94,602,-27,24,-9,32767,32767,32767
103400,-751,-92,603,-11,18,-1,32767,32767,32767
103500,-748,-93,602,-8,21,-5,32767,32767,32767
103600,-747,-95,602,19,29,-45,32767,32767,32767
103700,-748,-94,602,-19,20,1,32767,32767,32767
103800,-749,-94,603,-25,19,7,32767,32767,32767
103900,-749,-94,601,-27,20,4,32767,32767,32767
104010,-746,-94,603,-26,20,4,32767,32767,32767
104100,-747,-95,602,-25,20,4,32767,32767,32767
104200,-747,-95,602,-26,20,4,32767,32767,32767
104300,-748,-95,603,-26,21,4,32767,32767,32767
104400,-748,-94,603,-26,20,4,32767,32767,32767
104500,-747,-93,603,-25,20,4,32767,32767,32767
104600,-747,-94,602,-26,19,4,32767,32767,32767
104700,-748,-94,604,-25,21,4,32767,32767,32767
104800,-757,-98,611,-28,14,8,32767,32767,32767
104900,-748,-94,601,-27,19,4,32767,32767,32767
105000,-747,-95,602,-25,20,4,32767,32767,32767
105100,-748,-94,602,-27,20,4,32767,32767,32767
105200,-748,-95,604,-26,20,4,32767,32767,32767
105310,-747,-94,604,-26,20,4,32767,32767,32767
105400,-748,-95,602,-26,20,4,32767,32767,32767
105500,-748,-94,602,-25,20,4,32767,32767,32767
105600,-749,-94,603,-25,20,4,32767,32767,32767
105700,-747,-95,602,-25,20,4,32767,32767,32767
105800,-747,-95,603,-26,20,4,32767,32767,32767
105900,-748,-94,603,-25,20,4,32767,32767,32767
106000,-747,-94,603,-26,20,4,32767,32767,32767
106100,-748,-94,603,-25,20,4,32767,32767,32767
106200,-748,-94,603,-25,20,3,32767,32767,32767
106300,-748,-94,603,-24,20,1,32767,32767,32767
106400,-748,-95,601,-9,24,-15,32767,32767,32767
106500,-747,-96,605,42,27,-38,32767,32767,32767
106600,-748,-95,604,-22,20,6,32767,32767,32767
106710,-747,-95,603,-25,20,4,32767,32767,32767
106800,-749,-95,603,-25,19,6,32767,32767,32767
106900,-748,-95,602,-25,20,4,32767,32767,32767
107000,-748,-95,603,-25,20,4,32767,32767,32767
107100,-748,-93,604,-26,20,6,32767,32767,32767
107200,-747,-95,603,-25,21,3,32767,32767,32767
107300,-749,-96,603,-26,20,6,32767,32767,32767
107400,-747,-96,603,-26,20,4,32767,32767,32767
107500,-748,-95,602,-26,20,4,32767,32767,32767
107600,-747,-94,604,-26,20,4,32767,32767,32767
107700,-748,-95,603,-25,20,3,32767,32767,32767
107800,-748,-96,603,-25,20,4,32767,32767,32767
107900,-746,-96,602,-26,20,4,32767,32767,32767
108010,-747,-95,603,-26,20,4,32767,32767,32767
108100,-748,-95,602,-26,20,4,32767,32767,32767
108200,-747,-95,603,-25,20,4,32767,32767,32767
108300,-748,-95,603,-26,20,4,32767,32767,32767
108400,-746,-95,602,-26,21,4,32767,32767,32767
108500,-747,-95,603,-26,20,4,32767,32767,32767
108600,-747,-95,604,-26,20,4,32767,32767,32767
108700,-748,-95,603,-26,20,4,32767,32767,32767
108800,-747,-95,603,-26,20,4,32767,32767,32767
108900,-748,-96,603,-26,20,4,32767,32767,32767
109000,-748,-95,603,-26,20,4,32767,32767,32767
109100,-748,-95,603,-25,20,4,32767,32767,32767
109200,-748,-95,601,-25,21,4,32767,32767,32767
109310,-747,-95,604,-25,20,4,32767,32767,32767
109400,-748,-95,604,-25,20,4,32767,32767,32767
109500,-748,-95,604,-26,20,4,32767,32767,32767
109600,-747,-94,602,-25,20,4,32767,32767,32767
109700,-748,-95,603,-26,20,4,32767,32767,32767
109800,-748,-97,603,-26,20,4,32767,32767,32767
109900,-748,-95,604,-25,20,4,32767,32767,32767
110000,-748,-95,603,-26,20,4,32767,32767,32767
110100,-747,-95,603,-25,20,4,32767,32767,32767
110200,-747,-96,604,-25,20,4,32767,32767,32767
110300,-747,-96,603,-26,20,4,32767,32767,32767
110400,-747,-95,603,-26,20,4,32767,32767,32767
110500,-748,-95,603,-25,20,4,32767,32767,32767
110610,-748,-95,603,-25,20,4,32767,32767,32767
110700,-748,-95,602,-25,20,4,32767,32767,32767
110800,-748,-95,603,-25,20,4,32767,32767,32767
110900,-747,-94,603,-26,20,4,32767,32767,32767
111000,-747,-95,603,-26,20,4,32767,32767,32767
111100,-747,-95,602,-26,20,4,32767,32767,32767
111200,-748,-95,604,-26,20,4,32767,32767,32767
111300,-748,-95,604,-26,20,4,32767,32767,32767
111400,-747,-95,603,-26,20,4,32767,32767,32767
111500,-748,-95,603,-26,20,4,32767,32767,32767
111600,-747,-94,604,-25,20,4,32767,32767,32767
111700,-748,-95,603,-25,20,4,32767,32767,32767
111800,-748,-95,603,-25,20,4,32767,32767,32767
111910,-748,-95,604,-25,20,4,32767,32767,32767
112000,-744,-94,601,-26,20,4,32767,32767,32767
112100,-750,-97,605,-25,21,6,32767,32767,32767
112200,-747,-95,603,-25,20,4,32767,32767,32767
112300,-747,-95,603,-25,20,4,32767,32767,32767
112400,-748,-95,603,-26,20,4,32767,32767,32767
112500,-748,-95,602,-25,20,4,32767,32767,32767
112600,-747,-95,601,-25,20,4,32767,32767,32767
112700,-747,-95,604,-26,20,4,32767,32767,32767
112800,-747,-96,603,-26,20,4,32767,32767,32767
112900,-749,-95,603,-25,20,4,32767,32767,32767
113000,-748,-96,603,-25,20,4,32767,32767,32767
113100,-747,-95,603,-26,20,4,32767,32767,32767
113200,-747,-96,603,-26,20,4,32767,32767,32767
113310,-747,-95,603,-25,20,4,32767,32767,32767
113400,-748,-96,602,-26,20,4,32767,32767,32767
113500,-748,-95,604,-26,20,4,32767,32767,32767
113600,-747,-95,603,-26,21,4,32767,32767,32767
113700,-747,-95,603,-25,20,4,32767,32767,32767
113800,-748,-95,603,-25,20,4,32767,32767,32767
113900,-748,-97,603,-21,20,6,32767,32767,32767
114000,-747,-96,602,-24,19,6,32767,32767,32767
114100,-748,-96,603,-26,20,4,32767,32767,32767
114200,-736,-92,595,-25,18,8,32767,32767,32767
114300,-748,-95,604,-27,20,3,32767,32767,32767
114410,-747,-96,602,-26,20,4,32767,32767,32767
114500,-748,-96,602,-26,21,4,32767,32767,32767
114610,-747,-94,601,-26,20,4,32767,32767,32767
114700,-748,-95,603,-26,20,4,32767,32767,32767
114800,-748,-96,603,-26,20,4,32767,32767,32767
114900,-748,-95,602,-26,20,4,32767,32767,32767
115000,-748,-95,604,-26,20,4,32767,32767,32767
115100,-744,-106,596,-20,2,21,32767,32767,32767
115200,-746,-78,610,-23,-10,11,32767,32767,32767
115300,-748,-65,602,323,76,-514,32767,32767,32767
115400,-799,-219,570,1600,-367,-965,32767,32767,32767
115500,-803,-16,520,1357,100,-1174,32767,32767,32767
115600,-732,-111,634,676,262,-801,32767,32767,32767
115700,-730,-22,605,1211,173,-1096,32767,32767,32767
115800,-707,-17,663,1035,437,-885,32767,32767,32767
115900,-707,-21,668,255,117,-203,32767,32767,32767
116010,-724,-62,641,56,40,-49,32767,32767,32767
116100,-733,-59,620,-84,-4,110,32767,32767,32767
116200,-738,-102,594,-425,-36,266,32767,32767,32767
116300,-752,-83,596,-1210,-35,870,32767,32767,32767
116400,-741,-97,610,-445,-30,309,32767,32767,32767
116500,-740,-87,615,-47,24,15,32767,32767,32767
116600,-739,-87,615,-26,18,4,32767,32767,32767
116700,-738,-87,616,-25,19,3,32767,32767,32767
116800,-739,-87,616,-25,20,4,32767,32767,32767
116900,-738,-87,617,-26,19,3,32767,32767,32767
117000,-739,-87,617,-26,20,4,32767,32767,32767
117100,-738,-87,617,-26,20,4,32767,32767,32767
117200,-739,-88,615,-25,20,4,32767,32767,32767
117310,-738,-87,616,-26,20,4,32767,32767,32767
117400,-738,-88,615,-26,21,4,32767,32767,32767
117500,-738,-87,617,-25,19,4,32767,32767,32767
117600,-739,-87,615,-26,20,4,32767,32767,32767
117700,-739,-88,616,-26,20,4,32767,32767,32767
117800,-737,-87,616,-26,20,4,32767,32767,32767
117900,-737,-87,617,-25,19,4,32767,32767,32767
118000,-738,-87,616,-26,21,3,32767,32767,32767
118100,-738,-87,615,-26,20,4,32767,32767,32767
118200,-739,-87,616,-26,22,4,32767,32767,32767
118300,-739,-88,616,-26,21,4,32767,32767,32767
118400,-739,-87,615,-26,20,4,32767,32767,32767
118500,-738,-89,615,-26,20,4,32767,32767,32767
118600,-738,-88,617,-26,20,4,32767,32767,32767
118700,-738,-88,614,-26,21,4,32767,32767,32767
118800,-739,-87,616,-26,21,4,32767,32767,32767
118900,-739,-88,616,-26,21,4,32767,32767,32767
119000,-739,-88,617,-26,20,4,32767,32767,32767
119100,-738,-87,617,-26,20,4,32767,32767,32767
119200,-738,-88,614,-26,20,4,32767,32767,32767
119300,-739,-87,614,-26,20,3,32767,32767,32767
119400,-737,-88,616,-26,20,4,32767,32767,32767
119500,-738,-88,616,-26,19,4,32767,32767,32767
119600,-740,-88,616,-26,20,4,32767,32767,32767
119700,-737,-87,615,-26,20,4,32767,32767,32767
119800,-738,-88,616,-25,20,4,32767,32767,32767
119900,-737,-88,616,-26,20,3,32767,32767,32767
120010,-739,-87,615,-26,20,4,32767,32767,32767
120100,-739,-88,616,-26,19,3,32767,32767,32767
120200,-739,-88,615,-26,20,2,32767,32767,32767
120300,-736,-89,615,-26,20,3,32767,32767,32767
120400,-739,-89,616,-26,20,3,32767,32767,32767
120500,-737,-88,615,-26,19,4,32767,32767,32767
120600,-737,-90,615,-27,20,3,32767,32767,32767
120700,-739,-89,615,-26,20,3,32767,32767,32767
120800,-737,-89,615,-26,19,3,32767,32767,32767
120900,-737,-89,615,-26,20,4,32767,32767,32767
121000,-733,-87,623,-25,17,4,32767,32767,32767
121100,-745,-91,605,-26,19,4,32767,32767,32767
121200,-737,-90,619,-28,25,2,32767,32767,32767
121300,-736,-89,622,-26,17,3,32767,32767,32767
121400,-739,-91,616,-27,20,3,32767,32767,32767
121500,-735,-89,621,-25,17,4,32767,32767,32767
121600,-741,-91,612,-27,21,4,32767,32767,32767
121700,-739,-90,615,-29,26,2,32767,32767,32767
121800,-734,-90,621,-24,14,4,32767,32767,32767
121900,-739,-91,614,-26,20,4,32767,32767,32767
122000,-737,-91,617,-25,20,4,32767,32767,32767
122100,-737,-91,616,-26,20,3,32767,32767,32767
122200,-738,-91,615,-26,21,4,32767,32767,32767
122300,-737,-90,619,-26,19,4,32767,32767,32767
122410,-737,-91,616,-26,19,4,32767,32767,32767
122500,-738,-91,616,-27,22,3,32767,32767,32767
122600,-737,-91,616,-26,21,3,32767,32767,32767
122710,-738,-91,616,-25,20,3,32767,32767,32767
122800,-737,-91,616,-26,21,4,32767,32767,32767
122900,-736,-91,619,-25,19,4,32767,32767,32767
123000,-737,-92,618,-26,19,4,32767,32767,32767
123100,-738,-92,614,-26,21,4,32767,32767,32767
123200,-736,-91,617,-26,19,4,32767,32767,32767
123300,-737,-92,616,-26,21,4,32767,32767,32767
123400,-738,-91,616,-26,20,3,32767,32767,32767
123500,-737,-91,617,-26,20,4,32767,32767,32767
123600,-738,-92,615,-26,20,4,32767,32767,32767
123700,-737,-91,615,-26,21,4,32767,32767,32767
123800,-736,-91,617,-25,20,4,32767,32767,32767
123900,-737,-92,616,-26,20,4,32767,32767,32767
124000,-737,-91,617,-26,20,4,32767,32767,32767
124100,-736,-91,616,-26,20,4,32767,32767,32767
124200,-737,-91,614,-26,20,4,32767,32767,32767
124300,-737,-92,615,-26,20,4,32767,32767,32767
124410,-737,-91,616,-26,20,4,32767,32767,32767
124500,-738,-92,617,-25,19,4,32767,32767,32767
124600,-738,-92,617,-26,20,4,32767,32767,32767
124700,-737,-92,615,-25,19,6,32767,32767,32767
124800,-737,-91,615,-26,21,4,32767,32767,32767
124900,-737,-90,617,-25,20,4,32767,32767,32767
125000,-737,-91,616,-25,20,4,32767,32767,32767
125100,-737,-92,615,-26,21,4,32767,32767,32767
125200,-738,-92,616,-25,20,4,32767,32767,32767
125300,-736,-93,615,-26,21,4,32767,32767,32767
125410,-736,-91,616,-26,20,4,32767,32767,32767
125500,-738,-91,617,-26,20,4,32767,32767,32767
125600,-737,-92,616,-26,20,4,32767,32767,32767
125700,-737,-91,618,-26,20,4,32767,32767,32767
125800,-738,-92,616,-26,20,4,32767,32767,32767
125900,-737,-91,615,-25,21,4,32767,32767,32767
126000,-738,-92,616,-26,21,4,32767,32767,32767
126100,-737,-92,617,-25,20,4,32767,32767,32767
126200,-737,-93,616,-25,20,4,32767,32767,32767
126300,-736,-92,616,-25,20,4,32767,32767,32767
126400,-737,-92,617,-25,21,4,32767,32767,32767
126500,-738,-93,616,-25,20,4,32767,32767,32767
126600,-737,-92,616,-26,20,4,32767,32767,32767
126700,-736,-91,616,-26,20,4,32767,32767,32767
126800,-737,-91,617,-25,20,4,32767,32767,32767
126900,-737,-92,616,-25,20,4,32767,32767,32767
127000,-738,-91,616,-26,20,4,32767,32767,32767
127100,-737,-91,615,-26,20,4,32767,32767,32767
127200,-738,-92,617,-26,20,4,32767,32767,32767
127300,-737,-91,618,-25,20,4,32767,32767,32767
127400,-737,-92,616,-26,20,4,32767,32767,32767
127500,-737,-91,616,-25,21,4,32767,32767,32767
127600,-738,-92,617,-26,20,4,32767,32767,32767
127700,-738,-92,616,-26,20,4,32767,32767,32767
127800,-737,-91,617,-26,20,4,32767,32767,32767
127900,-737,-92,617,-26,20,4,32767,32767,32767
128000,-736,-92,616,-26,21,4,32767,32767,32767
128110,-738,-93,616,-25,20,4,32767,32767,32767
128200,-737,-91,616,-25,20,4,32767,32767,32767
128300,-737,-91,617,-25,19,6,32767,32767,32767
128400,-737,-93,617,-25,20,4,32767,32767,32767
128500,-738,-92,617,-25,20,4,32767,32767,32767
128600,-737,-91,616,-26,21,4,32767,32767,32767
128700,-737,-91,617,-26,20,4,32767,32767,32767
128800,-736,-92,617,-25,19,4,32767,32767,32767
128900,-738,-91,618,-25,20,6,32767,32767,32767
129000,-735,-91,619,-25,21,4,32767,32767,32767
129100,-738,-92,616,-26,21,4,32767,32767,32767
129200,-739,-91,617,-26,19,6,32767,32767,32767
129300,-736,-92,617,-25,20,4,32767,32767,32767
129410,-737,-93,617,-25,19,4,32767,32767,32767
129500,-738,-91,616,-25,20,4,32767,32767,32767
129600,-736,-92,618,-25,19,4,32767,32767,32767
129700,-736,-92,616,-25,19,4,32767,32767,32767
129800,-737,-92,616,-25,21,4,32767,32767,32767
129900,-737,-91,617,-26,20,4,32767,32767,32767
130000,-737,-91,615,-26,20,4,32767,32767,32767
130100,-737,-92,616,-25,20,4,32767,32767,32767
130200,-737,-91,619,-25,19,4,32767,32767,32767
130310,-737,-92,617,-26,21,4,32767,32767,32767
130410,-738,-91,617,-25,20,4,32767,32767,32767
130500,-737,-91,617,-25,20,4,32767,32767,32767
130600,-737,-91,618,-26,21,4,32767,32767,32767
130710,-737,-92,616,-26,20,4,32767,32767,32767
130800,-738,-92,617,-25,20,4,32767,32767,32767
130900,-737,-91,617,-25,20,4,32767,32767,32767
131000,-737,-91,616,-25,20,4,32767,32767,32767
131100,-737,-91,615,-26,20,4,32767,32767,32767
131200,-736,-92,618,-25,20,3,32767,32767,32767
131310,-738,-92,616,-25,20,4,32767,32767,32767
131400,-737,-92,616,-25,20,4,32767,32767,32767
131500,-738,-92,618,-25,20,4,32767,32767,32767
131600,-738,-92,617,-25,20,4,32767,32767,32767
131700,-737,-92,616,-26,21,4,32767,32767,32767
131800,-737,-92,616,-25,19,4,32767,32767,32767
131900,-736,-92,616,-25,21,4,32767,32767,32767
132010,-736,-91,615,-25,20,4,32767,32767,32767
132100,-737,-91,616,-25,19,4,32767,32767,32767
132200,-738,-92,617,-25,20,4,32767,32767,32767
132300,-738,-91,617,-26,21,4,32767,32767,32767
132400,-737,-92,617,-25,20,4,32767,32767,32767
132500,-737,-92,618,-26,20,4,32767,32767,32767
132600,-737,-92,617,-25,20,4,32767,32767,32767
132700,-738,-92,615,-26,21,4,32767,32767,32767
132800,-737,-91,616,-26,21,4,32767,32767,32767
132900,-736,-92,618,-26,20,4,32767,32767,32767
133000,-737,-92,617,-26,21,4,32767,32767,32767
133100,-736,-92,617,-25,20,4,32767,32767,32767
133200,-738,-91,617,-26,20,4,32767,32767,32767
133310,-737,-92,618,-26,21,6,32767,32767,32767
133410,-736,-92,617,-25,19,4,32767,32767,32767
133500,-736,-92,617,-25,20,4,32767,32767,32767
133600,-737,-92,616,-25,20,4,32767,32767,32767
133700,-736,-93,616,-26,21,4,32767,32767,32767
133800,-736,-92,617,-25,20,4,32767,32767,32767
133900,-736,-92,616,-25,21,4,32767,32767,32767
134000,-738,-92,616,-25,20,6,32767,32767,32767
134100,-737,-92,616,-25,20,4,32767,32767,32767
134200,-736,-93,617,-26,20,4,32767,32767,32767
134300,-737,-92,618,-26,20,4,32767,32767,32767
134400,-737,-93,618,-25,20,4,32767,32767,32767
134500,-737,-92,618,-26,20,4,32767,32767,32767
134600,-737,-91,617,-25,20,4,32767,32767,32767
134710,-737,-92,616,-26,21,4,32767,32767,32767
134800,-737,-93,618,-26,20,4,32767,32767,32767
134900,-736,-92,616,-26,20,4,32767,32767,32767
135000,-737,-92,616,-25,20,4,32767,32767,32767
135100,-737,-92,617,-26,20,4,32767,32767,32767
135200,-737,-93,619,-26,20,4,32767,32767,32767
135300,-737,-92,618,-25,20,4,32767,32767,32767
135400,-732,-90,615,-25,20,2,32767,32767,32767
135500,-736,-92,617,-25,18,4,32767,32767,32767
135600,-736,-93,618,-26,20,4,32767,32767,32767
135700,-736,-92,617,-26,20,4,32767,32767,32767
135800,-736,-93,617,-26,20,4,32767,32767,32767
135900,-736,-92,617,-26,19,4,32767,32767,32767
136010,-736,-92,617,-26,20,4,32767,32767,32767
