time_boot_ms,press_abs,press_diff,temperature
200,1007.0401000976562,-1.5738562778712878e+31,3468
380,1007.03564453125,-1.5738562778712878e+31,3467
400,1007.0556030273438,-1.5738562778712878e+31,3469
430,1007.0188598632812,-1.5738562778712878e+31,3467
480,1007.0305786132812,-1.5738562778712878e+31,3468
500,1007.0438842773438,-1.5738562778712878e+31,3468
1380,1007.0469360351562,-1.5738562778712878e+31,3468
1400,1007.0575561523438,-1.5738562778712878e+31,3468
1440,1007.0682373046875,-1.5738562778712878e+31,3468
1480,1007.0538330078125,-1.5738562778712878e+31,3468
1500,1007.0538330078125,-1.5738562778712878e+31,3468
2380,1007.0489501953125,-1.5738562778712878e+31,3467
2400,1007.0394287109375,-1.5738562778712878e+31,3467
2440,1007.0606689453125,-1.5738562778712878e+31,3468
2490,1007.063720703125,-1.5738562778712878e+31,3467
2510,1007.0682373046875,-1.5738562778712878e+31,3468
3390,1007.0835571289062,-1.5738562778712878e+31,3467
3410,1007.0570678710938,-1.5738562778712878e+31,3465
3440,1007.0657348632812,-1.5738562778712878e+31,3466
3490,1007.0509643554688,-1.5738562778712878e+31,3466
3510,1007.0433959960938,-1.5738562778712878e+31,3465
4390,1007.0916748046875,-1.5738562778712878e+31,3465
4410,1007.0892944335938,-1.5738562778712878e+31,3466
4440,1007.0718383789062,-1.5738562778712878e+31,3466
4490,1007.0964965820312,-1.5738562778712878e+31,3466
4510,1007.0494995117188,-1.5738562778712878e+31,3465
5390,1007.0447998046875,-1.5738562778712878e+31,3466
5420,1007.0228271484375,-1.5738562778712878e+31,3465
5450,1007.0673217773438,-1.5738562778712878e+31,3465
5500,1007.0581665039062,-1.5738562778712878e+31,3466
5520,1007.0797729492188,-1.5738562778712878e+31,3467
6400,1007.080810546875,-1.5738562778712878e+31,3467
6430,1007.0862426757812,-1.5738562778712878e+31,3466
6460,1007.0574340820312,-1.5738562778712878e+31,3465
6500,1007.0623168945312,-1.5738562778712878e+31,3466
6520,1007.0770263671875,-1.5738562778712878e+31,3467
7400,1007.0804443359375,-1.5738562778712878e+31,3467
7450,1007.0619506835938,-1.5738562778712878e+31,3466
7710,1007.0660400390625,-1.5738562778712878e+31,3467
7870,1007.06640625,-1.5738562778712878e+31,3467
7900,1007.0322265625,-1.5738562778712878e+31,3467
8400,1007.1010131835938,-1.5738562778712878e+31,3467
8430,1007.0736083984375,-1.5738562778712878e+31,3467
8460,1007.0407104492188,-1.5738562778712878e+31,3466
8510,1007.0869750976562,-1.5738562778712878e+31,3467
8540,1007.0869750976562,-1.5738562778712878e+31,3467
9410,1007.091796875,-1.5738562778712878e+31,3468
9440,1007.0900268554688,-1.5738562778712878e+31,3467
9470,1007.1017456054688,-1.5738562778712878e+31,3468
9510,1007.055419921875,-1.5738562778712878e+31,3466
9540,1007.0858764648438,-1.5738562778712878e+31,3466
10410,1007.063720703125,-1.5738562778712878e+31,3467
10440,1007.0442504882812,-1.5738562778712878e+31,3468
10470,1007.063720703125,-1.5738562778712878e+31,3467
10520,1007.0647583007812,-1.5738562778712878e+31,3468
10550,1007.0599365234375,-1.5738562778712878e+31,3467
11420,1007.0617065429688,-1.5738562778712878e+31,3468
11460,1007.0435180664062,-1.5738562778712878e+31,3468
11470,1007.08837890625,-1.5738562778712878e+31,3468
11520,1007.0575561523438,-1.5738562778712878e+31,3468
11550,1007.0507202148438,-1.5738562778712878e+31,3468
12420,1007.0863647460938,-1.5738562778712878e+31,3469
12450,1007.0726928710938,-1.5738562778712878e+31,3469
12470,1007.0719604492188,-1.5738562778712878e+31,3468
12520,1007.0973510742188,-1.5738562778712878e+31,3469
12550,1007.078857421875,-1.5738562778712878e+31,3468
13430,1007.103515625,-1.5738562778712878e+31,3469
13460,1007.0651245117188,-1.5738562778712878e+31,3468
13480,1007.0548706054688,-1.5738562778712878e+31,3468
13520,1007.056640625,-1.5738562778712878e+31,3470
13550,1007.0628051757812,-1.5738562778712878e+31,3469
14420,1007.067138671875,-1.5738562778712878e+31,3467
14450,1007.053466796875,-1.5738562778712878e+31,3467
14480,1007.084228515625,-1.5738562778712878e+31,3467
14530,1007.0801391601562,-1.5738562778712878e+31,3467
14550,1007.0732421875,-1.5738562778712878e+31,3467
15420,1007.04443359375,-1.5738562778712878e+31,3466
15450,1007.0473022460938,-1.5738562778712878e+31,3468
15480,1007.056884765625,-1.5738562778712878e+31,3467
15540,1007.046630859375,-1.5738562778712878e+31,3467
15550,1007.0192260742188,-1.5738562778712878e+31,3467
16440,1007.0291137695312,-1.5738562778712878e+31,3467
16450,1007.0408325195312,-1.5738562778712878e+31,3468
16490,1007.0613403320312,-1.5738562778712878e+31,3468
16540,1007.06103515625,-1.5738562778712878e+31,3468
16560,1007.02783203125,-1.5738562778712878e+31,3469
17440,1007.0552368164062,-1.5738562778712878e+31,3469
17450,1007.0316162109375,-1.5738562778712878e+31,3469
17490,1007.0179443359375,-1.5738562778712878e+31,3469
17540,1007.0213623046875,-1.5738562778712878e+31,3469
17560,1007.0361328125,-1.5738562778712878e+31,3470
18440,1007.029296875,-1.5738562778712878e+31,3470
18460,1007.0926513671875,-1.5738562778712878e+31,3471
18490,1007.074462890625,-1.5738562778712878e+31,3470
18540,1007.0611572265625,-1.5738562778712878e+31,3471
18560,1007.040283203125,-1.5738562778712878e+31,3470
19440,1007.047119140625,-1.5738562778712878e+31,3470
19460,1007.0375366210938,-1.5738562778712878e+31,3471
19500,1007.050537109375,-1.5738562778712878e+31,3470
19540,1007.05810546875,-1.5738562778712878e+31,3471
19560,1007.0553588867188,-1.5738562778712878e+31,3471
20440,1007.0299682617188,-1.5738562778712878e+31,3470
20460,1007.0598754882812,-1.5738562778712878e+31,3472
20500,1007.0611572265625,-1.5738562778712878e+31,3471
20550,1007.0238647460938,-1.5738562778712878e+31,3471
20570,1007.0299682617188,-1.5738562778712878e+31,3470
21450,1007.0272827148438,-1.5738562778712878e+31,3471
21470,1007.0478515625,-1.5738562778712878e+31,3471
21500,1007.0265502929688,-1.5738562778712878e+31,3470
21550,1007.0090942382812,-1.5738562778712878e+31,3470
21570,1007.0125122070312,-1.5738562778712878e+31,3470
22450,1007.007080078125,-1.5738562778712878e+31,3471
22470,1007.0420532226562,-1.5738562778712878e+31,3472
22500,1006.9745483398438,-1.5738562778712878e+31,3470
22550,1007.0074462890625,-1.5738562778712878e+31,3471
22570,1007.0078125,-1.5738562778712878e+31,3472
23450,1007.00439453125,-1.5738562778712878e+31,3472
23470,1007.0321044921875,-1.5738562778712878e+31,3472
23510,1007.0013427734375,-1.5738562778712878e+31,3472
23560,1007.0352172851562,-1.5738562778712878e+31,3472
23580,1007.0101928710938,-1.5738562778712878e+31,3471
24460,1007.0218505859375,-1.5738562778712878e+31,3472
24480,1007.0123291015625,-1.5738562778712878e+31,3472
24520,1007.0283813476562,-1.5738562778712878e+31,3472
24560,1007.0396728515625,-1.5738562778712878e+31,3472
24580,1007.0427856445312,-1.5738562778712878e+31,3472
25460,1007.0260009765625,-1.5738562778712878e+31,3472
25480,1007.0643920898438,-1.5738562778712878e+31,3473
25520,1007.0718994140625,-1.5738562778712878e+31,3473
25560,1007.0537109375,-1.5738562778712878e+31,3473
25580,1007.0537109375,-1.5738562778712878e+31,3473
26460,1007.0534057617188,-1.5738562778712878e+31,3472
26480,1007.0454711914062,-1.5738562778712878e+31,3472
26520,1007.0314331054688,-1.5738562778712878e+31,3471
26570,1007.0488891601562,-1.5738562778712878e+31,3472
26590,1007.094482421875,-1.5738562778712878e+31,3472
26610,1007.06494140625,-1.5738562778712878e+31,3471
27460,1007.0465087890625,-1.5738562778712878e+31,3472
27490,1007.0150146484375,-1.5738562778712878e+31,3472
27520,1007.0424194335938,-1.5738562778712878e+31,3472
27570,1007.0280151367188,-1.5738562778712878e+31,3471
27590,1007.0321044921875,-1.5738562778712878e+31,3472
28470,1007.0286865234375,-1.5738562778712878e+31,3472
28490,1006.99755859375,-1.5738562778712878e+31,3472
28520,1007.0321044921875,-1.5738562778712878e+31,3472
28570,1007.0568237304688,-1.5738562778712878e+31,3472
28590,1007.0430908203125,-1.5738562778712878e+31,3472
29470,1007.0465087890625,-1.5738562778712878e+31,3472
29490,1007.0640258789062,-1.5738562778712878e+31,3473
29530,1007.035888671875,-1.5738562778712878e+31,3472
29570,1007.03662109375,-1.5738562778712878e+31,3473
29600,1007.0571899414062,-1.5738562778712878e+31,3473
30470,1007.02978515625,-1.5738562778712878e+31,3473
30500,1007.0513916015625,-1.5738562778712878e+31,3473
30530,1007.054443359375,-1.5738562778712878e+31,3473
30580,1007.0380249023438,-1.5738562778712878e+31,3474
30600,1007.0750122070312,-1.5738562778712878e+31,3473
31480,1007.0411376953125,-1.5738562778712878e+31,3473
31500,1007.0167846679688,-1.5738562778712878e+31,3473
31540,1007.0171508789062,-1.5738562778712878e+31,3473
31580,1007.0506591796875,-1.5738562778712878e+31,3473
31600,1007.047607421875,-1.5738562778712878e+31,3473
32480,1007.0463256835938,-1.5738562778712878e+31,3475
32500,1007.002197265625,-1.5738562778712878e+31,3475
32540,1007.0326538085938,-1.5738562778712878e+31,3475
32580,1007.0048828125,-1.5738562778712878e+31,3474
32610,1007.00146484375,-1.5738562778712878e+31,3474
33480,1007.0059814453125,-1.5738562778712878e+31,3475
33510,1007.0388793945312,-1.5738562778712878e+31,3477
33540,1006.9949951171875,-1.5738562778712878e+31,3475
33590,1006.9991455078125,-1.5738562778712878e+31,3475
33610,1007.0313720703125,-1.5738562778712878e+31,3476
34490,1007.0313720703125,-1.5738562778712878e+31,3476
34510,1007.0422973632812,-1.5738562778712878e+31,3477
34550,1007.0717163085938,-1.5738562778712878e+31,3476
34590,1007.0477294921875,-1.5738562778712878e+31,3476
34610,1007.0648803710938,-1.5738562778712878e+31,3476
35490,1006.9933471679688,-1.5738562778712878e+31,3476
35510,1007.0361938476562,-1.5738562778712878e+31,3477
35550,1007.056396484375,-1.5738562778712878e+31,3477
35590,1007.051513671875,-1.5738562778712878e+31,3476
35630,1007.066650390625,-1.5738562778712878e+31,3477
36490,1007.0354614257812,-1.5738562778712878e+31,3477
36520,1007.0388793945312,-1.5738562778712878e+31,3477
36550,1007.076904296875,-1.5738562778712878e+31,3477
36600,1007.07080078125,-1.5738562778712878e+31,3477
36640,1007.0388793945312,-1.5738562778712878e+31,3477
37500,1007.0676879882812,-1.5738562778712878e+31,3478
37530,1007.0125732421875,-1.5738562778712878e+31,3477
37560,1007.0608520507812,-1.5738562778712878e+31,3478
37600,1007.0676879882812,-1.5738562778712878e+31,3478
37620,1007.0756225585938,-1.5738562778712878e+31,3478
38500,1007.0650024414062,-1.5738562778712878e+31,3478
38530,1007.0441284179688,-1.5738562778712878e+31,3478
38560,1007.0790405273438,-1.5738562778712878e+31,3478
38600,1007.0479125976562,-1.5738562778712878e+31,3478
38630,1007.0489501953125,-1.5738562778712878e+31,3479
39500,1007.06298828125,-1.5738562778712878e+31,3479
39540,1007.0441284179688,-1.5738562778712878e+31,3478
39560,1007.0626220703125,-1.5738562778712878e+31,3479
39610,1007.0592041015625,-1.5738562778712878e+31,3479
39640,1007.0595703125,-1.5738562778712878e+31,3479
40510,1007.0685424804688,-1.5738562778712878e+31,3481
40540,1007.077392578125,-1.5738562778712878e+31,3480
40570,1007.0393676757812,-1.5738562778712878e+31,3479
40610,1007.0712890625,-1.5738562778712878e+31,3480
40640,1007.0617065429688,-1.5738562778712878e+31,3481
41520,1007.044921875,-1.5738562778712878e+31,3481
41550,1007.0480346679688,-1.5738562778712878e+31,3481
41570,1007.0411987304688,-1.5738562778712878e+31,3481
41620,1007.0617065429688,-1.5738562778712878e+31,3481
41650,1007.0154418945312,-1.5738562778712878e+31,3479
42080,1007.0518188476562,-1.5738562778712878e+31,3481
42100,1007.044921875,-1.5738562778712878e+31,3481
42140,1007.0730590820312,-1.5738562778712878e+31,3481
42180,1007.045654296875,-1.5738562778712878e+31,3481
42200,1007.0590209960938,-1.5738562778712878e+31,3481
43210,1007.0672607421875,-1.5738562778712878e+31,3482
43350,1007.0467529296875,-1.5738562778712878e+31,3482
43580,1007.0740966796875,-1.5738562778712878e+31,3482
44050,1007.0501708984375,-1.5738562778712878e+31,3482
44500,1007.0686645507812,-1.5738562778712878e+31,3483
44960,1007.0405883789062,-1.5738562778712878e+31,3483
45410,1007.0477905273438,-1.5738562778712878e+31,3483
45440,1007.0481567382812,-1.5738562778712878e+31,3483
45460,1007.0546264648438,-1.5738562778712878e+31,3483
45480,1007.0576782226562,-1.5738562778712878e+31,3483
45490,1007.0576782226562,-1.5738562778712878e+31,3483
45500,1007.0611572265625,-1.5738562778712878e+31,3483
45510,1007.0611572265625,-1.5738562778712878e+31,3483
45640,1007.0447387695312,-1.5738562778712878e+31,3483
45660,1007.0697631835938,-1.5738562778712878e+31,3484
45700,1007.0477905273438,-1.5738562778712878e+31,3483
45740,1007.0512084960938,-1.5738562778712878e+31,3483
45760,1007.0512084960938,-1.5738562778712878e+31,3483
46640,1007.0211181640625,-1.5738562778712878e+31,3483
46670,1007.054443359375,-1.5738562778712878e+31,3485
46700,1007.0537109375,-1.5738562778712878e+31,3485
46750,1007.0259399414062,-1.5738562778712878e+31,3484
46770,1007.05029296875,-1.5738562778712878e+31,3485
47650,1007.06884765625,-1.5738562778712878e+31,3486
47670,1007.0509643554688,-1.5738562778712878e+31,3485
47700,1007.0592651367188,-1.5738562778712878e+31,3486
47750,1007.0400390625,-1.5738562778712878e+31,3485
47770,1007.0482788085938,-1.5738562778712878e+31,3486
48650,1007.0661010742188,-1.5738562778712878e+31,3486
48670,1007.0733032226562,-1.5738562778712878e+31,3486
48700,1007.0634155273438,-1.5738562778712878e+31,3487
48750,1007.0547485351562,-1.5738562778712878e+31,3485
48770,1007.0664672851562,-1.5738562778712878e+31,3486
49650,1007.028076171875,-1.5738562778712878e+31,3486
49680,1007.0572509765625,-1.5738562778712878e+31,3487
49710,1007.0531005859375,-1.5738562778712878e+31,3487
49760,1007.0695190429688,-1.5738562778712878e+31,3486
49780,1007.0531005859375,-1.5738562778712878e+31,3487
50660,1007.064453125,-1.5738562778712878e+31,3487
50680,1007.0689697265625,-1.5738562778712878e+31,3488
50720,1007.0545654296875,-1.5738562778712878e+31,3488
50760,1007.0195922851562,-1.5738562778712878e+31,3487
50780,1007.076171875,-1.5738562778712878e+31,3488
51160,1007.0844116210938,-1.5738562778712878e+31,3489
52040,1007.04345703125,-1.5738562778712878e+31,3485
52060,1007.05712890625,-1.5738562778712878e+31,3485
52100,1007.0513305664062,-1.5738562778712878e+31,3485
52150,1007.0581665039062,-1.5738562778712878e+31,3485
52170,1007.10302734375,-1.5738562778712878e+31,3486
53040,1007.0509643554688,-1.5738562778712878e+31,3485
53070,1007.0585327148438,-1.5738562778712878e+31,3486
53100,1007.0331420898438,-1.5738562778712878e+31,3485
53150,1007.0400390625,-1.5738562778712878e+31,3485
53170,1007.0403442382812,-1.5738562778712878e+31,3485
54050,1007.0516967773438,-1.5738562778712878e+31,3486
54070,1007.0711669921875,-1.5738562778712878e+31,3485
54100,1007.0677490234375,-1.5738562778712878e+31,3485
54150,1007.0650634765625,-1.5738562778712878e+31,3485
54170,1007.0499267578125,-1.5738562778712878e+31,3484
55050,1007.078369140625,-1.5738562778712878e+31,3485
55070,1007.0574951171875,-1.5738562778712878e+31,3485
55110,1007.0472412109375,-1.5738562778712878e+31,3485
55150,1007.05029296875,-1.5738562778712878e+31,3485
55170,1007.0362548828125,-1.5738562778712878e+31,3484
56050,1007.032470703125,-1.5738562778712878e+31,3484
56080,1007.03173828125,-1.5738562778712878e+31,3484
56110,1007.0423583984375,-1.5738562778712878e+31,3484
56160,1007.0821533203125,-1.5738562778712878e+31,3485
56180,1007.085205078125,-1.5738562778712878e+31,3485
57060,1007.0479125976562,-1.5738562778712878e+31,3485
57080,1007.0365600585938,-1.5738562778712878e+31,3485
57120,1007.0506591796875,-1.5738562778712878e+31,3485
57160,1007.0475463867188,-1.5738562778712878e+31,3485
57180,1007.0444946289062,-1.5738562778712878e+31,3485
58060,1007.0760498046875,-1.5738562778712878e+31,3486
58080,1007.0626831054688,-1.5738562778712878e+31,3486
58120,1007.0623168945312,-1.5738562778712878e+31,3486
58160,1007.07568359375,-1.5738562778712878e+31,3486
58180,1007.06884765625,-1.5738562778712878e+31,3486
59060,1007.0538330078125,-1.5738562778712878e+31,3487
59090,1007.0706176757812,-1.5738562778712878e+31,3487
59120,1007.0650634765625,-1.5738562778712878e+31,3485
59170,1007.0421142578125,-1.5738562778712878e+31,3486
59190,1007.0599975585938,-1.5738562778712878e+31,3487
60070,1007.0562133789062,-1.5738562778712878e+31,3486
60090,1007.0520629882812,-1.5738562778712878e+31,3486
60130,1007.04931640625,-1.5738562778712878e+31,3486
60170,1007.0572509765625,-1.5738562778712878e+31,3487
60190,1007.0442504882812,-1.5738562778712878e+31,3488
61070,1007.0068359375,-1.5738562778712878e+31,3485
61090,1007.021240234375,-1.5738562778712878e+31,3486
61130,1007.0346069335938,-1.5738562778712878e+31,3486
61170,1007.0322265625,-1.5738562778712878e+31,3486
61190,1007.0565185546875,-1.5738562778712878e+31,3487
62070,1007.0360107421875,-1.5738562778712878e+31,3487
62090,1007.0448608398438,-1.5738562778712878e+31,3486
62130,1007.0490112304688,-1.5738562778712878e+31,3486
62180,1007.0376586914062,-1.5738562778712878e+31,3485
62200,1007.0596313476562,-1.5738562778712878e+31,3486
63080,1007.0918579101562,-1.5738562778712878e+31,3487
63100,1007.0599975585938,-1.5738562778712878e+31,3487
63130,1007.0767211914062,-1.5738562778712878e+31,3486
63180,1007.0390625,-1.5738562778712878e+31,3486
63200,1007.0352783203125,-1.5738562778712878e+31,3486
64080,1007.0675048828125,-1.5738562778712878e+31,3487
64100,1007.0706176757812,-1.5738562778712878e+31,3487
64140,1007.0767211914062,-1.5738562778712878e+31,3486
64180,1007.054443359375,-1.5738562778712878e+31,3485
64200,1007.054443359375,-1.5738562778712878e+31,3485
65080,1007.0408325195312,-1.5738562778712878e+31,3488
65100,1007.0565185546875,-1.5738562778712878e+31,3487
65140,1007.0668334960938,-1.5738562778712878e+31,3487
65190,1007.0490112304688,-1.5738562778712878e+31,3486
65210,1007.0455932617188,-1.5738562778712878e+31,3486
66090,1007.0630493164062,-1.5738562778712878e+31,3486
66110,1007.05419921875,-1.5738562778712878e+31,3487
66140,1007.0778198242188,-1.5738562778712878e+31,3487
66190,1007.0527954101562,-1.5738562778712878e+31,3486
66210,1007.06787109375,-1.5738562778712878e+31,3487
67090,1007.0343627929688,-1.5738562778712878e+31,3488
67110,1007.0161743164062,-1.5738562778712878e+31,3487
67150,1007.050048828125,-1.5738562778712878e+31,3487
67190,1007.0325927734375,-1.5738562778712878e+31,3487
67220,1007.0360107421875,-1.5738562778712878e+31,3487
68090,1007.0325927734375,-1.5738562778712878e+31,3487
68120,1007.0439453125,-1.5738562778712878e+31,3487
68150,1007.02880859375,-1.5738562778712878e+31,3486
68200,1007.0360107421875,-1.5738562778712878e+31,3487
68220,1007.0226440429688,-1.5738562778712878e+31,3487
69100,1007.0439453125,-1.5738562778712878e+31,3487
69120,1007.0426025390625,-1.5738562778712878e+31,3489
69150,1007.05419921875,-1.5738562778712878e+31,3487
69200,1007.0556030273438,-1.5738562778712878e+31,3488
69230,1007.0628051757812,-1.5738562778712878e+31,3489
70100,1007.0491333007812,-1.5738562778712878e+31,3489
70130,1007.0730590820312,-1.5738562778712878e+31,3489
70160,1007.0548706054688,-1.5738562778712878e+31,3488
70200,1007.050537109375,-1.5738562778712878e+31,3490
70220,1007.0487670898438,-1.5738562778712878e+31,3488
71100,1007.0669555664062,-1.5738562778712878e+31,3489
71130,1007.0404663085938,-1.5738562778712878e+31,3487
71160,1007.0411987304688,-1.5738562778712878e+31,3488
71210,1007.0206909179688,-1.5738562778712878e+31,3488
71230,1007.0453491210938,-1.5738562778712878e+31,3488
72110,1007.0391845703125,-1.5738562778712878e+31,3489
72130,1007.0134887695312,-1.5738562778712878e+31,3488
72160,1007.0271606445312,-1.5738562778712878e+31,3488
72210,1007.0552368164062,-1.5738562778712878e+31,3488
72230,1007.0514526367188,-1.5738562778712878e+31,3488
73110,1007.1026000976562,-1.5738562778712878e+31,3490
73130,1007.0559692382812,-1.5738562778712878e+31,3489
73170,1007.097412109375,-1.5738562778712878e+31,3489
73220,1007.0192260742188,-1.5738562778712878e+31,3487
73240,1007.0309448242188,-1.5738562778712878e+31,3488
74120,1007.0604248046875,-1.5738562778712878e+31,3489
74140,1007.0604248046875,-1.5738562778712878e+31,3489
74170,1007.0404663085938,-1.5738562778712878e+31,3487
74220,1007.0673217773438,-1.5738562778712878e+31,3489
74240,1007.0741577148438,-1.5738562778712878e+31,3489
75120,1007.1058959960938,-1.5738562778712878e+31,3488
75140,1007.0744018554688,-1.5738562778712878e+31,3487
75170,1007.046630859375,-1.5738562778712878e+31,3487
75360,1007.0914916992188,-1.5738562778712878e+31,3487
75380,1007.0767211914062,-1.5738562778712878e+31,3486
75390,1007.0767211914062,-1.5738562778712878e+31,3486
76120,1007.0441284179688,-1.5738562778712878e+31,3485
76140,1007.0383911132812,-1.5738562778712878e+31,3486
76180,1007.0797729492188,-1.5738562778712878e+31,3486
76220,1007.0661010742188,-1.5738562778712878e+31,3486
76250,1007.0352783203125,-1.5738562778712878e+31,3486
76270,1007.0616455078125,-1.5738562778712878e+31,3485
77120,1007.0161743164062,-1.5738562778712878e+31,3487
77150,1007.0494384765625,-1.5738562778712878e+31,3489
77180,1007.0408325195312,-1.5738562778712878e+31,3488
77230,1007.0614013671875,-1.5738562778712878e+31,3488
77250,1007.0614013671875,-1.5738562778712878e+31,3488
78130,1007.0653076171875,-1.5738562778712878e+31,3490
78150,1007.0800170898438,-1.5738562778712878e+31,3491
78180,1007.0800170898438,-1.5738562778712878e+31,3491
78230,1007.0714111328125,-1.5738562778712878e+31,3490
78250,1007.08203125,-1.5738562778712878e+31,3490
79130,1007.0553588867188,-1.5738562778712878e+31,3491
79150,1007.0800170898438,-1.5738562778712878e+31,3491
79190,1007.0625610351562,-1.5738562778712878e+31,3491
79230,1007.0348510742188,-1.5738562778712878e+31,3491
79280,1007.0344848632812,-1.5738562778712878e+31,3490
80130,1007.060791015625,-1.5738562778712878e+31,3490
80160,1007.060791015625,-1.5738562778712878e+31,3490
80190,1007.067626953125,-1.5738562778712878e+31,3490
80240,1007.0509033203125,-1.5738562778712878e+31,3490
80260,1007.0523071289062,-1.5738562778712878e+31,3491
81140,1007.0697631835938,-1.5738562778712878e+31,3491
81160,1007.0560913085938,-1.5738562778712878e+31,3491
81190,1007.0330810546875,-1.5738562778712878e+31,3489
81240,1007.0899658203125,-1.5738562778712878e+31,3491
81260,1007.0674438476562,-1.5738562778712878e+31,3492
82140,1007.0582275390625,-1.5738562778712878e+31,3493
82170,1007.0654296875,-1.5738562778712878e+31,3493
82200,1007.03662109375,-1.5738562778712878e+31,3492
82250,1007.0335083007812,-1.5738562778712878e+31,3492
82270,1007.0533447265625,-1.5738562778712878e+31,3492
83140,1007.06884765625,-1.5738562778712878e+31,3493
83170,1007.0516967773438,-1.5738562778712878e+31,3493
83200,1007.0081787109375,-1.5738562778712878e+31,3491
83250,1007.015380859375,-1.5738562778712878e+31,3491
83270,1007.02978515625,-1.5738562778712878e+31,3492
84150,1007.03662109375,-1.5738562778712878e+31,3492
84170,1007.0150146484375,-1.5738562778712878e+31,3491
84200,1007.054443359375,-1.5738562778712878e+31,3492
84250,1007.0274047851562,-1.5738562778712878e+31,3493
84270,1007.015380859375,-1.5738562778712878e+31,3491
85150,1006.9702758789062,-1.5738562778712878e+31,3493
85170,1007.0185546875,-1.5738562778712878e+31,3494
85210,1007.0048217773438,-1.5738562778712878e+31,3494
85260,1007.004150390625,-1.5738562778712878e+31,3493
85280,1007.0158081054688,-1.5738562778712878e+31,3494
86150,1007.0181884765625,-1.5738562778712878e+31,3493
86180,1007.02197265625,-1.5738562778712878e+31,3494
86220,1007.0079345703125,-1.5738562778712878e+31,3493
86260,1007.01025390625,-1.5738562778712878e+31,3493
86280,1007.02978515625,-1.5738562778712878e+31,3492
87160,1007.02978515625,-1.5738562778712878e+31,3492
87180,1007.00439453125,-1.5738562778712878e+31,3491
87220,1007.0218505859375,-1.5738562778712878e+31,3491
87260,1007.0092163085938,-1.5738562778712878e+31,3492
87280,1007.0020141601562,-1.5738562778712878e+31,3492
88160,1007.0362548828125,-1.5738562778712878e+31,3492
88180,1007.0009765625,-1.5738562778712878e+31,3491
88220,1007.0272827148438,-1.5738562778712878e+31,3490
88260,1007.0413208007812,-1.5738562778712878e+31,3490
88290,1007.0382690429688,-1.5738562778712878e+31,3491
89160,1007.0294189453125,-1.5738562778712878e+31,3492
89190,1007.0218505859375,-1.5738562778712878e+31,3491
89220,1007.0260009765625,-1.5738562778712878e+31,3492
89270,1007.032470703125,-1.5738562778712878e+31,3491
89290,1007.0198364257812,-1.5738562778712878e+31,3492
90170,1007.0228881835938,-1.5738562778712878e+31,3492
90190,1007.0232543945312,-1.5738562778712878e+31,3492
90230,1007.0184326171875,-1.5738562778712878e+31,3491
90270,1007.0372924804688,-1.5738562778712878e+31,3492
90290,1007.0205688476562,-1.5738562778712878e+31,3493
91170,1007.0099487304688,-1.5738562778712878e+31,3492
91190,1007.0113525390625,-1.5738562778712878e+31,3493
91230,1006.9927978515625,-1.5738562778712878e+31,3492
91270,1007.0315551757812,-1.5738562778712878e+31,3493
91300,1007.014404296875,-1.5738562778712878e+31,3493
91320,1007.0158081054688,-1.5738562778712878e+31,3494
92180,1007.0216064453125,-1.5738562778712878e+31,3493
92200,1007.05078125,-1.5738562778712878e+31,3495
92230,1007.0284423828125,-1.5738562778712878e+31,3493
92280,1007.0493774414062,-1.5738562778712878e+31,3494
92300,1007.0702514648438,-1.5738562778712878e+31,3494
93180,1007.0322265625,-1.5738562778712878e+31,3494
93200,1007.0439453125,-1.5738562778712878e+31,3495
93230,1007.046630859375,-1.5738562778712878e+31,3494
93280,1007.046630859375,-1.5738562778712878e+31,3494
93300,1007.0383911132812,-1.5738562778712878e+31,3493
94180,1007.025390625,-1.5738562778712878e+31,3494
94200,1007.0339965820312,-1.5738562778712878e+31,3495
94240,1007.0185546875,-1.5738562778712878e+31,3494
94280,1007.0453491210938,-1.5738562778712878e+31,3496
94300,1007.0154418945312,-1.5738562778712878e+31,3494
95180,1007.0192260742188,-1.5738562778712878e+31,3494
95210,1007.0120239257812,-1.5738562778712878e+31,3494
95240,1007.0055541992188,-1.5738562778712878e+31,3494
95290,1006.9767456054688,-1.5738562778712878e+31,3493
95310,1006.9767456054688,-1.5738562778712878e+31,3493
96190,1007.0103759765625,-1.5738562778712878e+31,3495
96210,1007.0556030273438,-1.5738562778712878e+31,3496
96240,1007.05078125,-1.5738562778712878e+31,3495
96290,1007.061767578125,-1.5738562778712878e+31,3495
96320,1007.0504150390625,-1.5738562778712878e+31,3494
97190,1007.082275390625,-1.5738562778712878e+31,3495
97220,1007.0394287109375,-1.5738562778712878e+31,3494
97250,1007.0271606445312,-1.5738562778712878e+31,3495
97300,1007.0154418945312,-1.5738562778712878e+31,3494
97320,1007.0291748046875,-1.5738562778712878e+31,3494
98190,1007.0415649414062,-1.5738562778712878e+31,3495
98220,1007.0055541992188,-1.5738562778712878e+31,3494
98250,1007.0089721679688,-1.5738562778712878e+31,3494
98300,1007.0055541992188,-1.5738562778712878e+31,3494
98320,1007.0161743164062,-1.5738562778712878e+31,3494
99190,1007.02099609375,-1.5738562778712878e+31,3495
99220,1007.0097045898438,-1.5738562778712878e+31,3495
99250,1006.9873657226562,-1.5738562778712878e+31,3493
99300,1007.003173828125,-1.5738562778712878e+31,3495
99330,1006.9959716796875,-1.5738562778712878e+31,3495
99350,1006.9949340820312,-1.5738562778712878e+31,3494
100200,1007.0387573242188,-1.5738562778712878e+31,3493
100220,1007.0243530273438,-1.5738562778712878e+31,3493
100250,1007.0099487304688,-1.5738562778712878e+31,3492
100300,1007.0106201171875,-1.5738562778712878e+31,3493
100320,1007.03662109375,-1.5738562778712878e+31,3492
101200,1006.9951782226562,-1.5738562778712878e+31,3492
101230,1007.035888671875,-1.5738562778712878e+31,3491
101260,1007.0067138671875,-1.5738562778712878e+31,3490
101310,1007.0218505859375,-1.5738562778712878e+31,3491
101330,1007.0300903320312,-1.5738562778712878e+31,3492
102200,1007.036376953125,-1.5738562778712878e+31,3494
102230,1007.0520629882812,-1.5738562778712878e+31,3493
102260,1007.0325927734375,-1.5738562778712878e+31,3494
102310,1007.02197265625,-1.5738562778712878e+31,3494
102330,1007.03564453125,-1.5738562778712878e+31,3494
103210,1007.0370483398438,-1.5738562778712878e+31,3495
103230,1007.0439453125,-1.5738562778712878e+31,3495
103260,1007.0415649414062,-1.5738562778712878e+31,3495
103320,1007.04052734375,-1.5738562778712878e+31,3495
103330,1006.9979858398438,-1.5738562778712878e+31,3494
104220,1007.0308227539062,-1.5738562778712878e+31,3493
104240,1007.0079345703125,-1.5738562778712878e+31,3493
104270,1007.010986328125,-1.5738562778712878e+31,3493
104320,1007.0585327148438,-1.5738562778712878e+31,3493
104340,1007.0428466796875,-1.5738562778712878e+31,3494
105220,1007.0274047851562,-1.5738562778712878e+31,3493
105240,1006.982177734375,-1.5738562778712878e+31,3492
105270,1007.0582275390625,-1.5738562778712878e+31,3493
105320,1007.0383911132812,-1.5738562778712878e+31,3493
105340,1007.0479125976562,-1.5738562778712878e+31,3493
106220,1007.0435791015625,-1.5738562778712878e+31,3494
106240,1007.0428466796875,-1.5738562778712878e+31,3494
106270,1007.0086059570312,-1.5738562778712878e+31,3494
106320,1007.039794921875,-1.5738562778712878e+31,3494
106340,1007.0367431640625,-1.5738562778712878e+31,3494
107220,1007.0097045898438,-1.5738562778712878e+31,3495
107240,1007.0477294921875,-1.5738562778712878e+31,3495
107280,1007.0186767578125,-1.5738562778712878e+31,3496
107330,1007.0059204101562,-1.5738562778712878e+31,3494
107350,1007.0419311523438,-1.5738562778712878e+31,3496
107370,1007.006591796875,-1.5738562778712878e+31,3495
108230,1007.025146484375,-1.5738562778712878e+31,3496
108250,1007.025146484375,-1.5738562778712878e+31,3496
108280,1007.0281982421875,-1.5738562778712878e+31,3496
108330,1007.0309448242188,-1.5738562778712878e+31,3495
108350,1007.0001220703125,-1.5738562778712878e+31,3495
109230,1006.982666015625,-1.5738562778712878e+31,3495
109250,1007.0152587890625,-1.5738562778712878e+31,3496
109290,1007.0433349609375,-1.5738562778712878e+31,3497
109330,1007.0117797851562,-1.5738562778712878e+31,3496
109350,1007.0193481445312,-1.5738562778712878e+31,3497
110230,1006.982666015625,-1.5738562778712878e+31,3495
110260,1006.9871215820312,-1.5738562778712878e+31,3496
110290,1007.02099609375,-1.5738562778712878e+31,3495
110340,1007.0333862304688,-1.5738562778712878e+31,3497
110360,1007.0220947265625,-1.5738562778712878e+31,3496
111240,1007.03955078125,-1.5738562778712878e+31,3496
111260,1007.0303344726562,-1.5738562778712878e+31,3497
111290,1007.0491333007812,-1.5738562778712878e+31,3496
111340,1007.029296875,-1.5738562778712878e+31,3496
111360,1007.029296875,-1.5738562778712878e+31,3496
112240,1007.0227661132812,-1.5738562778712878e+31,3497
112260,1007.0333862304688,-1.5738562778712878e+31,3497
112300,1007.0350952148438,-1.5738562778712878e+31,3496
112340,1007.0316162109375,-1.5738562778712878e+31,3496
112360,1007.0521850585938,-1.5738562778712878e+31,3496
113240,1006.9950561523438,-1.5738562778712878e+31,3496
113260,1007.0330810546875,-1.5738562778712878e+31,3497
113300,1007.0197143554688,-1.5738562778712878e+31,3497
113350,1007.0197143554688,-1.5738562778712878e+31,3497
113370,1007.0197143554688,-1.5738562778712878e+31,3497
114250,1007.0269165039062,-1.5738562778712878e+31,3497
114270,1007.0307006835938,-1.5738562778712878e+31,3497
114300,1007.0279541015625,-1.5738562778712878e+31,3498
114350,1007.0032958984375,-1.5738562778712878e+31,3497
114380,1007.0416870117188,-1.5738562778712878e+31,3498
114400,1007.0276489257812,-1.5738562778712878e+31,3498
115250,1007.0170288085938,-1.5738562778712878e+31,3497
115270,1007.0132446289062,-1.5738562778712878e+31,3497
115310,1006.9912719726562,-1.5738562778712878e+31,3496
115350,1007.01123046875,-1.5738562778712878e+31,3498
115370,1007.0009155273438,-1.5738562778712878e+31,3498
116250,1007.032470703125,-1.5738562778712878e+31,3499
116270,1007.0032958984375,-1.5738562778712878e+31,3497
116310,1007.03173828125,-1.5738562778712878e+31,3498
116360,1007.0191040039062,-1.5738562778712878e+31,3499
116380,1007.0252685546875,-1.5738562778712878e+31,3498
117250,1007.0399169921875,-1.5738562778712878e+31,3497
117280,1007.0234985351562,-1.5738562778712878e+31,3497
117310,1007.0361328125,-1.5738562778712878e+31,3496
117360,1007.0467529296875,-1.5738562778712878e+31,3497
117380,1007.0494995117188,-1.5738562778712878e+31,3496
118260,1007.061767578125,-1.5738562778712878e+31,3495
118280,1007.04052734375,-1.5738562778712878e+31,3495
118320,1007.0134887695312,-1.5738562778712878e+31,3495
118360,1007.0199584960938,-1.5738562778712878e+31,3495
118380,1007.0199584960938,-1.5738562778712878e+31,3495
119260,1007.02587890625,-1.5738562778712878e+31,3496
119280,1007.0162963867188,-1.5738562778712878e+31,3497
119320,1007.03271484375,-1.5738562778712878e+31,3496
119360,1007.029296875,-1.5738562778712878e+31,3496
119390,1007.0433349609375,-1.5738562778712878e+31,3497
120260,1007.013916015625,-1.5738562778712878e+31,3498
120290,1007.0283203125,-1.5738562778712878e+31,3498
120320,1007.0211181640625,-1.5738562778712878e+31,3498
120370,1007.017333984375,-1.5738562778712878e+31,3498
120390,1007.0564575195312,-1.5738562778712878e+31,3499
121270,1007.0420532226562,-1.5738562778712878e+31,3498
121290,1007.0142822265625,-1.5738562778712878e+31,3498
121320,1007.024169921875,-1.5738562778712878e+31,3498
121370,1007.0515747070312,-1.5738562778712878e+31,3498
121390,1007.01806640625,-1.5738562778712878e+31,3498
122270,1007.0728149414062,-1.5738562778712878e+31,3498
122290,1007.0355224609375,-1.5738562778712878e+31,3498
122330,1007.0492553710938,-1.5738562778712878e+31,3498
122380,1007.0078125,-1.5738562778712878e+31,3498
122400,1007.0204467773438,-1.5738562778712878e+31,3497
123270,1007.0310668945312,-1.5738562778712878e+31,3498
123290,1007.0184326171875,-1.5738562778712878e+31,3498
123330,1007.0457763671875,-1.5738562778712878e+31,3498
123380,1007.0238647460938,-1.5738562778712878e+31,3497
123400,1007.0252685546875,-1.5738562778712878e+31,3498
124280,1007.0545654296875,-1.5738562778712878e+31,3495
124300,1007.0634155273438,-1.5738562778712878e+31,3494
124330,1007.04248046875,-1.5738562778712878e+31,3494
124380,1007.0527954101562,-1.5738562778712878e+31,3494
124400,1007.0455932617188,-1.5738562778712878e+31,3493
125280,1007.0338745117188,-1.5738562778712878e+31,3492
125300,1007.0493774414062,-1.5738562778712878e+31,3494
125340,1007.013671875,-1.5738562778712878e+31,3493
125380,1007.0459594726562,-1.5738562778712878e+31,3494
125410,1007.0459594726562,-1.5738562778712878e+31,3494
126280,1007.0037841796875,-1.5738562778712878e+31,3493
126310,1007.0562133789062,-1.5738562778712878e+31,3494
126340,1007.0630493164062,-1.5738562778712878e+31,3494
126390,1007.04248046875,-1.5738562778712878e+31,3494
126410,1007.0493774414062,-1.5738562778712878e+31,3494
127290,1007.056884765625,-1.5738562778712878e+31,3494
127310,1007.0469970703125,-1.5738562778712878e+31,3494
127340,1007.0243530273438,-1.5738562778712878e+31,3493
127390,1007.046630859375,-1.5738562778712878e+31,3494
127410,1007.0360107421875,-1.5738562778712878e+31,3494
128290,1007.0576171875,-1.5738562778712878e+31,3495
128320,1007.032958984375,-1.5738562778712878e+31,3494
128350,1007.064453125,-1.5738562778712878e+31,3495
128390,1007.050048828125,-1.5738562778712878e+31,3494
128420,1007.0538330078125,-1.5738562778712878e+31,3494
129290,1007.064208984375,-1.5738562778712878e+31,3497
129320,1007.0590209960938,-1.5738562778712878e+31,3496
129350,1007.0559692382812,-1.5738562778712878e+31,3496
129400,1007.0525512695312,-1.5738562778712878e+31,3496
129420,1007.0415649414062,-1.5738562778712878e+31,3495
130300,1007.06494140625,-1.5738562778712878e+31,3497
130320,1007.0186767578125,-1.5738562778712878e+31,3496
130350,1007.0261840820312,-1.5738562778712878e+31,3497
130400,1007.0189819335938,-1.5738562778712878e+31,3496
130420,1007.040283203125,-1.5738562778712878e+31,3497
131300,1007.0656127929688,-1.5738562778712878e+31,3498
131320,1007.0629272460938,-1.5738562778712878e+31,3498
131360,1007.0474853515625,-1.5738562778712878e+31,3497
131400,1007.0515747070312,-1.5738562778712878e+31,3498
131420,1007.0265502929688,-1.5738562778712878e+31,3497
132300,1007.0701293945312,-1.5738562778712878e+31,3499
132330,1007.0451049804688,-1.5738562778712878e+31,3498
132360,1007.0941162109375,-1.5738562778712878e+31,3499
132410,1007.0564575195312,-1.5738562778712878e+31,3499
132430,1007.0745849609375,-1.5738562778712878e+31,3499
133310,1007.057861328125,-1.5738562778712878e+31,3500
133330,1007.1019897460938,-1.5738562778712878e+31,3499
133360,1007.0803833007812,-1.5738562778712878e+31,3499
133410,1007.0667114257812,-1.5738562778712878e+31,3499
133430,1007.0564575195312,-1.5738562778712878e+31,3499
134310,1007.0872192382812,-1.5738562778712878e+31,3499
134330,1007.0947875976562,-1.5738562778712878e+31,3499
134370,1007.0848999023438,-1.5738562778712878e+31,3499
134420,1007.0776977539062,-1.5738562778712878e+31,3499
134430,1007.0776977539062,-1.5738562778712878e+31,3499
135320,1007.0656127929688,-1.5738562778712878e+31,3498
135340,1007.0731811523438,-1.5738562778712878e+31,3498
135370,1007.0711669921875,-1.5738562778712878e+31,3499
135420,1007.0803833007812,-1.5738562778712878e+31,3499
135440,1007.0811157226562,-1.5738562778712878e+31,3499
136320,1007.0852661132812,-1.5738562778712878e+31,3500
136340,1007.0636596679688,-1.5738562778712878e+31,3499
136370,1007.0684814453125,-1.5738562778712878e+31,3500
136420,1007.0650634765625,-1.5738562778712878e+31,3500
136440,1007.08935546875,-1.5738562778712878e+31,3500
137320,1007.0753173828125,-1.5738562778712878e+31,3500
137340,1007.081787109375,-1.5738562778712878e+31,3500
137380,1007.06396484375,-1.5738562778712878e+31,3499
137430,1007.0684814453125,-1.5738562778712878e+31,3500
137450,1007.0828857421875,-1.5738562778712878e+31,3501
138330,1007.0661010742188,-1.5738562778712878e+31,3501
138340,1007.0863037109375,-1.5738562778712878e+31,3501
138380,1007.0736694335938,-1.5738562778712878e+31,3501
138430,1007.0562133789062,-1.5738562778712878e+31,3501
138450,1007.0513305664062,-1.5738562778712878e+31,3500
139330,1007.0335083007812,-1.5738562778712878e+31,3499
139350,1007.0455322265625,-1.5738562778712878e+31,3501
139380,1007.0668334960938,-1.5738562778712878e+31,3501
139430,1007.0386962890625,-1.5738562778712878e+31,3501
139450,1007.0684814453125,-1.5738562778712878e+31,3500
140330,1007.0760498046875,-1.5738562778712878e+31,3501
140350,1007.0760498046875,-1.5738562778712878e+31,3501
140390,1007.0931396484375,-1.5738562778712878e+31,3501
140430,1007.08251953125,-1.5738562778712878e+31,3500
140450,1007.0863037109375,-1.5738562778712878e+31,3501
141330,1007.0702514648438,-1.5738562778712878e+31,3501
141360,1007.0376586914062,-1.5738562778712878e+31,3500
141390,1007.0623168945312,-1.5738562778712878e+31,3501
141440,1007.04248046875,-1.5738562778712878e+31,3501
141460,1007.04248046875,-1.5738562778712878e+31,3501
142340,1007.067138671875,-1.5738562778712878e+31,3502
142360,1007.0801391601562,-1.5738562778712878e+31,3501
142390,1007.03564453125,-1.5738562778712878e+31,3501
142440,1007.0588989257812,-1.5738562778712878e+31,3501
142460,1007.0562133789062,-1.5738562778712878e+31,3501
143340,1007.0291748046875,-1.5738562778712878e+31,3501
143360,1007.0576171875,-1.5738562778712878e+31,3502
143400,1007.0428466796875,-1.5738562778712878e+31,3501
143440,1007.0572509765625,-1.5738562778712878e+31,3502
143460,1007.0850219726562,-1.5738562778712878e+31,3502
144340,1007.039794921875,-1.5738562778712878e+31,3502
144360,1007.021240234375,-1.5738562778712878e+31,3501
144400,1007.0462646484375,-1.5738562778712878e+31,3501
144450,1007.0599365234375,-1.5738562778712878e+31,3501
144470,1007.0267944335938,-1.5738562778712878e+31,3502
145350,1007.0294799804688,-1.5738562778712878e+31,3502
145370,1007.0199584960938,-1.5738562778712878e+31,3502
145400,1007.0332641601562,-1.5738562778712878e+31,3502
145450,1007.095947265625,-1.5738562778712878e+31,3503
145470,1007.0404663085938,-1.5738562778712878e+31,3502
146350,1007.082275390625,-1.5738562778712878e+31,3503
146370,1007.0308837890625,-1.5738562778712878e+31,3503
146410,1007.0761108398438,-1.5738562778712878e+31,3503
146450,1007.0582885742188,-1.5738562778712878e+31,3503
146470,1007.0716552734375,-1.5738562778712878e+31,3502
147350,1007.0374145507812,-1.5738562778712878e+31,3502
147370,1007.0305786132812,-1.5738562778712878e+31,3502
147410,1007.0103759765625,-1.5738562778712878e+31,3503
147460,1007.01416015625,-1.5738562778712878e+31,3503
147480,1007.0593872070312,-1.5738562778712878e+31,3503
148360,1007.0339965820312,-1.5738562778712878e+31,3502
148380,1007.0343627929688,-1.5738562778712878e+31,3503
148420,1007.0384521484375,-1.5738562778712878e+31,3503
148460,1007.043212890625,-1.5738562778712878e+31,3502
148480,1007.0240478515625,-1.5738562778712878e+31,3503
149360,1007.0274658203125,-1.5738562778712878e+31,3503
149380,1007.013427734375,-1.5738562778712878e+31,3502
149420,1006.9990234375,-1.5738562778712878e+31,3502
149460,1007.0370483398438,-1.5738562778712878e+31,3502
149480,1007.00244140625,-1.5738562778712878e+31,3502
150360,1007.0328979492188,-1.5738562778712878e+31,3502
150380,1007.01025390625,-1.5738562778712878e+31,3500
150420,1007.0068359375,-1.5738562778712878e+31,3500
150470,1007.0308227539062,-1.5738562778712878e+31,3500
150490,1007.025390625,-1.5738562778712878e+31,3501
151370,1007.039306640625,-1.5738562778712878e+31,3499
151390,1007.0533447265625,-1.5738562778712878e+31,3499
151420,1007.0526733398438,-1.5738562778712878e+31,3498
151470,1007.03857421875,-1.5738562778712878e+31,3498
151490,1007.0506591796875,-1.5738562778712878e+31,3499
152370,1007.0448608398438,-1.5738562778712878e+31,3500
152390,1007.0016479492188,-1.5738562778712878e+31,3499
152430,1007.0239868164062,-1.5738562778712878e+31,3500
152470,1007.0208740234375,-1.5738562778712878e+31,3500
152490,1007.01025390625,-1.5738562778712878e+31,3500
153370,1007.028076171875,-1.5738562778712878e+31,3501
153400,1007.024658203125,-1.5738562778712878e+31,3501
153430,1007.01025390625,-1.5738562778712878e+31,3500
153480,1007.0256958007812,-1.5738562778712878e+31,3501
153500,1007.024658203125,-1.5738562778712878e+31,3501
154380,1007.05029296875,-1.5738562778712878e+31,3499
154400,1007.0693969726562,-1.5738562778712878e+31,3498
154430,1007.0742797851562,-1.5738562778712878e+31,3499
154480,1007.03515625,-1.5738562778712878e+31,3498
154500,1007.0344848632812,-1.5738562778712878e+31,3498
155380,1007.05029296875,-1.5738562778712878e+31,3499
155400,1007.0294189453125,-1.5738562778712878e+31,3499
155440,1006.9985961914062,-1.5738562778712878e+31,3499
155480,1007.0472412109375,-1.5738562778712878e+31,3499
155500,1007.0372924804688,-1.5738562778712878e+31,3500
156380,1007.0386962890625,-1.5738562778712878e+31,3501
156400,1006.9996337890625,-1.5738562778712878e+31,3500
156440,1007.0562133789062,-1.5738562778712878e+31,3501
156490,1007.0346069335938,-1.5738562778712878e+31,3500
156520,1007.0430908203125,-1.5738562778712878e+31,3499
156540,1007.0277099609375,-1.5738562778712878e+31,3500
157390,1007.0072021484375,-1.5738562778712878e+31,3500
157410,1006.9938354492188,-1.5738562778712878e+31,3501
157440,1007.0520629882812,-1.5738562778712878e+31,3501
157490,1007.0188598632812,-1.5738562778712878e+31,3501
157510,1007.0325927734375,-1.5738562778712878e+31,3501
158390,1007.0147705078125,-1.5738562778712878e+31,3501
158420,1007.0106201171875,-1.5738562778712878e+31,3500
158450,1007.0414428710938,-1.5738562778712878e+31,3500
158490,1007.0167846679688,-1.5738562778712878e+31,3500
158520,1007.0147705078125,-1.5738562778712878e+31,3501
159390,1006.9896240234375,-1.5738562778712878e+31,3497
159420,1006.95947265625,-1.5738562778712878e+31,3498
159450,1007.003662109375,-1.5738562778712878e+31,3498
159500,1007.003662109375,-1.5738562778712878e+31,3498
159520,1007.000244140625,-1.5738562778712878e+31,3498
160400,1007.0337524414062,-1.5738562778712878e+31,3497
160420,1007.0087280273438,-1.5738562778712878e+31,3496
160450,1006.9905395507812,-1.5738562778712878e+31,3496
160500,1007.0269165039062,-1.5738562778712878e+31,3497
160520,1007.0026245117188,-1.5738562778712878e+31,3497
161400,1007.0344848632812,-1.5738562778712878e+31,3498
161420,1007.013916015625,-1.5738562778712878e+31,3498
161460,1007.0060424804688,-1.5738562778712878e+31,3497
161500,1007.0211181640625,-1.5738562778712878e+31,3498
161530,1007.0101318359375,-1.5738562778712878e+31,3497
162400,1007.0239868164062,-1.5738562778712878e+31,3500
162430,1007.0044555664062,-1.5738562778712878e+31,3501
162460,1007.0250244140625,-1.5738562778712878e+31,3501
162510,1006.9931640625,-1.5738562778712878e+31,3500
162530,1007.01025390625,-1.5738562778712878e+31,3500
163410,1006.9918212890625,-1.5738562778712878e+31,3502
163430,1007.0216064453125,-1.5738562778712878e+31,3501
163460,1006.9945678710938,-1.5738562778712878e+31,3501
163510,1007.0216064453125,-1.5738562778712878e+31,3501
163530,1007.0082397460938,-1.5738562778712878e+31,3501
164410,1007.0017700195312,-1.5738562778712878e+31,3501
164430,1006.9877319335938,-1.5738562778712878e+31,3501
164470,1007.0089721679688,-1.5738562778712878e+31,3502
164520,1007.0182495117188,-1.5738562778712878e+31,3503
164540,1007.005859375,-1.5738562778712878e+31,3502
165420,1007.0069580078125,-1.5738562778712878e+31,3503
165440,1007.0343627929688,-1.5738562778712878e+31,3503
165470,1007.0165405273438,-1.5738562778712878e+31,3502
165520,1007.010009765625,-1.5738562778712878e+31,3502
165540,1007.0199584960938,-1.5738562778712878e+31,3502
166420,1006.9925537109375,-1.5738562778712878e+31,3502
166440,1007.017578125,-1.5738562778712878e+31,3503
166470,1007.0213623046875,-1.5738562778712878e+31,3503
166520,1006.9727172851562,-1.5738562778712878e+31,3503
166540,1007.0292358398438,-1.5738562778712878e+31,3504
167420,1007.025146484375,-1.5738562778712878e+31,3503
167440,1007.031982421875,-1.5738562778712878e+31,3503
167480,1007.0364379882812,-1.5738562778712878e+31,3504
167530,1007.035400390625,-1.5738562778712878e+31,3503
167540,1007.035400390625,-1.5738562778712878e+31,3503
168430,1007.0083618164062,-1.5738562778712878e+31,3504
168440,1007.065185546875,-1.5738562778712878e+31,3503
168480,1006.9898071289062,-1.5738562778712878e+31,3503
168530,1007.0223999023438,-1.5738562778712878e+31,3504
168550,1007.0292358398438,-1.5738562778712878e+31,3504
169430,1007.0001220703125,-1.5738562778712878e+31,3503
169450,1006.9966430664062,-1.5738562778712878e+31,3503
169480,1007.0028076171875,-1.5738562778712878e+31,3502
169530,1007.005859375,-1.5738562778712878e+31,3502
169550,1007.0069580078125,-1.5738562778712878e+31,3503
170430,1007.0120239257812,-1.5738562778712878e+31,3501
170450,1007.0291748046875,-1.5738562778712878e+31,3501
170490,1007.020263671875,-1.5738562778712878e+31,3502
170530,1007.0021362304688,-1.5738562778712878e+31,3502
170550,1007.0048217773438,-1.5738562778712878e+31,3501
171430,1007.0226440429688,-1.5738562778712878e+31,3502
171450,1007.0082397460938,-1.5738562778712878e+31,3501
171490,1006.9763793945312,-1.5738562778712878e+31,3500
171540,1007.0116577148438,-1.5738562778712878e+31,3501
171560,1007.0150756835938,-1.5738562778712878e+31,3501
172440,1007.0017700195312,-1.5738562778712878e+31,3501
172460,1007.0089721679688,-1.5738562778712878e+31,3502
172490,1007.0116577148438,-1.5738562778712878e+31,3501
172540,1007.023681640625,-1.5738562778712878e+31,3502
172560,1007.003173828125,-1.5738562778712878e+31,3502
173440,1007.0261840820312,-1.5738562778712878e+31,3504
173460,1007.0148315429688,-1.5738562778712878e+31,3503
173500,1007.0528564453125,-1.5738562778712878e+31,3504
173540,1007.0059814453125,-1.5738562778712878e+31,3504
173560,1007.0299682617188,-1.5738562778712878e+31,3504
174440,1007.0059814453125,-1.5738562778712878e+31,3504
174460,1007.01318359375,-1.5738562778712878e+31,3505
174500,1007.0261840820312,-1.5738562778712878e+31,3504
174550,1007.024169921875,-1.5738562778712878e+31,3505
174570,1007.0193481445312,-1.5738562778712878e+31,3504
175450,1007.0032958984375,-1.5738562778712878e+31,3505
175470,1007.0203857421875,-1.5738562778712878e+31,3505
175500,1007.0193481445312,-1.5738562778712878e+31,3504
175550,1006.99462890625,-1.5738562778712878e+31,3504
175570,1007.0197143554688,-1.5738562778712878e+31,3504
176450,1006.9998168945312,-1.5738562778712878e+31,3505
176470,1007.02001953125,-1.5738562778712878e+31,3505
176510,1006.998779296875,-1.5738562778712878e+31,3504
176550,1007.0197143554688,-1.5738562778712878e+31,3504
176570,1006.9943237304688,-1.5738562778712878e+31,3503
177450,1007.0501708984375,-1.5738562778712878e+31,3504
177470,1007.0481567382812,-1.5738562778712878e+31,3505
177510,1007.0371704101562,-1.5738562778712878e+31,3505
177560,1007.0580444335938,-1.5738562778712878e+31,3505
177580,1007.0364379882812,-1.5738562778712878e+31,3504
178460,1007.0416259765625,-1.5738562778712878e+31,3505
178480,1007.0142211914062,-1.5738562778712878e+31,3505
178520,1007.0382080078125,-1.5738562778712878e+31,3505
178560,1007.063232421875,-1.5738562778712878e+31,3506
178580,1007.063232421875,-1.5738562778712878e+31,3506
179460,1007.0148315429688,-1.5738562778712878e+31,3503
179480,1007.0326538085938,-1.5738562778712878e+31,3504
179520,1007.0137939453125,-1.5738562778712878e+31,3503
179560,1007.0487670898438,-1.5738562778712878e+31,3503
179580,1007.016845703125,-1.5738562778712878e+31,3502
180460,1007.01416015625,-1.5738562778712878e+31,3503
180480,1007.0220336914062,-1.5738562778712878e+31,3504
180520,1007.031982421875,-1.5738562778712878e+31,3503
180570,1007.03125,-1.5738562778712878e+31,3503
180590,1007.0148315429688,-1.5738562778712878e+31,3503
181470,1007.0491943359375,-1.5738562778712878e+31,3506
181490,1007.0341186523438,-1.5738562778712878e+31,3505
181530,1007.0087280273438,-1.5738562778712878e+31,3504
181570,1007.0321044921875,-1.5738562778712878e+31,3506
181590,1007.0553588867188,-1.5738562778712878e+31,3505
182470,1007.0012817382812,-1.5738562778712878e+31,3506
182490,1007.0180053710938,-1.5738562778712878e+31,3506
182530,1007.0059814453125,-1.5738562778712878e+31,3504
182570,1007.0067138671875,-1.5738562778712878e+31,3505
182590,1006.9940795898438,-1.5738562778712878e+31,3506
183560,1007.0321044921875,-1.5738562778712878e+31,3506
184130,1007.0187377929688,-1.5738562778712878e+31,3506
184360,1007.0324096679688,-1.5738562778712878e+31,3506
184810,1007.0515747070312,-1.5738562778712878e+31,3505
184990,1007.0399780273438,-1.5738562778712878e+31,3507
185000,1007.0399780273438,-1.5738562778712878e+31,3507
185010,1007.0416259765625,-1.5738562778712878e+31,3505
185020,1007.0416259765625,-1.5738562778712878e+31,3505
185040,1007.0321044921875,-1.5738562778712878e+31,3506
185060,1007.0389404296875,-1.5738562778712878e+31,3506
185480,1007.0293579101562,-1.5738562778712878e+31,3506
185500,1006.9913330078125,-1.5738562778712878e+31,3506
185540,1007.055419921875,-1.5738562778712878e+31,3508
185580,1007.0115356445312,-1.5738562778712878e+31,3506
185610,1007.026611328125,-1.5738562778712878e+31,3507
186490,1007.0471801757812,-1.5738562778712878e+31,3507
186510,1006.9998168945312,-1.5738562778712878e+31,3505
186540,1007.0245361328125,-1.5738562778712878e+31,3505
186590,1007.0574340820312,-1.5738562778712878e+31,3507
186620,1007.0300903320312,-1.5738562778712878e+31,3507
187490,1006.9851684570312,-1.5738562778712878e+31,3507
187510,1006.9957885742188,-1.5738562778712878e+31,3507
187550,1007.017333984375,-1.5738562778712878e+31,3505
187590,1007.0341796875,-1.5738562778712878e+31,3507
187620,1007.038330078125,-1.5738562778712878e+31,3508
188490,1007.0386962890625,-1.5738562778712878e+31,3508
188520,1007.0215454101562,-1.5738562778712878e+31,3508
188550,1007.03759765625,-1.5738562778712878e+31,3507
188590,1007.0369873046875,-1.5738562778712878e+31,3509
188620,1007.0499877929688,-1.5738562778712878e+31,3509
189500,1007.0363159179688,-1.5738562778712878e+31,3509
189520,1007.0447998046875,-1.5738562778712878e+31,3508
189560,1007.0397338867188,-1.5738562778712878e+31,3509
189600,1007.0401000976562,-1.5738562778712878e+31,3509
189630,1007.0291137695312,-1.5738562778712878e+31,3509
190500,1007.0139770507812,-1.5738562778712878e+31,3508
190520,1007.031494140625,-1.5738562778712878e+31,3508
190550,1007.0256958007812,-1.5738562778712878e+31,3509
190600,1007.0359497070312,-1.5738562778712878e+31,3509
190620,1007.0393676757812,-1.5738562778712878e+31,3509
191500,1007.03515625,-1.5738562778712878e+31,3506
191520,1007.0382080078125,-1.5738562778712878e+31,3505
191560,1007.0347900390625,-1.5738562778712878e+31,3505
191610,1007.0245361328125,-1.5738562778712878e+31,3505
191630,1007.0166015625,-1.5738562778712878e+31,3505
192500,1006.9857177734375,-1.5738562778712878e+31,3502
192530,1006.9993896484375,-1.5738562778712878e+31,3502
192560,1007.0195922851562,-1.5738562778712878e+31,3502
192610,1007.0343627929688,-1.5738562778712878e+31,3503
192630,1007.0062255859375,-1.5738562778712878e+31,3502
193510,1007.0233764648438,-1.5738562778712878e+31,3502
193530,1007.0294799804688,-1.5738562778712878e+31,3502
193560,1007.0165405273438,-1.5738562778712878e+31,3502
193620,1007.0123901367188,-1.5738562778712878e+31,3502
193640,1007.0184936523438,-1.5738562778712878e+31,3501
194520,1006.9968872070312,-1.5738562778712878e+31,3500
194540,1006.9968872070312,-1.5738562778712878e+31,3500
194570,1007.0044555664062,-1.5738562778712878e+31,3501
194620,1007.0158081054688,-1.5738562778712878e+31,3502
194640,1007.0165405273438,-1.5738562778712878e+31,3502
195520,1007.0244140625,-1.5738562778712878e+31,3503
195540,1007.0107421875,-1.5738562778712878e+31,3503
195570,1007.0083618164062,-1.5738562778712878e+31,3504
195620,1006.992919921875,-1.5738562778712878e+31,3502
195640,1006.992919921875,-1.5738562778712878e+31,3502
196520,1007.0193481445312,-1.5738562778712878e+31,3504
196540,1007.005615234375,-1.5738562778712878e+31,3504
196570,1006.985107421875,-1.5738562778712878e+31,3504
196620,1006.984375,-1.5738562778712878e+31,3504
196640,1007.0135498046875,-1.5738562778712878e+31,3505
197520,1007.0036010742188,-1.5738562778712878e+31,3505
197540,1007.0093994140625,-1.5738562778712878e+31,3504
197580,1006.9899291992188,-1.5738562778712878e+31,3505
197630,1007.0177001953125,-1.5738562778712878e+31,3505
197650,1007.024169921875,-1.5738562778712878e+31,3505
198530,1007.0345458984375,-1.5738562778712878e+31,3508
198550,1007.0372924804688,-1.5738562778712878e+31,3507
198580,1006.9957885742188,-1.5738562778712878e+31,3507
198630,1007.031494140625,-1.5738562778712878e+31,3508
198650,1007.0259399414062,-1.5738562778712878e+31,3506
199530,1007.0040893554688,-1.5738562778712878e+31,3508
199550,1007.0133056640625,-1.5738562778712878e+31,3507
199590,1007.0386962890625,-1.5738562778712878e+31,3508
199630,1006.9896850585938,-1.5738562778712878e+31,3507
199650,1007.0208740234375,-1.5738562778712878e+31,3508
200530,1007.0109252929688,-1.5738562778712878e+31,3508
200550,1007.048583984375,-1.5738562778712878e+31,3508
200590,1006.9903564453125,-1.5738562778712878e+31,3508
200630,1007.0355834960938,-1.5738562778712878e+31,3508
200650,1007.0147094726562,-1.5738562778712878e+31,3508
201530,1007.0081787109375,-1.5738562778712878e+31,3508
201550,1007.0191650390625,-1.5738562778712878e+31,3509
201590,1007.0157470703125,-1.5738562778712878e+31,3509
201640,1007.011962890625,-1.5738562778712878e+31,3509
201660,1007.0225830078125,-1.5738562778712878e+31,3509
202540,1007.0020751953125,-1.5738562778712878e+31,3509
202560,1007.0198974609375,-1.5738562778712878e+31,3509
202590,1007.0089111328125,-1.5738562778712878e+31,3509
202640,1007.0411376953125,-1.5738562778712878e+31,3510
202660,1007.020263671875,-1.5738562778712878e+31,3510
203540,1007.0285034179688,-1.5738562778712878e+31,3511
203560,1007.0178833007812,-1.5738562778712878e+31,3510
203600,1007.0000610351562,-1.5738562778712878e+31,3510
203640,1006.9924926757812,-1.5738562778712878e+31,3509
203660,1007.0000610351562,-1.5738562778712878e+31,3510
204540,1006.9808349609375,-1.5738562778712878e+31,3508
204560,1006.9794921875,-1.5738562778712878e+31,3510
204600,1006.9866943359375,-1.5738562778712878e+31,3510
204650,1007.0137329101562,-1.5738562778712878e+31,3510
204670,1006.9962768554688,-1.5738562778712878e+31,3510
205550,1006.9945068359375,-1.5738562778712878e+31,3508
205570,1006.9979248046875,-1.5738562778712878e+31,3508
205600,1006.9808349609375,-1.5738562778712878e+31,3508
205650,1007.0020751953125,-1.5738562778712878e+31,3509
205670,1007.005126953125,-1.5738562778712878e+31,3509
206550,1006.9957885742188,-1.5738562778712878e+31,3507
206570,1007.013671875,-1.5738562778712878e+31,3507
206610,1007.0067749023438,-1.5738562778712878e+31,3507
206650,1007.016357421875,-1.5738562778712878e+31,3507
206670,1007.0064697265625,-1.5738562778712878e+31,3507
207550,1006.9859008789062,-1.5738562778712878e+31,3507
207570,1007.0277099609375,-1.5738562778712878e+31,3508
207610,1007.0235595703125,-1.5738562778712878e+31,3507
207660,1007.0205078125,-1.5738562778712878e+31,3507
207680,1006.9965209960938,-1.5738562778712878e+31,3507
208560,1007.0150756835938,-1.5738562778712878e+31,3508
208580,1007.0147094726562,-1.5738562778712878e+31,3508
208620,1007.0157470703125,-1.5738562778712878e+31,3509
208660,1007.011962890625,-1.5738562778712878e+31,3509
208680,1007.02294921875,-1.5738562778712878e+31,3509
209560,1007.00927734375,-1.5738562778712878e+31,3509
209580,1006.9959106445312,-1.5738562778712878e+31,3509
209620,1007.02294921875,-1.5738562778712878e+31,3509
209660,1006.9932250976562,-1.5738562778712878e+31,3510
209680,1007.0308837890625,-1.5738562778712878e+31,3510
210560,1007.0319213867188,-1.5738562778712878e+31,3511
210580,1007.0281372070312,-1.5738562778712878e+31,3510
210620,1006.9736938476562,-1.5738562778712878e+31,3511
210670,1006.998046875,-1.5738562778712878e+31,3511
210690,1007.0178833007812,-1.5738562778712878e+31,3510
211570,1007.0018310546875,-1.5738562778712878e+31,3511
211590,1007.0182495117188,-1.5738562778712878e+31,3511
211620,1007.0326538085938,-1.5738562778712878e+31,3511
211670,1007.0120849609375,-1.5738562778712878e+31,3511
211690,1007.037109375,-1.5738562778712878e+31,3512
212570,1006.998046875,-1.5738562778712878e+31,3511
212590,1007.0062866210938,-1.5738562778712878e+31,3512
212630,1007.0223388671875,-1.5738562778712878e+31,3511
212670,1007.0025024414062,-1.5738562778712878e+31,3512
212690,1006.9994506835938,-1.5738562778712878e+31,3512
213570,1007.0134887695312,-1.5738562778712878e+31,3512
213590,1007.0254516601562,-1.5738562778712878e+31,3511
213630,1007.0275268554688,-1.5738562778712878e+31,3512
213680,1007.0271606445312,-1.5738562778712878e+31,3512
213700,1007.0450439453125,-1.5738562778712878e+31,3513
214570,1006.9974365234375,-1.5738562778712878e+31,3513
214600,1007.0100708007812,-1.5738562778712878e+31,3512
214630,1007.0008544921875,-1.5738562778712878e+31,3513
214680,1006.9754638671875,-1.5738562778712878e+31,3512
214700,1006.9796142578125,-1.5738562778712878e+31,3512
215580,1006.9960327148438,-1.5738562778712878e+31,3512
215600,1007.0138549804688,-1.5738562778712878e+31,3512
215640,1007.0032348632812,-1.5738562778712878e+31,3512
215680,1006.9727172851562,-1.5738562778712878e+31,3512
215700,1007.00732421875,-1.5738562778712878e+31,3513
216590,1007.0100708007812,-1.5738562778712878e+31,3512
216610,1007.00732421875,-1.5738562778712878e+31,3513
