time_boot_ms,q1,q2,q3,q4,rollspeed,pitchspeed,yawspeed
0,0.6078567504882812,-0.14148026704788208,0.6920673251152039,-0.3580072224140167,0.0,0.0,0.0
0,0.5905672311782837,-0.10765298455953598,0.6970497965812683,-0.3878088593482971,0.0,0.0,0.0
0,0.5719148516654968,-0.07357979565858841,0.7004002928733826,-0.4166194200515747,0.0,0.0,0.0
0,0.40781712532043457,0.16828961670398712,0.6758658289909363,-0.58753901720047,0.0,0.0,0.0
0,0.3805578649044037,0.201506569981575,0.6657860279083252,-0.6065744757652283,0.0,0.0,0.0
0,0.3521043062210083,0.2346145212650299,0.6542406678199768,-0.6241638660430908,0.0,0.0,0.0
0,0.3226412832736969,0.26716238260269165,0.6412366628646851,-0.6402930617332458,0.0,0.0,0.0
0,0.2924107313156128,0.29870864748954773,0.6266695857048035,-0.655123770236969,0.0,0.0,0.0
0,0.13073430955410004,0.44423630833625793,0.5314707159996033,-0.7069188952445984,0.0,0.0,0.0
0,0.09830352663993835,0.46988987922668457,0.5088747143745422,-0.7121932506561279,0.0,0.0,0.0
0,0.06597963720560074,0.49446356296539307,0.485571026802063,-0.7155461311340332,0.0,0.0,0.0
0,0.03325878828763962,0.5181616544723511,0.46123436093330383,-0.7171458005905151,0.0,0.0,0.0
0,-9.523577318759635e-05,0.5407847166061401,0.43556657433509827,-0.7172632813453674,0.0,0.0,0.0
0,-0.03748947009444237,0.5640743374824524,0.40571001172065735,-0.7158539295196533,0.0,0.0,0.0
0,-0.068260557949543,0.581764817237854,0.38011422753334045,-0.7134677171707153,0.0,0.0,0.0
0,-0.1024259552359581,0.6001261472702026,0.35084256529808044,-0.7091544270515442,0.0,0.0,0.0
0,-0.13629505038261414,0.6172392964363098,0.32109755277633667,-0.7028288245201111,0.0,0.0,0.0
0,-0.16923019289970398,0.6328765153884888,0.2912043333053589,-0.6947383880615234,0.0,0.0,0.0
0,-0.20060977339744568,0.6467893719673157,0.2611575126647949,-0.6854552626609802,0.0,0.0,0.0
0,-0.20060977339744568,0.6467893719673157,0.2611575126647949,-0.6854552626609802,0.0,0.0,0.0
0,-0.23069559037685394,0.6590740084648132,0.23088501393795013,-0.6750747561454773,0.0,0.0,0.0
0,-0.2634257674217224,0.6713614463806152,0.1964998096227646,-0.6617411971092224,0.0,0.0,0.0
0,-0.29354891180992126,0.6813955307006836,0.1640262007713318,-0.6475009322166443,0.0,0.0,0.0
0,-0.3240063488483429,0.6895644068717957,0.13104499876499176,-0.6316492557525635,0.0,0.0,0.0
0,-0.3543764352798462,0.6955516338348389,0.09840939193964005,-0.6144701242446899,0.0,0.0,0.0
0,-0.38387632369995117,0.6998177170753479,0.06561412662267685,-0.5960049033164978,0.0,0.0,0.0
0,-0.5133985877037048,0.6996948719024658,-0.10007541626691818,-0.48318418860435486,0.0,0.0,0.0
0,-0.5357887148857117,0.6946657299995422,-0.1330348253250122,-0.4574982821941376,0.0,0.0,0.0
0,-0.5570204854011536,0.6883613467216492,-0.16601932048797607,-0.4300670623779297,0.0,0.0,0.0
0,-0.577297031879425,0.680472731590271,-0.19845637679100037,-0.40116482973098755,0.0,0.0,0.0
0,-0.596696674823761,0.670624315738678,-0.23037168383598328,-0.3711847960948944,0.0,0.0,0.0
0,-0.614986002445221,0.6587738990783691,-0.261922687292099,-0.3403506875038147,0.0,0.0,0.0
0,-0.6316519975662231,0.6453473567962646,-0.29290664196014404,-0.3088386356830597,0.0,0.0,0.0
0,-0.6464902758598328,0.6305172443389893,-0.32324549555778503,-0.2768458127975464,0.0,0.0,0.0
0,-0.6592566967010498,0.6146386861801147,-0.35268381237983704,-0.24463671445846558,0.0,0.0,0.0
0,-0.6701740622520447,0.5976510643959045,-0.38102176785469055,-0.21245077252388,0.0,0.0,0.0
0,-0.6794117093086243,0.5795152187347412,-0.4081012010574341,-0.18068858981132507,0.0,0.0,0.0
0,-0.6870101690292358,0.5603559613227844,-0.4339178800582886,-0.14955389499664307,0.0,0.0,0.0
0,-0.6927939057350159,0.5402654409408569,-0.45887988805770874,-0.11921457946300507,0.0,0.0,0.0
0,-0.6966832876205444,0.5191606879234314,-0.4833376109600067,-0.09012367576360703,0.0,0.0,0.0
0,-0.6989567279815674,0.49719804525375366,-0.5068963170051575,-0.06278923898935318,0.0,0.0,0.0
0,-0.6996403336524963,0.4731734097003937,-0.5311364531517029,-0.03372760862112045,0.0,0.0,0.0
0,-0.6985964179039001,0.45207861065864563,-0.5515137314796448,-0.007305308245122433,0.0,0.0,0.0
0,-0.6939844489097595,0.4058668613433838,-0.5894924402236938,0.05281532183289528,0.0,0.0,0.0
0,-0.6909563541412354,0.37561124563217163,-0.6082568764686584,0.09028766304254532,0.0,0.0,0.0
0,-0.6848193407058716,0.3448548913002014,-0.6260978579521179,0.1293523907661438,0.0,0.0,0.0
0,-0.6759188175201416,0.3153166174888611,-0.6420516967773438,0.16766516864299774,0.0,0.0,0.0
0,-0.6658584475517273,0.28634336590766907,-0.6554361581802368,0.20414775609970093,0.0,0.0,0.0
0,-0.655487596988678,0.25677064061164856,-0.666657567024231,0.2379191815853119,0.0,0.0,0.0
0,-0.6444898247718811,0.22508354485034943,-0.676860511302948,0.2691896855831146,0.0,0.0,0.0
0,-0.6317880749702454,0.19150814414024353,-0.6865270733833313,0.29913529753685,0.0,0.0,0.0
0,-0.6170192360877991,0.15776358544826508,-0.6949465870857239,0.32875552773475647,0.0,0.0,0.0
0,-0.6003715991973877,0.12538547813892365,-0.7012627124786377,0.3587420880794525,0.0,0.0,0.0
0,-0.5817772150039673,0.09370478242635727,-0.705541729927063,0.38935625553131104,0.0,0.0,0.0
0,-0.5613073706626892,0.06058067828416824,-0.708061158657074,0.42017391324043274,0.0,0.0,0.0
0,-0.5389596223831177,0.02531677670776844,-0.7087950110435486,0.4506929814815521,0.0,0.0,0.0
0,-0.5158634185791016,-0.011270543560385704,-0.7070121169090271,0.4801296293735504,0.0,0.0,0.0
0,-0.4920801520347595,-0.04744626581668854,-0.7028303742408752,0.5082011222839355,0.0,0.0,0.0
0,-0.46818119287490845,-0.08183180540800095,-0.6971418261528015,0.5336067080497742,0.0,0.0,0.0
0,-0.4443840980529785,-0.11419706046581268,-0.6912124156951904,0.5552838444709778,0.0,0.0,0.0
0,-0.42071983218193054,-0.14601902663707733,-0.6853252053260803,0.5732675194740295,0.0,0.0,0.0
0,-0.3969101905822754,-0.17765477299690247,-0.6791149973869324,0.5885038375854492,0.0,0.0,0.0
0,-0.3729982078075409,-0.20844173431396484,-0.6713753342628479,0.6027539372444153,0.0,0.0,0.0
0,-0.3465447723865509,-0.2400534749031067,-0.6598598957061768,0.6192726492881775,0.0,0.0,0.0
0,-0.31495895981788635,-0.27374136447906494,-0.6446805000305176,0.6378764510154724,0.0,0.0,0.0
0,-0.2795443534851074,-0.30684763193130493,-0.6280753016471863,0.655632495880127,0.0,0.0,0.0
0,-0.24313540756702423,-0.33726879954338074,-0.61076819896698,0.6713643670082092,0.0,0.0,0.0
0,-0.20452021062374115,-0.36813756823539734,-0.5903066992759705,0.6861611008644104,0.0,0.0,0.0
0,-0.17061150074005127,-0.39648672938346863,-0.5700689554214478,0.6966664791107178,0.0,0.0,0.0
0,-0.13808543980121613,-0.42552971839904785,-0.5479023456573486,0.7044803500175476,0.0,0.0,0.0
0,-0.10688221454620361,-0.4533553123474121,-0.524665892124176,0.7102139592170715,0.0,0.0,0.0
0,-0.07662028819322586,-0.4785118103027344,-0.501319944858551,0.7144695520401001,0.0,0.0,0.0
0,-0.046242762356996536,-0.501664936542511,-0.47787609696388245,0.7172595262527466,0.0,0.0,0.0
0,-0.014445374719798565,-0.5245549082756042,-0.45401671528816223,0.7177291512489319,0.0,0.0,0.0
0,0.018462421372532845,-0.547088623046875,-0.42840519547462463,0.7165578603744507,0.0,0.0,0.0
0,0.051996320486068726,-0.5679500102996826,-0.40098828077316284,0.714542031288147,0.0,0.0,0.0
0,0.08617228269577026,-0.5866584777832031,-0.3718704283237457,0.7118648290634155,0.0,0.0,0.0
0,0.12093114107847214,-0.6040473580360413,-0.3415085971355438,0.7074652910232544,0.0,0.0,0.0
0,0.15555746853351593,-0.620611310005188,-0.3106793463230133,0.7005389332771301,0.0,0.0,0.0
0,0.18905676901340485,-0.635809063911438,-0.2796710729598999,0.6916800737380981,0.0,0.0,0.0
0,0.22106654942035675,-0.6491512060165405,-0.2487107217311859,0.6815484762191772,0.0,0.0,0.0
0,0.25169917941093445,-0.6606432199478149,-0.21706852316856384,0.6706058382987976,0.0,0.0,0.0
0,0.2816046178340912,-0.6710165739059448,-0.18468572199344635,0.6579965949058533,0.0,0.0,0.0
0,0.31111419200897217,-0.6802059412002563,-0.15168973803520203,0.6435455679893494,0.0,0.0,0.0
0,0.34018611907958984,-0.6877032518386841,-0.11879157274961472,0.6275821328163147,0.0,0.0,0.0
0,0.36853495240211487,-0.6933789849281311,-0.08641465753316879,0.6103875041007996,0.0,0.0,0.0
0,0.3958834111690521,-0.697349488735199,-0.05331339314579964,0.5922589302062988,0.0,0.0,0.0
0,0.42239299416542053,-0.7000987529754639,-0.01968245580792427,0.5724433064460754,0.0,0.0,0.0
0,0.4483727216720581,-0.7014350891113281,0.013846083544194698,0.5508102178573608,0.0,0.0,0.0
0,0.47418466210365295,-0.7010799050331116,0.047187212854623795,0.5272969007492065,0.0,0.0,0.0
0,0.49960920214653015,-0.6988531351089478,0.08043880015611649,0.502152681350708,0.0,0.0,0.0
0,0.5266849398612976,-0.69402015209198,0.11729438602924347,0.47308987379074097,0.0,0.0,0.0
0,0.550025463104248,-0.6875807642936707,0.1509644240140915,0.4455863833427429,0.0,0.0,0.0
0,0.5718903541564941,-0.6794350147247314,0.184270441532135,0.41711726784706116,0.0,0.0,0.0
0,0.5919332504272461,-0.6701616048812866,0.21664844453334808,0.38754963874816895,0.0,0.0,0.0
0,0.6100536584854126,-0.6594861149787903,0.24808895587921143,0.3577669858932495,0.0,0.0,0.0
0,0.6261187791824341,-0.6475708484649658,0.2789382040500641,0.3278011083602905,0.0,0.0,0.0
0,0.6404760479927063,-0.6341385841369629,0.30942004919052124,0.2975752055644989,0.0,0.0,0.0
0,0.6534304618835449,-0.619320809841156,0.339260458946228,0.2664690315723419,0.0,0.0,0.0
0,0.6651825904846191,-0.6030529737472534,0.3679634928703308,0.23472341895103455,0.0,0.0,0.0
0,0.6756800413131714,-0.5851696133613586,0.3955138623714447,0.20306363701820374,0.0,0.0,0.0
0,0.6843169331550598,-0.5661524534225464,0.422422856092453,0.17138786613941193,0.0,0.0,0.0
0,0.6911373138427734,-0.5457372665405273,0.4488806426525116,0.14013953506946564,0.0,0.0,0.0
0,0.6959363222122192,-0.5247077345848083,0.4745096266269684,0.10875599086284637,0.0,0.0,0.0
0,0.6992177367210388,-0.5035483241081238,0.49817290902137756,0.07739726454019547,0.0,0.0,0.0
0,0.7011314630508423,-0.4820650815963745,0.5201062560081482,0.04636959359049797,0.0,0.0,0.0
0,0.701481819152832,-0.45930832624435425,0.5416427850723267,0.014670065604150295,0.0,0.0,0.0
0,0.7014926075935364,-0.43278560042381287,0.562897801399231,-0.01958964206278324,0.0,0.0,0.0
0,0.6999093294143677,-0.4042458236217499,0.583257794380188,-0.05617418512701988,0.0,0.0,0.0
0,0.6956152319908142,-0.3730461001396179,0.6036131381988525,-0.0961269736289978,0.0,0.0,0.0
0,0.6897881627082825,-0.344783753156662,0.6203430891036987,-0.13085784018039703,0.0,0.0,0.0
0,0.6829962134361267,-0.3192864656448364,0.6342667937278748,-0.16096824407577515,0.0,0.0,0.0
0,0.6254128813743591,-0.15960480272769928,0.6906388401985168,-0.3209921419620514,0.0,0.0,0.0
0,0.6080418825149536,-0.12731651961803436,0.6974862813949585,-0.3524506092071533,0.0,0.0,0.0
0,0.5892829895019531,-0.09436467289924622,0.7019627690315247,-0.38434654474258423,0.0,0.0,0.0
0,0.571346640586853,-0.06179293245077133,0.7040787935256958,-0.4130987524986267,0.0,0.0,0.0
0,0.5540655255317688,-0.029432740062475204,0.7051027417182922,-0.4377306401729584,0.0,0.0,0.0
0,0.5346090793609619,0.004798529669642448,0.7058321833610535,-0.4610901176929474,0.0,0.0,0.0
0,0.5123071670532227,0.039379555732011795,0.7043187618255615,-0.48637300729751587,0.0,0.0,0.0
0,0.48691484332084656,0.07439202815294266,0.7007925510406494,-0.5127401351928711,0.0,0.0,0.0
0,0.45776116847991943,0.10891303420066833,0.6967392563819885,-0.5383123159408569,0.0,0.0,0.0
0,0.427212119102478,0.14287088811397552,0.6909372210502625,-0.5624200105667114,0.0,0.0,0.0
0,0.3965020775794983,0.17579106986522675,0.6826274991035461,-0.5852657556533813,0.0,0.0,0.0
0,0.36759352684020996,0.2079344242811203,0.6711947917938232,-0.6064394116401672,0.0,0.0,0.0
0,0.33973172307014465,0.24093590676784515,0.6574702858924866,-0.6252183318138123,0.0,0.0,0.0
0,0.310394287109375,0.2746661901473999,0.6433513760566711,-0.6410503387451172,0.0,0.0,0.0
0,0.2800489366054535,0.3073660433292389,0.6283155083656311,-0.6549437046051025,0.0,0.0,0.0
0,0.24894019961357117,0.33675646781921387,0.6128313541412354,-0.6676034927368164,0.0,0.0,0.0
0,0.2176762968301773,0.3640826344490051,0.5960755348205566,-0.6792552471160889,0.0,0.0,0.0
0,0.18560093641281128,0.39203470945358276,0.5774111151695251,-0.6892679929733276,0.0,0.0,0.0
0,0.15262356400489807,0.4211266040802002,0.556493878364563,-0.6973564028739929,0.0,0.0,0.0
0,0.11960872262716293,0.4493826627731323,0.5334632992744446,-0.7041298747062683,0.0,0.0,0.0
0,0.08659444749355316,0.47489601373672485,0.5096389055252075,-0.709842324256897,0.0,0.0,0.0
0,0.053119584918022156,0.49829986691474915,0.48547494411468506,-0.7140185236930847,0.0,0.0,0.0
0,0.018522311002016068,0.5214676260948181,0.46083149313926697,-0.715538740158081,0.0,0.0,0.0
0,0.018522311002016068,0.5214676260948181,0.46083149313926697,-0.715538740158081,0.0,0.0,0.0
0,-0.015989668667316437,0.5441383719444275,0.43504849076271057,-0.7148590087890625,0.0,0.0,0.0
0,-0.052677858620882034,0.5669976472854614,0.4050838351249695,-0.7129366397857666,0.0,0.0,0.0
0,-0.08516525477170944,0.5857042670249939,0.37636756896972656,-0.7104066610336304,0.0,0.0,0.0
0,-0.11765265464782715,0.6033492684364319,0.3465539813041687,-0.7061590552330017,0.0,0.0,0.0
0,-0.15066014230251312,0.6202723979949951,0.3163994252681732,-0.6993481516838074,0.0,0.0,0.0
0,-0.18388333916664124,0.6357824802398682,0.2862195372581482,-0.6904193162918091,0.0,0.0,0.0
0,-0.21667522192001343,0.6492506861686707,0.2558628022670746,-0.6802151203155518,0.0,0.0,0.0
0,-0.2486805021762848,0.6607214212417603,0.22446885704994202,-0.6692172288894653,0.0,0.0,0.0
0,-0.279891699552536,0.6708301901817322,0.19157816469669342,-0.6569459438323975,0.0,0.0,0.0
0,-0.3104385435581207,0.6798126697540283,0.1578810065984726,-0.6427979469299316,0.0,0.0,0.0
0,-0.3401115834712982,0.6873050332069397,0.12444911897182465,-0.6269619464874268,0.0,0.0,0.0
0,-0.36898863315582275,0.693180501461029,0.09172578155994415,-0.609563410282135,0.0,0.0,0.0
0,-0.39715903997421265,0.697500467300415,0.0588231161236763,-0.5907034277915955,0.0,0.0,0.0
0,-0.4247705340385437,0.7002098560333252,0.02511303499341011,-0.570331871509552,0.0,0.0,0.0
0,-0.4518216550350189,0.7009572386741638,-0.009177573025226593,-0.5486936569213867,0.0,0.0,0.0
0,-0.4780759811401367,0.69974684715271,-0.04329095780849457,-0.5258863568305969,0.0,0.0,0.0
0,-0.5030630230903625,0.6970359683036804,-0.07698117941617966,-0.5017721056938171,0.0,0.0,0.0
0,-0.526384711265564,0.6930675506591797,-0.11047423630952835,-0.4764503240585327,0.0,0.0,0.0
0,-0.5480799674987793,0.6877171397209167,-0.14363624155521393,-0.45017239451408386,0.0,0.0,0.0
0,-0.5684638619422913,0.6806806325912476,-0.17629262804985046,-0.4231741428375244,0.0,0.0,0.0
0,-0.5877434611320496,0.6718930602073669,-0.20848529040813446,-0.39532795548439026,0.0,0.0,0.0
0,-0.6059077382087708,0.6614994406700134,-0.24041152000427246,-0.3662368357181549,0.0,0.0,0.0
0,-0.6227042078971863,0.6496196389198303,-0.27199316024780273,-0.33598557114601135,0.0,0.0,0.0
0,-0.6380189061164856,0.6362911462783813,-0.3028012216091156,-0.3049750030040741,0.0,0.0,0.0
0,-0.6380189061164856,0.6362911462783813,-0.3028012216091156,-0.3049750030040741,0.0,0.0,0.0
0,-0.6518126726150513,0.6214502453804016,-0.332771360874176,-0.27356165647506714,0.0,0.0,0.0
0,-0.6640028357505798,0.6051803827285767,-0.3620080351829529,-0.24174366891384125,0.0,0.0,0.0
0,-0.6755378246307373,0.5858107805252075,-0.3932926058769226,-0.20598086714744568,0.0,0.0,0.0
0,-0.6844198703765869,0.566819965839386,-0.4207748472690582,-0.17281736433506012,0.0,0.0,0.0
0,-0.6917750835418701,0.5465030670166016,-0.4472106397151947,-0.13934601843357086,0.0,0.0,0.0
0,-0.6975952982902527,0.5248327255249023,-0.47259172797203064,-0.10583587735891342,0.0,0.0,0.0
0,-0.7017500996589661,0.5020145773887634,-0.4969380497932434,-0.07220517843961716,0.0,0.0,0.0
0,-0.7041884660720825,0.47811615467071533,-0.5202774405479431,-0.03831063583493233,0.0,0.0,0.0
0,-0.7050071358680725,0.4530755281448364,-0.5424990057945251,-0.0039174905978143215,0.0,0.0,0.0
0,-0.7043328881263733,0.426756888628006,-0.5634537935256958,0.030763404443860054,0.0,0.0,0.0
0,-0.7021068334579468,0.39917153120040894,-0.5831235647201538,0.06563398241996765,0.0,0.0,0.0
0,-0.6981680989265442,0.37043577432632446,-0.6015050411224365,0.1008119136095047,0.0,0.0,0.0
0,-0.6925259828567505,0.3408558666706085,-0.6183728575706482,0.13591447472572327,0.0,0.0,0.0
0,-0.6854402422904968,0.3109390437602997,-0.6334443092346191,0.1699114441871643,0.0,0.0,0.0
0,-0.6768729090690613,0.28044790029525757,-0.647141695022583,0.20256519317626953,0.0,0.0,0.0
0,-0.6661818027496338,0.24886949360370636,-0.6600510478019714,0.23501348495483398,0.0,0.0,0.0
0,-0.6537212133407593,0.21656589210033417,-0.6714199185371399,0.2675369679927826,0.0,0.0,0.0
0,-0.6389986872673035,0.18125376105308533,-0.6811774373054504,0.3024199903011322,0.0,0.0,0.0
0,-0.625995934009552,0.15191364288330078,-0.68757164478302,0.33004459738731384,0.0,0.0,0.0
0,-0.6097380518913269,0.11816009134054184,-0.6938461661338806,0.3598167896270752,0.0,0.0,0.0
0,-0.5915090441703796,0.08418069034814835,-0.6989609003067017,0.3887380361557007,0.0,0.0,0.0
0,-0.5316572189331055,-0.01554880104959011,-0.7033875584602356,0.4679505228996277,0.0,0.0,0.0
0,-0.5316572189331055,-0.01554880104959011,-0.7033875584602356,0.4679505228996277,0.0,0.0,0.0
0,-0.5088829398155212,-0.04955210164189339,-0.7020522952079773,0.49227848649024963,0.0,0.0,0.0
0,-0.5088829398155212,-0.04955210164189339,-0.7020522952079773,0.49227848649024963,0.0,0.0,0.0
0,-0.48481640219688416,-0.08341347426176071,-0.6988284587860107,0.516010582447052,0.0,0.0,0.0
0,-0.45701029896736145,-0.11987041682004929,-0.6930264234542847,0.5414055585861206,0.0,0.0,0.0
0,-0.4305322468280792,-0.15295575559139252,-0.6860297918319702,0.5632429718971252,0.0,0.0,0.0
0,-0.403076708316803,-0.1859203428030014,-0.6777462363243103,0.5833146572113037,0.0,0.0,0.0
0,-0.3750300109386444,-0.2180342972278595,-0.6681466698646545,0.6016865372657776,0.0,0.0,0.0
0,-0.34637439250946045,-0.24944747984409332,-0.6570145487785339,0.6186803579330444,0.0,0.0,0.0
0,-0.31677356362342834,-0.2805812358856201,-0.6443434953689575,0.6343366503715515,0.0,0.0,0.0
0,-0.2863839864730835,-0.31131207942962646,-0.630029022693634,0.6486642956733704,0.0,0.0,0.0
0,-0.254856139421463,-0.3415876626968384,-0.6140477061271667,0.6617737412452698,0.0,0.0,0.0
0,-0.22243261337280273,-0.3709830939769745,-0.5962957143783569,0.673765242099762,0.0,0.0,0.0
0,-0.1893223524093628,-0.3992839753627777,-0.5772426128387451,0.6842171549797058,0.0,0.0,0.0
0,-0.15563850104808807,-0.42679521441459656,-0.5569573640823364,0.6928592920303345,0.0,0.0,0.0
0,-0.12208951264619827,-0.4532780945301056,-0.5355953574180603,0.6995738744735718,0.0,0.0,0.0
0,-0.088966965675354,-0.4785280227661133,-0.5130971670150757,0.704599142074585,0.0,0.0,0.0
0,-0.0555056668817997,-0.50261390209198,-0.48937076330184937,0.7081296443939209,0.0,0.0,0.0
0,-0.021429728716611862,-0.5256898999214172,-0.46469366550445557,0.7098476886749268,0.0,0.0,0.0
0,0.013127566315233707,-0.5478156208992004,-0.4387665092945099,0.7098187208175659,0.0,0.0,0.0
0,0.11471563577651978,-0.6049880385398865,-0.3548562824726105,0.7010989189147949,0.0,0.0,0.0
0,0.14877817034721375,-0.6217995285987854,-0.3251384198665619,0.6943690776824951,0.0,0.0,0.0
0,0.18236850202083588,-0.6367400288581848,-0.29500627517700195,0.6862273812294006,0.0,0.0,0.0
0,0.27511313557624817,-0.6723935008049011,-0.20180648565292358,0.6542985439300537,0.0,0.0,0.0
0,0.30647012591362,-0.6827945709228516,-0.1662081927061081,0.6394335031509399,0.0,0.0,0.0
0,0.3342461585998535,-0.69025719165802,-0.13388381898403168,0.6249261498451233,0.0,0.0,0.0
0,0.3613651394844055,-0.6960181593894958,-0.10199137777090073,0.6092656254768372,0.0,0.0,0.0
0,0.38780567049980164,-0.7006574273109436,-0.0703529641032219,0.5919200778007507,0.0,0.0,0.0
0,0.4146294593811035,-0.7042037844657898,-0.037917912006378174,0.5721666216850281,0.0,0.0,0.0
0,0.4706342816352844,-0.7042675614356995,0.02974233217537403,0.5275025963783264,0.0,0.0,0.0
0,0.5191724300384521,-0.6988766193389893,0.09675303846597672,0.4788561463356018,0.0,0.0,0.0
0,0.5421600341796875,-0.6933887004852295,0.12955638766288757,0.45290470123291016,0.0,0.0,0.0
0,0.5638390779495239,-0.6863287091255188,0.16250859200954437,0.42574894428253174,0.0,0.0,0.0
0,0.584007740020752,-0.6777139902114868,0.1954994648694992,0.3975570499897003,0.0,0.0,0.0
0,0.6027095913887024,-0.6675713062286377,0.22764341533184052,0.3686477243900299,0.0,0.0,0.0
0,0.6199257969856262,-0.6559184193611145,0.25893568992614746,0.33918794989585876,0.0,0.0,0.0
0,0.6199257969856262,-0.6559184193611145,0.25893568992614746,0.33918794989585876,0.0,0.0,0.0
0,0.6355010271072388,-0.6427963972091675,0.28988194465637207,0.3091162443161011,0.0,0.0,0.0
0,0.6494914293289185,-0.6283237934112549,0.3201712965965271,0.2783760726451874,0.0,0.0,0.0
0,0.6631659269332886,-0.6108602285385132,0.3524218499660492,0.2439109981060028,0.0,0.0,0.0
0,0.6739944219589233,-0.5935641527175903,0.3808995187282562,0.21204175055027008,0.0,0.0,0.0
0,0.6833126544952393,-0.5748276710510254,0.4087006151676178,0.179592564702034,0.0,0.0,0.0
0,0.6911402940750122,-0.5547170639038086,0.4356052875518799,0.14661189913749695,0.0,0.0,0.0
0,0.6975054144859314,-0.5332172513008118,0.4614759087562561,0.11330711096525192,0.0,0.0,0.0
0,0.7023068070411682,-0.5104544162750244,0.4863077402114868,0.07961813360452652,0.0,0.0,0.0
0,0.7054217457771301,-0.48654186725616455,0.5101273655891418,0.04538954049348831,0.0,0.0,0.0
0,0.7069108486175537,-0.4614698886871338,0.5327638983726501,0.010873107239603996,0.0,0.0,0.0
0,0.7068957090377808,-0.43519511818885803,0.554055392742157,-0.023646289482712746,0.0,0.0,0.0
0,0.7052943110466003,-0.407814621925354,0.57403564453125,-0.057991981506347656,0.0,0.0,0.0
0,0.701948881149292,-0.3795405328273773,0.5927758812904358,-0.09201303869485855,0.0,0.0,0.0
0,0.6968122124671936,-0.35056403279304504,0.6102115511894226,-0.12582606077194214,0.0,0.0,0.0
0,0.6900703310966492,-0.32089176774024963,0.6261909604072571,-0.1592143326997757,0.0,0.0,0.0
0,0.6818166971206665,-0.29056066274642944,0.6406401991844177,-0.19212953746318817,0.0,0.0,0.0
0,0.6721388697624207,-0.25922566652297974,0.6536368131637573,-0.22455066442489624,0.0,0.0,0.0
0,0.6608033776283264,-0.22717154026031494,0.6651839017868042,-0.25670069456100464,0.0,0.0,0.0
0,0.6478831171989441,-0.19464963674545288,0.6751255989074707,-0.2884398400783539,0.0,0.0,0.0
0,0.6335744857788086,-0.16186834871768951,0.6833944320678711,-0.31935423612594604,0.0,0.0,0.0
0,0.617750883102417,-0.12858906388282776,0.6902580261230469,-0.3493214547634125,0.0,0.0,0.0
0,0.6003502607345581,-0.09497173130512238,0.6956843137741089,-0.3784390389919281,0.0,0.0,0.0
0,0.5815568566322327,-0.06130284070968628,0.6993893384933472,-0.40684279799461365,0.0,0.0,0.0
0,0.5614209175109863,-0.02753865346312523,0.701383113861084,-0.43444547057151794,0.0,0.0,0.0
0,0.5614209175109863,-0.02753865346312523,0.701383113861084,-0.43444547057151794,0.0,0.0,0.0
0,0.5399628281593323,0.006543539464473724,0.7017333507537842,-0.46108636260032654,0.0,0.0,0.0
0,0.5172378420829773,0.040643613785505295,0.7004613876342773,-0.48662081360816956,0.0,0.0,0.0
0,0.4911166727542877,0.07782036811113358,0.6970099806785583,-0.5133793354034424,0.0,0.0,0.0
0,0.4661935567855835,0.11141670495271683,0.6922488808631897,-0.5363528728485107,0.0,0.0,0.0
0,0.44004762172698975,0.1447519063949585,0.6861178874969482,-0.5579248070716858,0.0,0.0,0.0
0,0.4129425883293152,0.1776743084192276,0.6784225106239319,-0.5781746506690979,0.0,0.0,0.0
0,0.38492336869239807,0.21016709506511688,0.6691306829452515,-0.5971271395683289,0.0,0.0,0.0
0,0.3559334874153137,0.24230466783046722,0.6581322550773621,-0.6148940324783325,0.0,0.0,0.0
0,0.32590681314468384,0.2739814817905426,0.645504355430603,-0.6314079165458679,0.0,0.0,0.0
0,0.295033723115921,0.3050178289413452,0.6312803030014038,-0.6465580463409424,0.0,0.0,0.0
0,0.263407438993454,0.33536437153816223,0.6157665252685547,-0.6600089073181152,0.0,0.0,0.0
0,0.2312512844800949,0.3647971749305725,0.5988947153091431,-0.6718659400939941,0.0,0.0,0.0
0,0.1989395171403885,0.3932332694530487,0.5805999040603638,-0.6821489930152893,0.0,0.0,0.0
0,0.16634376347064972,0.42075270414352417,0.5610212087631226,-0.690785825252533,0.0,0.0,0.0
0,0.1333741545677185,0.44742122292518616,0.5401501655578613,-0.6977795958518982,0.0,0.0,0.0
0,0.09981530904769897,0.47315213084220886,0.5180779695510864,-0.703130304813385,0.0,0.0,0.0
0,0.06589704006910324,0.4976543188095093,0.4948066174983978,-0.7069634199142456,0.0,0.0,0.0
0,0.03188498318195343,0.5208568572998047,0.47042161226272583,-0.7092447280883789,0.0,0.0,0.0
0,-0.0019118372583761811,0.5428669452667236,0.44480177760124207,-0.7099831104278564,0.0,0.0,0.0
0,-0.0019118372583761811,0.5428669452667236,0.44480177760124207,-0.7099831104278564,0.0,0.0,0.0
0,-0.03552214056253433,0.5638009905815125,0.4182620346546173,-0.7089120149612427,0.0,0.0,0.0
0,-0.06901757419109344,0.5834477543830872,0.39097627997398376,-0.7061130404472351,0.0,0.0,0.0
0,-0.10240990668535233,0.6016747951507568,0.36290788650512695,-0.7017339468002319,0.0,0.0,0.0
0,-0.13548649847507477,0.6184580326080322,0.33394667506217957,-0.6958918571472168,0.0,0.0,0.0
0,-0.16803324222564697,0.6337864995002747,0.3040139377117157,-0.6886856555938721,0.0,0.0,0.0
0,-0.20020022988319397,0.6478676795959473,0.27338269352912903,-0.6797662973403931,0.0,0.0,0.0
0,-0.23556338250637054,0.6618459820747375,0.23901651799678802,-0.667812705039978,0.0,0.0,0.0
0,-0.2677229344844818,0.6728329658508301,0.2073563039302826,-0.6551766395568848,0.0,0.0,0.0
0,-0.29961901903152466,0.6819673180580139,0.17505429685115814,-0.6412003636360168,0.0,0.0,0.0
0,-0.3308295011520386,0.689429521560669,0.14208707213401794,-0.6258457899093628,0.0,0.0,0.0
0,-0.3610256314277649,0.6954647302627563,0.10871956497430801,-0.6089354157447815,0.0,0.0,0.0
0,-0.3900291919708252,0.6999814510345459,0.07522165775299072,-0.5906587839126587,0.0,0.0,0.0
0,-0.417888879776001,0.7029612064361572,0.04177077114582062,-0.5710538625717163,0.0,0.0,0.0
0,-0.4446803033351898,0.7043014168739319,0.008324052207171917,-0.5502567291259766,0.0,0.0,0.0
0,-0.4706202745437622,0.7039502263069153,-0.025290008634328842,-0.5281702876091003,0.0,0.0,0.0
0,-0.495710551738739,0.7019080519676208,-0.05900626629590988,-0.5047248005867004,0.0,0.0,0.0
0,-0.5197560787200928,0.6982341408729553,-0.09255265444517136,-0.479989230632782,0.0,0.0,0.0
0,-0.5425626635551453,0.6929497718811035,-0.12586696445941925,-0.45413288474082947,0.0,0.0,0.0
0,-0.5640560984611511,0.6860448718070984,-0.15894891321659088,-0.42726007103919983,0.0,0.0,0.0
0,-0.5842280387878418,0.6775713562965393,-0.19173254072666168,-0.3993071913719177,0.0,0.0,0.0
0,-0.6030957102775574,0.6674362421035767,-0.2240946739912033,-0.37043073773384094,0.0,0.0,0.0
0,-0.6205160617828369,0.6557678580284119,-0.2557581067085266,-0.3408064842224121,0.0,0.0,0.0
0,-0.6363234519958496,0.6426703929901123,-0.28671544790267944,-0.3106352984905243,0.0,0.0,0.0
0,-0.650496780872345,0.6281588673591614,-0.3171347379684448,-0.27987271547317505,0.0,0.0,0.0
0,-0.6630783677101135,0.6122586727142334,-0.34692031145095825,-0.24848651885986328,0.0,0.0,0.0
0,-0.6742945909500122,0.5948970913887024,-0.37583664059638977,-0.21634186804294586,0.0,0.0,0.0
0,-0.6841155290603638,0.576075553894043,-0.4038339853286743,-0.18350465595722198,0.0,0.0,0.0
0,-0.6924546957015991,0.5557023286819458,-0.43102163076400757,-0.1501820683479309,0.0,0.0,0.0
0,-0.6991037130355835,0.5340979695320129,-0.4572134017944336,-0.11654242873191833,0.0,0.0,0.0
0,-0.7040808200836182,0.5113470554351807,-0.48224422335624695,-0.0828726589679718,0.0,0.0,0.0
0,-0.7075320482254028,0.4851675033569336,-0.5084654688835144,-0.04589778184890747,0.0,0.0,0.0
0,-0.7089065909385681,0.4602833390235901,-0.5311039090156555,-0.012340176850557327,0.0,0.0,0.0
0,-0.7086917161941528,0.43431639671325684,-0.5525414347648621,0.021359965205192566,0.0,0.0,0.0
0,-0.7069370746612549,0.40721631050109863,-0.5727072358131409,0.055264074355363846,0.0,0.0,0.0
0,-0.7036486268043518,0.37894853949546814,-0.5915527939796448,0.0893014445900917,0.0,0.0,0.0
0,-0.6988196969032288,0.34969988465309143,-0.6089572310447693,0.12314661592245102,0.0,0.0,0.0
0,-0.6923642754554749,0.31988441944122314,-0.6249009966850281,0.1563238799571991,0.0,0.0,0.0
0,-0.6841364502906799,0.28972098231315613,-0.6395627856254578,0.1887098103761673,0.0,0.0,0.0
0,-0.6741653084754944,0.2590203285217285,-0.6529911756515503,0.22055648267269135,0.0,0.0,0.0
0,-0.6628031134605408,0.2275206595659256,-0.6648534536361694,0.25204962491989136,0.0,0.0,0.0
0,-0.6500073075294495,0.19502457976341248,-0.6750586628913879,0.283521831035614,0.0,0.0,0.0
0,-0.6356731653213501,0.16204200685024261,-0.6834915280342102,0.31485605239868164,0.0,0.0,0.0
0,-0.6180405020713806,0.12567079067230225,-0.6909084916114807,0.34858450293540955,0.0,0.0,0.0
0,-0.6022588610649109,0.09567267447710037,-0.6957581639289856,0.37507933378219604,0.0,0.0,0.0
0,-0.5834012031555176,0.06205840781331062,-0.6998538970947266,0.40327319502830505,0.0,0.0,0.0
0,-0.5636888742446899,0.02836593985557556,-0.7020775079727173,0.43031397461891174,0.0,0.0,0.0
0,-0.5429401397705078,-0.0051757595501840115,-0.7025459408760071,0.4563457667827606,0.0,0.0,0.0
0,-0.5207386612892151,-0.038948673754930496,-0.7014843225479126,0.48152557015419006,0.0,0.0,0.0
0,-0.47154727578163147,-0.1064678356051445,-0.6948809027671814,0.5292270183563232,0.0,0.0,0.0
0,-0.4459975063800812,-0.13916781544685364,-0.6889981031417847,0.5510291457176208,0.0,0.0,0.0
0,-0.4459975063800812,-0.13916781544685364,-0.6889981031417847,0.5510291457176208,0.0,0.0,0.0
0,-0.4197079837322235,-0.17176494002342224,-0.6816906929016113,0.5712027549743652,0.0,0.0,0.0
0,-0.38946911692619324,-0.20749643445014954,-0.6721906661987305,0.5916517376899719,0.0,0.0,0.0
0,-0.36332955956459045,-0.23656919598579407,-0.6629931330680847,0.6075356602668762,0.0,0.0,0.0
0,-0.32965973019599915,-0.2713926434516907,-0.649687647819519,0.6262663006782532,0.0,0.0,0.0
0,-0.29781922698020935,-0.30215248465538025,-0.6355804204940796,0.6424002647399902,0.0,0.0,0.0
0,-0.26550617814064026,-0.33206456899642944,-0.6198849081993103,0.6569743156433105,0.0,0.0,0.0
0,-0.232981875538826,-0.36145561933517456,-0.6028993725776672,0.6694881916046143,0.0,0.0,0.0
0,-0.20071211457252502,-0.3901224732398987,-0.584915280342102,0.6797251105308533,0.0,0.0,0.0
0,-0.1687900573015213,-0.41769886016845703,-0.5657555460929871,0.688179612159729,0.0,0.0,0.0
0,-0.1363605558872223,-0.44426941871643066,-0.5453935265541077,0.6951326131820679,0.0,0.0,0.0
0,-0.10320047289133072,-0.4697633683681488,-0.5236820578575134,0.7007580995559692,0.0,0.0,0.0
0,-0.06923142075538635,-0.49438005685806274,-0.5005781054496765,0.704875648021698,0.0,0.0,0.0
0,-0.03460926562547684,-0.5180403590202332,-0.47597536444664,0.7074719667434692,0.0,0.0,0.0
0,0.0002256060397485271,-0.5403435826301575,-0.4500483572483063,0.7086031436920166,0.0,0.0,0.0
0,0.03499311953783035,-0.5612204670906067,-0.4232672452926636,0.7080146670341492,0.0,0.0,0.0
0,0.06937295943498611,-0.580862283706665,-0.3956315815448761,0.7056167125701904,0.0,0.0,0.0
0,0.10350862890481949,-0.599383533000946,-0.3670538067817688,0.7013771533966064,0.0,0.0,0.0
0,0.1374054253101349,-0.6164008975028992,-0.3377082347869873,0.6955254077911377,0.0,0.0,0.0
0,0.17012256383895874,-0.6314499378204346,-0.3081943094730377,0.6884611248970032,0.0,0.0,0.0
0,0.20168821513652802,-0.6451719999313354,-0.27807697653770447,0.6799861788749695,0.0,0.0,0.0
0,0.23310920596122742,-0.6581743955612183,-0.24678069353103638,0.6694765090942383,0.0,0.0,0.0
0,0.26459750533103943,-0.6697545051574707,-0.21466398239135742,0.6572436690330505,0.0,0.0,0.0
0,0.6917770504951477,-0.5566039681434631,0.428957998752594,0.15577031672000885,0.0,0.0,0.0
0,0.6984732151031494,-0.5351922512054443,0.4553983509540558,0.12226904928684235,0.0,0.0,0.0
0,0.7036501169204712,-0.5125306844711304,0.48069989681243896,0.08803150057792664,0.0,0.0,0.0
0,0.7072545886039734,-0.48874279856681824,0.5046333074569702,0.05384694039821625,0.0,0.0,0.0
0,0.7092179656028748,-0.46401548385620117,0.5271649360656738,0.02072460576891899,0.0,0.0,0.0
0,0.7090774774551392,-0.43841859698295593,0.5490750670433044,-0.01214776560664177,0.0,0.0,0.0
0,0.7070603370666504,-0.4116145372390747,0.57025146484375,-0.04566429555416107,0.0,0.0,0.0
0,0.7038911581039429,-0.38429901003837585,0.5892769694328308,-0.078974649310112,0.0,0.0,0.0
0,0.6989110708236694,-0.35383936762809753,0.6080198287963867,-0.1151776984333992,0.0,0.0,0.0
0,0.6927090883255005,-0.3246181905269623,0.6241949796676636,-0.14761635661125183,0.0,0.0,0.0
0,0.6844475269317627,-0.2939142882823944,0.6397578716278076,-0.18024654686450958,0.0,0.0,0.0
0,0.6746604442596436,-0.2623831033706665,0.6536149382591248,-0.2130931317806244,0.0,0.0,0.0
0,0.6637183427810669,-0.23105551302433014,0.6650569438934326,-0.24581213295459747,0.0,0.0,0.0
0,0.650934636592865,-0.1995820552110672,0.6750240325927734,-0.27825620770454407,0.0,0.0,0.0
0,0.6358468532562256,-0.16741348803043365,0.6842018365859985,-0.31011661887168884,0.0,0.0,0.0
0,0.6194431781768799,-0.13430152833461761,0.6918250918388367,-0.34097540378570557,0.0,0.0,0.0
0,0.6026617884635925,-0.1006937250494957,0.6970692873001099,-0.37065747380256653,0.0,0.0,0.0
0,0.5849525928497314,-0.0671200305223465,0.7003279328346252,-0.3993731439113617,0.0,0.0,0.0
0,0.5651402473449707,-0.03351098671555519,0.7026166319847107,-0.4271492660045624,0.0,0.0,0.0
0,0.5430347323417664,0.00013422244228422642,0.704073429107666,-0.4539017379283905,0.0,0.0,0.0
0,0.5201880931854248,0.03353136032819748,0.7036074995994568,-0.4794260263442993,0.0,0.0,0.0
0,0.4971494972705841,0.06679081171751022,0.7007145881652832,-0.5039972066879272,0.0,0.0,0.0
0,0.47307395935058594,0.1006542295217514,0.695877194404602,-0.5276907086372375,0.0,0.0,0.0
0,0.44739243388175964,0.13490736484527588,0.6896517872810364,-0.5501394867897034,0.0,0.0,0.0
0,0.4202786087989807,0.1681232452392578,0.6825467348098755,-0.570844292640686,0.0,0.0,0.0
0,0.39269527792930603,0.19979387521743774,0.6742744445800781,-0.5897963047027588,0.0,0.0,0.0
0,0.36427924036979675,0.23116572201251984,0.6645331382751465,-0.6073646545410156,0.0,0.0,0.0
0,0.3345679044723511,0.2631928026676178,0.6526815891265869,-0.6240459680557251,0.0,0.0,0.0
0,0.30361780524253845,0.2949258089065552,0.6386411786079407,-0.6400043368339539,0.0,0.0,0.0
0,0.2719256281852722,0.32544267177581787,0.6227651238441467,-0.6549349427223206,0.0,0.0,0.0
0,0.2397385835647583,0.3549190163612366,0.6057662963867188,-0.6680104732513428,0.0,0.0,0.0
0,0.20387960970401764,0.38649994134902954,0.5864695310592651,-0.6795125603675842,0.0,0.0,0.0
0,0.17139936983585358,0.41417396068573,0.5680558085441589,-0.6877700686454773,0.0,0.0,0.0
0,0.13931243121623993,0.44056445360183716,0.5483448505401611,-0.6945831775665283,0.0,0.0,0.0
0,0.1074267029762268,0.46596837043762207,0.526817262172699,-0.7003067135810852,0.0,0.0,0.0
0,0.07501539587974548,0.4908115863800049,0.5035793781280518,-0.7046399712562561,0.0,0.0,0.0
0,0.04133669659495354,0.5149322152137756,0.4791054129600525,-0.7072673439979553,0.0,0.0,0.0
0,0.00607666652649641,0.5375815629959106,0.45382222533226013,-0.7082707285881042,0.0,0.0,0.0
0,-0.029893286526203156,0.5582706332206726,0.42779862880706787,-0.707857072353363,0.0,0.0,0.0
0,-0.065737783908844,0.5775244832038879,0.40048643946647644,-0.7059656381607056,0.0,0.0,0.0
0,-0.10117704421281815,0.5960737466812134,0.3714834153652191,-0.702205240726471,0.0,0.0,0.0
0,-0.13570615649223328,0.6135087609291077,0.3409487009048462,-0.6968340277671814,0.0,0.0,0.0
0,-0.16932806372642517,0.6290695071220398,0.3099837899208069,-0.6900308132171631,0.0,0.0,0.0
0,-0.20192785561084747,0.6428295969963074,0.27920517325401306,-0.6816689968109131,0.0,0.0,0.0
0,-0.23384521901607513,0.6555577516555786,0.24816204607486725,-0.6712741255760193,0.0,0.0,0.0
0,-0.26508158445358276,0.6671220064163208,0.2166341245174408,-0.6590769290924072,0.0,0.0,0.0
0,-0.2954046130180359,0.6768538951873779,0.18458609282970428,-0.6458837389945984,0.0,0.0,0.0
0,-0.32511651515960693,0.6847707033157349,0.1519247591495514,-0.6316171288490295,0.0,0.0,0.0
0,-0.354724258184433,0.6912673711776733,0.11821626871824265,-0.6156117916107178,0.0,0.0,0.0
0,-0.3843373656272888,0.6963796019554138,0.0839996188879013,-0.5974254608154297,0.0,0.0,0.0
0,-0.41616812348365784,0.699790358543396,0.04664982110261917,-0.5758074522018433,0.0,0.0,0.0
0,-0.44389867782592773,0.7010467648506165,0.013022434897720814,-0.5549330115318298,0.0,0.0,0.0
0,-0.4675988554954529,0.7008364796638489,-0.017473796382546425,-0.5352635979652405,0.0,0.0,0.0
0,-0.49247175455093384,0.6992936730384827,-0.05156027153134346,-0.5122835040092468,0.0,0.0,0.0
0,-0.5159123539924622,0.6961426734924316,-0.08532726764678955,-0.4884383976459503,0.0,0.0,0.0
0,-0.5403618216514587,0.6908420324325562,-0.1218152791261673,-0.46102094650268555,0.0,0.0,0.0
0,-0.5615521669387817,0.6844527125358582,-0.1548318862915039,-0.4345613121986389,0.0,0.0,0.0
0,-0.5817112922668457,0.676429033279419,-0.18783403933048248,-0.4067026376724243,0.0,0.0,0.0
0,-0.6006667613983154,0.6666414141654968,-0.22029246389865875,-0.3780118525028229,0.0,0.0,0.0
0,-0.6182470917701721,0.6551523804664612,-0.25195804238319397,-0.3488498032093048,0.0,0.0,0.0
0,-0.6341439485549927,0.6423455476760864,-0.28317683935165405,-0.3189004957675934,0.0,0.0,0.0
0,-0.6483712792396545,0.6282470226287842,-0.31392422318458557,-0.2881053686141968,0.0,0.0,0.0
0,-0.6611759662628174,0.6127504706382751,-0.34374862909317017,-0.25661829113960266,0.0,0.0,0.0
0,-0.6726080179214478,0.5956924557685852,-0.3726491630077362,-0.22475413978099823,0.0,0.0,0.0
0,-0.6826081275939941,0.5771077871322632,-0.40080153942108154,-0.19231127202510834,0.0,0.0,0.0
0,-0.6910340785980225,0.5571265816688538,-0.42827385663986206,-0.15904836356639862,0.0,0.0,0.0
0,-0.6978291869163513,0.5359238386154175,-0.45469173789024353,-0.12533330917358398,0.0,0.0,0.0
0,-0.7029212117195129,0.513684093952179,-0.4798319339752197,-0.09178575128316879,0.0,0.0,0.0
0,-0.7064080238342285,0.4902160167694092,-0.5038727521896362,-0.05848965793848038,0.0,0.0,0.0
0,-0.7082189917564392,0.46539372205734253,-0.5271145105361938,-0.024854367598891258,0.0,0.0,0.0
0,-0.7084757685661316,0.43947556614875793,-0.5490683317184448,0.008954815566539764,0.0,0.0,0.0
0,-0.6845987439155579,0.29826682806015015,-0.6381704807281494,0.1781373918056488,0.0,0.0,0.0
0,-0.6755464673042297,0.26733067631721497,-0.6514329314231873,0.21080631017684937,0.0,0.0,0.0
0,-0.6636537909507751,0.23253683745861053,-0.664551317691803,0.24595701694488525,0.0,0.0,0.0
0,-0.6509379148483276,0.2007002830505371,-0.675106406211853,0.2772424817085266,0.0,0.0,0.0
0,-0.6367173790931702,0.16876161098480225,-0.6840702295303345,0.30788201093673706,0.0,0.0,0.0
0,-0.6212615966796875,0.13641688227653503,-0.6913466453552246,0.33778271079063416,0.0,0.0,0.0
0,-0.6044313311576843,0.10334647446870804,-0.6970486640930176,0.3670671582221985,0.0,0.0,0.0
0,-0.5858542323112488,0.06941264122724533,-0.7011834979057312,0.3961455523967743,0.0,0.0,0.0
0,-0.5655056238174438,0.03515303134918213,-0.7036032676696777,0.42490354180336,0.0,0.0,0.0
0,-0.5439518690109253,0.0011268022935837507,-0.7040792107582092,0.4527917504310608,0.0,0.0,0.0
0,-0.5211571455001831,-0.032807156443595886,-0.7029803395271301,0.47934359312057495,0.0,0.0,0.0
0,-0.49699947237968445,-0.06679532676935196,-0.7005248069763184,0.5044082999229431,0.0,0.0,0.0
0,-0.4719599485397339,-0.10048344731330872,-0.6964862942695618,0.5279172658920288,0.0,0.0,0.0
0,-0.44622308015823364,-0.1334996372461319,-0.6908636093139648,0.5499119162559509,0.0,0.0,0.0
0,-0.41973254084587097,-0.16614064574241638,-0.6836240887641907,0.5705375075340271,0.0,0.0,0.0
0,-0.3922274112701416,-0.19856399297714233,-0.6749149560928345,0.5897905826568604,0.0,0.0,0.0
0,-0.36385247111320496,-0.23057976365089417,-0.6646291017532349,0.6077378392219543,0.0,0.0,0.0
0,-0.3346879184246063,-0.2619286775588989,-0.6528045535087585,0.6243847012519836,0.0,0.0,0.0
0,-0.3047117292881012,-0.29286623001098633,-0.6393691897392273,0.6397031545639038,0.0,0.0,0.0
0,-0.27374035120010376,-0.32321712374687195,-0.6245350241661072,0.653594434261322,0.0,0.0,0.0
0,-0.24224530160427094,-0.35268139839172363,-0.6083952188491821,0.6658989787101746,0.0,0.0,0.0
0,-0.1456780731678009,-0.4364983141422272,-0.5511817336082458,0.6935982704162598,0.0,0.0,0.0
0,-0.10862206667661667,-0.465299129486084,-0.5270423889160156,0.700397789478302,0.0,0.0,0.0
0,-0.07425064593553543,-0.489942342042923,-0.5040416717529297,0.7049952745437622,0.0,0.0,0.0
0,-0.03946995735168457,-0.5134216547012329,-0.4800646901130676,0.7078214287757874,0.0,0.0,0.0
0,-0.004629130009561777,-0.5358722805976868,-0.4548361003398895,0.7089263200759888,0.0,0.0,0.0
0,0.02991454117000103,-0.557136595249176,-0.4282742440700531,0.7084617018699646,0.0,0.0,0.0
0,0.06389269232749939,-0.5770038962364197,-0.40063998103141785,0.7064734101295471,0.0,0.0,0.0
0,0.09715205430984497,-0.5953468084335327,-0.37235167622566223,0.702930212020874,0.0,0.0,0.0
0,0.1302320510149002,-0.6125313639640808,-0.34350743889808655,0.6974815130233765,0.0,0.0,0.0
0,0.16339924931526184,-0.6285688877105713,-0.3137303590774536,0.6902231574058533,0.0,0.0,0.0
0,0.19655193388462067,-0.6430438160896301,-0.2829647362232208,0.6814879775047302,0.0,0.0,0.0
0,0.22946369647979736,-0.6556389927864075,-0.2512924075126648,0.671542227268219,0.0,0.0,0.0
0,0.26202547550201416,-0.666637659072876,-0.21887701749801636,0.6600474715232849,0.0,0.0,0.0
0,0.29715654253959656,-0.6773087382316589,-0.18277280032634735,0.6451185345649719,0.0,0.0,0.0
0,0.3250288963317871,-0.6847508549690247,-0.15308241546154022,0.6314042210578918,0.0,0.0,0.0
0,0.3548142910003662,-0.6914410591125488,-0.12002155929803848,0.6150153279304504,0.0,0.0,0.0
0,0.38345086574554443,-0.6962957978248596,-0.0867939218878746,0.5976932644844055,0.0,0.0,0.0
0,0.41112205386161804,-0.6995899677276611,-0.053246285766363144,0.5790942907333374,0.0,0.0,0.0
0,0.43817460536956787,-0.7014790177345276,-0.01935579627752304,0.5587383508682251,0.0,0.0,0.0
0,0.43817460536956787,-0.7014790177345276,-0.01935579627752304,0.5587383508682251,0.0,0.0,0.0
0,0.4645586907863617,-0.70173579454422,0.014583136886358261,0.5368168950080872,0.0,0.0,0.0
0,0.4899290204048157,-0.7001887559890747,0.04839746281504631,0.5138054490089417,0.0,0.0,0.0
0,0.5139773488044739,-0.6969128847122192,0.08202239871025085,0.48994383215904236,0.0,0.0,0.0
0,0.5139773488044739,-0.6969128847122192,0.08202239871025085,0.48994383215904236,0.0,0.0,0.0
0,0.5386980175971985,-0.6917822957038879,0.11859133839607239,0.4623965620994568,0.0,0.0,0.0
0,0.5576627254486084,-0.6863290071487427,0.1482195109128952,0.43889477849006653,0.0,0.0,0.0
0,0.5795614719390869,-0.6778124570846558,0.18419021368026733,0.40912774205207825,0.0,0.0,0.0
0,0.5983718037605286,-0.6682088971138,0.21653728187084198,0.38104140758514404,0.0,0.0,0.0
0,0.6161093711853027,-0.6568935513496399,0.24855034053325653,0.35178953409194946,0.0,0.0,0.0
0,0.6324853301048279,-0.6440749764442444,0.2800120413303375,0.32149043679237366,0.0,0.0,0.0
0,0.6471817493438721,-0.6299029588699341,0.31069597601890564,0.29065266251564026,0.0,0.0,0.0
0,0.660172164440155,-0.6143490672111511,0.3406692147254944,0.25947093963623047,0.0,0.0,0.0
0,0.6716667413711548,-0.597362756729126,0.3699656128883362,0.22755177319049835,0.0,0.0,0.0
0,0.6817059516906738,-0.5790181756019592,0.3983924686908722,0.19475971162319183,0.0,0.0,0.0
0,0.6902809143066406,-0.5593552589416504,0.42567503452301025,0.16145458817481995,0.0,0.0,0.0
0,0.6972211003303528,-0.5384033918380737,0.451937735080719,0.12802232801914215,0.0,0.0,0.0
0,0.7024419903755188,-0.5161837935447693,0.4773072302341461,0.09455238282680511,0.0,0.0,0.0
0,0.7060115337371826,-0.4927731156349182,0.5016494393348694,0.06085279583930969,0.0,0.0,0.0
0,0.7080152034759521,-0.4682423770427704,0.5247673392295837,0.0267497468739748,0.0,0.0,0.0
0,0.7084280252456665,-0.4425944685935974,0.546637773513794,-0.007734125480055809,0.0,0.0,0.0
0,0.7072264552116394,-0.4157899022102356,0.5672748684883118,-0.04220980405807495,0.0,0.0,0.0
0,0.704419732093811,-0.38811540603637695,0.5865084528923035,-0.07615745067596436,0.0,0.0,0.0
0,0.7000155448913574,-0.35969266295433044,0.6043592095375061,-0.10946337878704071,0.0,0.0,0.0
0,0.6938540935516357,-0.330525279045105,0.6209841370582581,-0.14258717000484467,0.0,0.0,0.0
0,0.6859716773033142,-0.30065345764160156,0.6362460851669312,-0.17570999264717102,0.0,0.0,0.0
0,0.6766285300254822,-0.26993662118911743,0.6499340534210205,-0.20863018929958344,0.0,0.0,0.0
0,0.6658417582511902,-0.23831015825271606,0.6620644927024841,-0.24117712676525116,0.0,0.0,0.0
0,0.6534823775291443,-0.20596282184123993,0.6726714968681335,-0.27328741550445557,0.0,0.0,0.0
0,0.6395418643951416,-0.17327651381492615,0.6817024946212769,-0.30475589632987976,0.0,0.0,0.0
0,0.6225475072860718,-0.1371147632598877,0.6897733211517334,-0.3383486866950989,0.0,0.0,0.0
0,0.6054978966712952,-0.10381970554590225,0.6956112384796143,-0.36790141463279724,0.0,0.0,0.0
0,0.5870347619056702,-0.07038991153240204,0.6999036073684692,-0.39648884534835815,0.0,0.0,0.0
0,0.567581057548523,-0.03703750669956207,0.7024065852165222,-0.42395493388175964,0.0,0.0,0.0
0,0.5470366477966309,-0.0037038589362055063,0.7033144235610962,-0.4502430260181427,0.0,0.0,0.0
0,0.5251315236091614,0.0298078004270792,0.7027761936187744,-0.47548598051071167,0.0,0.0,0.0
0,0.5019581913948059,0.06333299726247787,0.700721800327301,-0.49964869022369385,0.0,0.0,0.0
0,0.4777446687221527,0.09670142829418182,0.6970601081848145,-0.5226365327835083,0.0,0.0,0.0
0,0.4528023898601532,0.1297508180141449,0.6917726993560791,-0.5442593693733215,0.0,0.0,0.0
0,0.42670297622680664,0.16270524263381958,0.6850268840789795,-0.564643919467926,0.0,0.0,0.0
0,0.39911189675331116,0.1953904628753662,0.6767135262489319,-0.5841436982154846,0.0,0.0,0.0
0,0.37000131607055664,0.2274482101202011,0.6668090224266052,-0.6027976274490356,0.0,0.0,0.0
0,0.3402281701564789,0.25875863432884216,0.655078113079071,-0.6203179359436035,0.0,0.0,0.0
0,0.31031325459480286,0.2895578145980835,0.6416812539100647,-0.6361918449401855,0.0,0.0,0.0
0,0.279037207365036,0.3203103840351105,0.6273475289344788,-0.650082528591156,0.0,0.0,0.0
0,0.2461889237165451,0.3506447672843933,0.6113132238388062,-0.6628486514091492,0.0,0.0,0.0
0,0.21249021589756012,0.37956830859184265,0.5934500098228455,-0.6747041940689087,0.0,0.0,0.0
0,0.1785079687833786,0.4069799482822418,0.5740029215812683,-0.685314416885376,0.0,0.0,0.0
0,0.14435583353042603,0.43383511900901794,0.5531204342842102,-0.6940022706985474,0.0,0.0,0.0
0,0.04209356755018234,0.5094457268714905,0.48435527086257935,-0.7076200842857361,0.0,0.0,0.0
0,0.005430683959275484,0.5335155725479126,0.4566901922225952,-0.7095059156417847,0.0,0.0,0.0
0,-0.02793995477259159,0.5546568036079407,0.4305056929588318,-0.7091352343559265,0.0,0.0,0.0
0,-0.06147950515151024,0.5749590396881104,0.40330684185028076,-0.7068372368812561,0.0,0.0,0.0
0,-0.09511186182498932,0.5936369299888611,0.3753266930580139,-0.7030730843544006,0.0,0.0,0.0
0,-0.12862783670425415,0.6102893948554993,0.34680983424186707,-0.698110044002533,0.0,0.0,0.0
0,-0.16140149533748627,0.6253261566162109,0.31726396083831787,-0.6920210719108582,0.0,0.0,0.0
0,-0.19374245405197144,0.6401461958885193,0.28650763630867004,-0.6835370063781738,0.0,0.0,0.0
0,-0.22546963393688202,0.6539822220802307,0.2543851435184479,-0.6733437180519104,0.0,0.0,0.0
0,-0.2572759985923767,0.6660796403884888,0.22273743152618408,-0.6611867547035217,0.0,0.0,0.0
0,-0.28930845856666565,0.6756449937820435,0.19089993834495544,-0.6480698585510254,0.0,0.0,0.0
0,-0.32097405195236206,0.6832302212715149,0.15844012796878815,-0.6337993144989014,0.0,0.0,0.0
0,-0.35174819827079773,0.6899374127388,0.1246376782655716,-0.6175417900085449,0.0,0.0,0.0
0,-0.3808082938194275,0.6950233578681946,0.09009653329849243,-0.6003690958023071,0.0,0.0,0.0
0,-0.40821486711502075,0.6985241770744324,0.05599594488739967,-0.5821699500083923,0.0,0.0,0.0
0,-0.43449389934539795,0.7002460956573486,0.02247725985944271,-0.5630258917808533,0.0,0.0,0.0
0,-0.4598660171031952,0.7009466290473938,-0.010755822993814945,-0.5419541001319885,0.0,0.0,0.0
0,-0.4845518171787262,0.7006558775901794,-0.044369641691446304,-0.5186089277267456,0.0,0.0,0.0
0,-0.5084925889968872,0.6983023881912231,-0.07785678654909134,-0.494348406791687,0.0,0.0,0.0
0,-0.531372606754303,0.693574845790863,-0.11088699847459793,-0.47003620862960815,0.0,0.0,0.0
0,-0.5531142950057983,0.6870716214179993,-0.1442192643880844,-0.4447818696498871,0.0,0.0,0.0
0,-0.5734906792640686,0.6795489192008972,-0.1780432164669037,-0.41743913292884827,0.0,0.0,0.0
0,-0.5926463007926941,0.6708571910858154,-0.21105395257472992,-0.3883427679538727,0.0,0.0,0.0
0,-0.6108893752098083,0.6602269411087036,-0.24272030591964722,-0.3586563169956207,0.0,0.0,0.0
0,-0.6298059821128845,0.646615743637085,-0.27696624398231506,-0.32427600026130676,0.0,0.0,0.0
0,-0.6458265781402588,0.6319761276245117,-0.3081704080104828,-0.2918526530265808,0.0,0.0,0.0
0,-0.6600409746170044,0.6159318685531616,-0.33866313099861145,-0.25867748260498047,0.0,0.0,0.0
0,-0.6724657416343689,0.5982727408409119,-0.3679617643356323,-0.22604554891586304,0.0,0.0,0.0
0,-0.6826754212379456,0.5798124670982361,-0.39603856205940247,-0.1937992423772812,0.0,0.0,0.0
0,-0.6907668113708496,0.5604645609855652,-0.4232623875141144,-0.16187185049057007,0.0,0.0,0.0
0,-0.696969211101532,0.540152907371521,-0.4497688412666321,-0.1296515166759491,0.0,0.0,0.0
0,-0.7018424868583679,0.5185580849647522,-0.47515952587127686,-0.09680278599262238,0.0,0.0,0.0
0,-0.705760657787323,0.495117723941803,-0.4993775188922882,-0.06336507946252823,0.0,0.0,0.0
0,-0.7083063721656799,0.47027555108070374,-0.5224326252937317,-0.02898729033768177,0.0,0.0,0.0
0,-0.7091993689537048,0.4440949857234955,-0.5444400310516357,0.00579669838771224,0.0,0.0,0.0
0,-0.7080152034759521,0.41722312569618225,-0.5653591752052307,0.040513183921575546,0.0,0.0,0.0
0,-0.7051796913146973,0.38964277505874634,-0.5848016142845154,0.07443077117204666,0.0,0.0,0.0
0,-0.7007437944412231,0.36140310764312744,-0.602843701839447,0.10750932991504669,0.0,0.0,0.0
0,-0.6947404146194458,0.3323478400707245,-0.6195321083068848,0.14033354818820953,0.0,0.0,0.0
0,-0.6871559023857117,0.30232730507850647,-0.6348444223403931,0.1732638031244278,0.0,0.0,0.0
0,-0.6779531836509705,0.27142223715782166,-0.6486568450927734,0.20636488497257233,0.0,0.0,0.0
0,-0.6672360897064209,0.23965606093406677,-0.6608548760414124,0.23930056393146515,0.0,0.0,0.0
0,-0.6549427509307861,0.20740528404712677,-0.671485185623169,0.27161309123039246,0.0,0.0,0.0
0,-0.6411436200141907,0.17482079565525055,-0.6806357502937317,0.3028867244720459,0.0,0.0,0.0
0,-0.6411436200141907,0.17482079565525055,-0.6806357502937317,0.3028867244720459,0.0,0.0,0.0
0,-0.6258999705314636,0.1421634703874588,-0.6883569359779358,0.3329211473464966,0.0,0.0,0.0
0,-0.6093298196792603,0.10931532084941864,-0.69459468126297,0.36185404658317566,0.0,0.0,0.0
0,-0.5896754860877991,0.07285623997449875,-0.6996001601219177,0.3926415741443634,0.0,0.0,0.0
0,-0.5704413652420044,0.03930335491895676,-0.7024217844009399,0.4198671281337738,0.0,0.0,0.0
0,-0.5498372912406921,0.005431909114122391,-0.7035704851150513,0.44639769196510315,0.0,0.0,0.0
0,-0.5278130769729614,-0.02824610099196434,-0.7030578255653381,0.47218453884124756,0.0,0.0,0.0
0,-0.5043468475341797,-0.06167352944612503,-0.7009280323982239,0.4971553087234497,0.0,0.0,0.0
0,-0.47929880023002625,-0.09525265544652939,-0.6973345875740051,0.5211113691329956,0.0,0.0,0.0
0,-0.4529344439506531,-0.12893164157867432,-0.6920068860054016,0.5440464019775391,0.0,0.0,0.0
0,-0.425563246011734,-0.16220393776893616,-0.6848764419555664,0.5658292770385742,0.0,0.0,0.0
0,-0.3971966803073883,-0.1949601024389267,-0.6760538816452026,0.5863524675369263,0.0,0.0,0.0
0,-0.3679381012916565,-0.22726130485534668,-0.6656787395477295,0.6053746342658997,0.0,0.0,0.0
0,-0.3378913104534149,-0.25915250182151794,-0.6538333296775818,0.6227394342422485,0.0,0.0,0.0
0,-0.30738767981529236,-0.2904346287250519,-0.6404562592506409,0.6384430527687073,0.0,0.0,0.0
0,-0.27642813324928284,-0.3209112882614136,-0.6256245970726013,0.6525565981864929,0.0,0.0,0.0
0,-0.24484141170978546,-0.3504813313484192,-0.6094397306442261,0.6651552319526672,0.0,0.0,0.0
0,-0.21265093982219696,-0.3792286813259125,-0.5919435024261475,0.676166296005249,0.0,0.0,0.0
0,-0.1802486628293991,-0.40711691975593567,-0.5731050372123718,0.6855287551879883,0.0,0.0,0.0
0,-0.14777426421642303,-0.4340705871582031,-0.5527217984199524,0.6934528946876526,0.0,0.0,0.0
0,-0.11484189331531525,-0.46007582545280457,-0.5309666395187378,0.6998921036720276,0.0,0.0,0.0
0,-0.08096488565206528,-0.48525553941726685,-0.5080826878547668,0.7045968770980835,0.0,0.0,0.0
0,-0.04595576971769333,-0.5095409154891968,-0.4839901626110077,0.7075610756874084,0.0,0.0,0.0
0,-0.010213114321231842,-0.5326913595199585,-0.4585849940776825,0.708850085735321,0.0,0.0,0.0
0,0.0255502350628376,-0.5544127821922302,-0.43116652965545654,0.7090147137641907,0.0,0.0,0.0
0,0.0623464472591877,-0.575275182723999,-0.40061917901039124,0.708031415939331,0.0,0.0,0.0
0,0.10603087395429611,-0.5975204110145569,-0.3636569082736969,0.7043531537055969,0.0,0.0,0.0
0,0.1493726521730423,-0.6160901784896851,-0.3277963101863861,0.6980708837509155,0.0,0.0,0.0
0,0.19583676755428314,-0.6318160891532898,-0.29145216941833496,0.6885817646980286,0.0,0.0,0.0
0,0.24372141063213348,-0.6436806917190552,-0.2546428143978119,0.6768049001693726,0.0,0.0,0.0
0,0.29012900590896606,-0.6527347564697266,-0.2174857258796692,0.6626427173614502,0.0,0.0,0.0
0,0.32268038392066956,-0.6587097644805908,-0.1805683970451355,0.6526917815208435,0.0,0.0,0.0
0,0.34326833486557007,-0.6661915183067322,-0.14570564031600952,0.6432405710220337,0.0,0.0,0.0
0,0.36271366477012634,-0.6759236454963684,-0.11446337401866913,0.6285673379898071,0.0,0.0,0.0
0,0.3829256594181061,-0.6858843564987183,-0.08695733547210693,0.609919548034668,0.0,0.0,0.0
0,0.4020059406757355,-0.6920620203018188,-0.06207399070262909,0.593482255935669,0.0,0.0,0.0
0,0.4187670350074768,-0.6938456296920776,-0.036545880138874054,0.5818158984184265,0.0,0.0,0.0
0,0.4322848320007324,-0.6939558982849121,-0.006719060707837343,0.5728374123573303,0.0,0.0,0.0
0,0.44494038820266724,-0.6964711546897888,0.027436217293143272,0.5593175888061523,0.0,0.0,0.0
0,0.45948526263237,-0.7006720304489136,0.06173298880457878,0.5392161011695862,0.0,0.0,0.0
0,0.4799029231071472,-0.702192485332489,0.09096335619688034,0.5147597789764404,0.0,0.0,0.0
0,0.5080428123474121,-0.6979209184646606,0.11847850680351257,0.48723164200782776,0.0,0.0,0.0
0,0.5371707081794739,-0.6912462115287781,0.14753443002700806,0.45661020278930664,0.0,0.0,0.0
0,0.5613755583763123,-0.6842808127403259,0.18145763874053955,0.4246450960636139,0.0,0.0,0.0
0,0.580630898475647,-0.6757924556732178,0.21931375563144684,0.3933277726173401,0.0,0.0,0.0
0,0.5975600481033325,-0.6649091839790344,0.2549494504928589,0.3639388084411621,0.0,0.0,0.0
0,0.6145691275596619,-0.652124285697937,0.285035640001297,0.3353007733821869,0.0,0.0,0.0
0,0.6315738558769226,-0.6390677094459534,0.312513142824173,0.3027789890766144,0.0,0.0,0.0
0,0.6486282348632812,-0.6239567995071411,0.34442752599716187,0.2606950104236603,0.0,0.0,0.0
0,0.662278413772583,-0.6071474552154541,0.37490931153297424,0.2209872603416443,0.0,0.0,0.0
0,0.6748315095901489,-0.5865603089332581,0.4043887257575989,0.18344537913799286,0.0,0.0,0.0
0,0.6865625977516174,-0.5627384185791016,0.4318338632583618,0.14869308471679688,0.0,0.0,0.0
0,0.6955165863037109,-0.5386155843734741,0.458042174577713,0.11393105238676071,0.0,0.0,0.0
0,0.7007219195365906,-0.5153481364250183,0.48355832695961,0.07880007475614548,0.0,0.0,0.0
0,0.7024098038673401,-0.4933720529079437,0.5078526139259338,0.043853022158145905,0.0,0.0,0.0
0,0.7028087377548218,-0.471053808927536,0.5297926068305969,0.010994013398885727,0.0,0.0,0.0
0,0.7029540538787842,-0.4476417303085327,0.5493073463439941,-0.019156916067004204,0.0,0.0,0.0
0,0.7022695541381836,-0.4224495589733124,0.568083643913269,-0.047620970755815506,0.0,0.0,0.0
0,0.6995570063591003,-0.39531880617141724,0.5875122547149658,-0.07619184255599976,0.0,0.0,0.0
0,0.6944063305854797,-0.367379754781723,0.6068423390388489,-0.10586432367563248,0.0,0.0,0.0
0,0.6879754662513733,-0.33952203392982483,0.6239705085754395,-0.13677869737148285,0.0,0.0,0.0
0,0.680598258972168,-0.31197866797447205,0.6383269429206848,-0.1691950410604477,0.0,0.0,0.0
0,0.6717560887336731,-0.2829870283603668,0.6511849761009216,-0.20310862362384796,0.0,0.0,0.0
0,0.6606033444404602,-0.25116831064224243,0.6636213064193726,-0.23823769390583038,0.0,0.0,0.0
0,0.6474817395210266,-0.21685387194156647,0.6749466061592102,-0.2735356092453003,0.0,0.0,0.0
0,0.6330934762954712,-0.18197569251060486,0.6838482022285461,-0.30832144618034363,0.0,0.0,0.0
0,0.6179365515708923,-0.14797621965408325,0.6899042129516602,-0.3419392704963684,0.0,0.0,0.0
0,0.6015080809593201,-0.1147335022687912,0.6943720579147339,-0.37350308895111084,0.0,0.0,0.0
0,0.583110511302948,-0.08133740723133087,0.6984993815422058,-0.40261387825012207,0.0,0.0,0.0
0,0.5632414817810059,-0.04691891744732857,0.7019180655479431,-0.4295364022254944,0.0,0.0,0.0
0,0.5407578349113464,-0.009094413369894028,0.7033270001411438,-0.4576705992221832,0.0,0.0,0.0
0,0.5201981663703918,0.02447904832661152,0.7018336653709412,-0.48255249857902527,0.0,0.0,0.0
0,0.4981703758239746,0.05780675262212753,0.6986945271492004,-0.5068960189819336,0.0,0.0,0.0
0,0.47356754541397095,0.09171465784311295,0.6947602033615112,-0.5303426384925842,0.0,0.0,0.0
0,0.44710400700569153,0.12583690881729126,0.6896166205406189,-0.5525619983673096,0.0,0.0,0.0
0,0.42015981674194336,0.15932220220565796,0.6823840737342834,-0.5736435651779175,0.0,0.0,0.0
0,0.3931486904621124,0.19230684638023376,0.6726676225662231,-0.5938041806221008,0.0,0.0,0.0
0,0.36585545539855957,0.22451581060886383,0.6614993810653687,-0.6122041940689087,0.0,0.0,0.0
0,0.3383468687534332,0.2558387517929077,0.6496261358261108,-0.6282409429550171,0.0,0.0,0.0
0,0.3096848130226135,0.28679704666137695,0.6374189853668213,-0.6420067548751831,0.0,0.0,0.0
0,0.28028783202171326,0.3175114095211029,0.6238203644752502,-0.6542981266975403,0.0,0.0,0.0
0,0.2501615285873413,0.34730279445648193,0.6082771420478821,-0.6659067869186401,0.0,0.0,0.0
0,0.2190028578042984,0.3758331537246704,0.5907773971557617,-0.6770540475845337,0.0,0.0,0.0
0,0.18645326793193817,0.4035724103450775,0.5717938542366028,-0.6870582699775696,0.0,0.0,0.0
0,0.1521584391593933,0.43140438199043274,0.5511199831962585,-0.6954407095909119,0.0,0.0,0.0
0,0.11689449101686478,0.45859405398368835,0.5290722250938416,-0.7019561529159546,0.0,0.0,0.0
0,0.11689449101686478,0.45859405398368835,0.5290722250938416,-0.7019561529159546,0.0,0.0,0.0
0,0.08165764808654785,0.48416364192962646,0.5056387186050415,-0.7070217728614807,0.0,0.0,0.0
0,0.04679395258426666,0.5080792307853699,0.48070648312568665,-0.7107881903648376,0.0,0.0,0.0
0,0.011957935057580471,0.5307545065879822,0.4546804428100586,-0.7127799987792969,0.0,0.0,0.0
0,-0.022815538570284843,0.5524572134017944,0.4279015362262726,-0.7126033306121826,0.0,0.0,0.0
0,-0.05673765763640404,0.5728487372398376,0.4008423984050751,-0.7103403210639954,0.0,0.0,0.0
0,-0.08895400166511536,0.5914740562438965,0.37356212735176086,-0.7066327929496765,0.0,0.0,0.0
0,-0.47973790764808655,0.7021281719207764,-0.04296550899744034,-0.5212046504020691,0.0,0.0,0.0
0,-0.47973790764808655,0.7021281719207764,-0.04296550899744034,-0.5212046504020691,0.0,0.0,0.0
