time_boot_ms,q1,q2,q3,q4,rollspeed,pitchspeed,yawspeed
0,-0.010306891985237598,0.05817088484764099,-0.7314647436141968,0.6769864559173584,0.0,0.0,0.0
0,-0.010971738956868649,0.05889725312590599,-0.7313598990440369,0.6770266890525818,0.0,0.0,0.0
0,-0.011783736757934093,0.059683848172426224,-0.7315763831138611,0.6767107844352722,0.0,0.0,0.0
0,-0.012471354566514492,0.060161326080560684,-0.7314339876174927,0.6768098473548889,0.0,0.0,0.0
0,-0.013397850096225739,0.060820117592811584,-0.731581449508667,0.6765733957290649,0.0,0.0,0.0
0,-0.0141188595443964,0.061066634953022,-0.7317452430725098,0.6763597726821899,0.0,0.0,0.0
0,-0.014439785853028297,0.061778388917446136,-0.7315318584442139,0.6765192151069641,0.0,0.0,0.0
0,-0.015204005874693394,0.06248514726758003,-0.7316600680351257,0.6762990951538086,0.0,0.0,0.0
0,-0.015854470431804657,0.06360656768083572,-0.7319431900978088,0.6758725047111511,0.0,0.0,0.0
0,-0.016291460022330284,0.0645555704832077,-0.731997013092041,0.6757140159606934,0.0,0.0,0.0
0,-0.016924075782299042,0.06551928073167801,-0.7320166230201721,0.6755842566490173,0.0,0.0,0.0
0,-0.017886044457554817,0.06626858562231064,-0.7321821451187134,0.6753072738647461,0.0,0.0,0.0
0,-0.018467068672180176,0.0670355036854744,-0.7320407032966614,0.6753695607185364,0.0,0.0,0.0
0,-0.018831102177500725,0.06784825026988983,-0.7322050333023071,0.6750997304916382,0.0,0.0,0.0
0,-0.019325703382492065,0.06838176399469376,-0.7320955395698547,0.6751509308815002,0.0,0.0,0.0
0,-0.019855959340929985,0.06928915530443192,-0.7323554754257202,0.6747606992721558,0.0,0.0,0.0
0,-0.020461685955524445,0.06988018751144409,-0.7324248552322388,0.6746063232421875,0.0,0.0,0.0
0,-0.020049214363098145,0.07154674828052521,-0.7323340773582458,0.6745424866676331,0.0,0.0,0.0
0,-0.021168459206819534,0.07171798497438431,-0.7327877879142761,0.673997163772583,0.0,0.0,0.0
0,-0.02160128764808178,0.07259069383144379,-0.7327120304107666,0.6739718914031982,0.0,0.0,0.0
0,-0.022141339257359505,0.07281335443258286,-0.7325817942619324,0.6740718483924866,0.0,0.0,0.0
0,-0.022598067298531532,0.07304057478904724,-0.732701301574707,0.6739029884338379,0.0,0.0,0.0
0,-0.02282343991100788,0.07329028844833374,-0.7329584360122681,0.673588216304779,0.0,0.0,0.0
0,-0.0233661737293005,0.07343272864818573,-0.7330255508422852,0.6734811067581177,0.0,0.0,0.0
0,-0.0237379502505064,0.07391634583473206,-0.7332299947738647,0.6731929779052734,0.0,0.0,0.0
0,-0.023950370028614998,0.07449138164520264,-0.7333961129188538,0.672940731048584,0.0,0.0,0.0
0,-0.02409423515200615,0.07487482577562332,-0.7335840463638306,0.6726873517036438,0.0,0.0,0.0
0,-0.02465657703578472,0.07538938522338867,-0.7336083650588989,0.6725835204124451,0.0,0.0,0.0
0,-0.025390805676579475,0.07595308125019073,-0.7333969473838806,0.6727234125137329,0.0,0.0,0.0
0,-0.025744488462805748,0.07648361474275589,-0.7337853908538818,0.6722263693809509,0.0,0.0,0.0
0,-0.02607695199549198,0.07693429291248322,-0.7335989475250244,0.6723651885986328,0.0,0.0,0.0
0,-0.026584219187498093,0.07697541266679764,-0.7338417172431946,0.6720759868621826,0.0,0.0,0.0
0,-0.027284102514386177,0.07764684408903122,-0.733916699886322,0.6718887686729431,0.0,0.0,0.0
0,-0.027557769790291786,0.07816527783870697,-0.7337881326675415,0.6719574928283691,0.0,0.0,0.0
0,-0.028076544404029846,0.07847888767719269,-0.7335205078125,0.6721919775009155,0.0,0.0,0.0
0,-0.02851579710841179,0.07826638966798782,-0.733870267868042,0.6718162298202515,0.0,0.0,0.0
0,-0.028894471004605293,0.0791669711470604,-0.7338485717773438,0.6717188954353333,0.0,0.0,0.0
0,-0.029453400522470474,0.07944032549858093,-0.7341617345809937,0.6713194251060486,0.0,0.0,0.0
0,-0.02971726655960083,0.08027323335409164,-0.7341617345809937,0.671208381652832,0.0,0.0,0.0
0,-0.03005702793598175,0.08093997091054916,-0.733709990978241,0.6716071963310242,0.0,0.0,0.0
0,-0.03001977689564228,0.08142682909965515,-0.7337754964828491,0.6714788675308228,0.0,0.0,0.0
0,-0.029888581484556198,0.08183087408542633,-0.7338088154792786,0.6713987588882446,0.0,0.0,0.0
0,-0.030159544199705124,0.0821172446012497,-0.7340202331542969,0.6711207032203674,0.0,0.0,0.0
0,-0.03039814531803131,0.08200592547655106,-0.7341996431350708,0.6709274053573608,0.0,0.0,0.0
0,-0.03075280971825123,0.08243411034345627,-0.7342413067817688,0.6708130836486816,0.0,0.0,0.0
0,-0.030929064378142357,0.08302223682403564,-0.7341389060020447,0.6708443760871887,0.0,0.0,0.0
0,-0.03153171390295029,0.08336605131626129,-0.7342645525932312,0.6706362366676331,0.0,0.0,0.0
0,-0.03157433122396469,0.08357889950275421,-0.7344657778739929,0.6703871488571167,0.0,0.0,0.0
0,-0.0317988283932209,0.08342432230710983,-0.733995795249939,0.6709102988243103,0.0,0.0,0.0
0,-0.03204392269253731,0.0837811753153801,-0.7343924045562744,0.6704198122024536,0.0,0.0,0.0
0,-0.032259028404951096,0.08439643681049347,-0.7344167828559875,0.6703060269355774,0.0,0.0,0.0
0,-0.03261544555425644,0.08450224995613098,-0.7343153953552246,0.670386016368866,0.0,0.0,0.0
0,-0.0326661691069603,0.08497447520494461,-0.7344849705696106,0.6701380014419556,0.0,0.0,0.0
0,-0.03325463458895683,0.08532542735338211,-0.7345993518829346,0.6699393391609192,0.0,0.0,0.0
0,-0.03323880583047867,0.085325688123703,-0.7343289852142334,0.6702364087104797,0.0,0.0,0.0
0,-0.03330008685588837,0.08548011630773544,-0.7344182729721069,0.6701157689094543,0.0,0.0,0.0
0,-0.033459119498729706,0.0859886109828949,-0.7346196174621582,0.6698222756385803,0.0,0.0,0.0
0,-0.033438749611377716,0.08624116331338882,-0.734736979007721,0.6696617007255554,0.0,0.0,0.0
0,-0.03352492302656174,0.08636324107646942,-0.7347927093505859,0.669580340385437,0.0,0.0,0.0
0,-0.03373134508728981,0.08633463084697723,-0.734863817691803,0.6694962978363037,0.0,0.0,0.0
0,-0.03376453369855881,0.08674101531505585,-0.7346028089523315,0.6697280406951904,0.0,0.0,0.0
0,-0.03431088477373123,0.08661072701215744,-0.7348732352256775,0.6694197654724121,0.0,0.0,0.0
0,-0.034831129014492035,0.08695942163467407,-0.7350013852119446,0.6692073941230774,0.0,0.0,0.0
0,-0.03477964550256729,0.08709864318370819,-0.7347517609596252,0.6694665551185608,0.0,0.0,0.0
0,-0.03532489761710167,0.08760298043489456,-0.7347725033760071,0.6693490147590637,0.0,0.0,0.0
0,-0.035462167114019394,0.08778050541877747,-0.7349121570587158,0.6691648960113525,0.0,0.0,0.0
0,-0.03605807572603226,0.0881260484457016,-0.7350596785545349,0.6689255833625793,0.0,0.0,0.0
0,-0.03662749379873276,0.08823303878307343,-0.7353867292404175,0.6685212254524231,0.0,0.0,0.0
0,-0.03682439401745796,0.08854435384273529,-0.7353828549385071,0.6684736609458923,0.0,0.0,0.0
0,-0.037288159132003784,0.08853726834058762,-0.7354133725166321,0.6684151887893677,0.0,0.0,0.0
0,-0.03808422386646271,0.08926647901535034,-0.7353571653366089,0.6683349609375,0.0,0.0,0.0
0,-0.0388176292181015,0.0889338031411171,-0.7350369095802307,0.6686888933181763,0.0,0.0,0.0
0,-0.03917097672820091,0.08941129595041275,-0.7351672053337097,0.6684625148773193,0.0,0.0,0.0
0,-0.039706163108348846,0.08988495171070099,-0.7354118824005127,0.6680979132652283,0.0,0.0,0.0
0,-0.04028605669736862,0.09022223204374313,-0.7353798151016235,0.6680518388748169,0.0,0.0,0.0
0,-0.04091067984700203,0.09085075557231903,-0.735156774520874,0.6681746244430542,0.0,0.0,0.0
0,-0.04146746173501015,0.09137795120477676,-0.7353565692901611,0.6678491234779358,0.0,0.0,0.0
0,-0.04157328978180885,0.09207012504339218,-0.7356532216072083,0.667419970035553,0.0,0.0,0.0
0,-0.042419739067554474,0.09241588413715363,-0.7356637120246887,0.6673071980476379,0.0,0.0,0.0
0,-0.04321780800819397,0.09284728765487671,-0.7357339262962341,0.667119026184082,0.0,0.0,0.0
0,-0.043992217630147934,0.09342457354068756,-0.7360544800758362,0.6666335463523865,0.0,0.0,0.0
0,-0.045029670000076294,0.093889519572258,-0.7361177206039429,0.6664286851882935,0.0,0.0,0.0
0,-0.04579553380608559,0.09443606436252594,-0.7363400459289551,0.6660535335540771,0.0,0.0,0.0
0,-0.04585396125912666,0.09493095427751541,-0.7367426156997681,0.6655339002609253,0.0,0.0,0.0
0,-0.04643666744232178,0.09532912820577621,-0.7363423109054565,0.665879487991333,0.0,0.0,0.0
0,-0.04695243388414383,0.09609399735927582,-0.7363061308860779,0.665773868560791,0.0,0.0,0.0
0,-0.04775456339120865,0.09706182777881622,-0.7359881401062012,0.6659286022186279,0.0,0.0,0.0
0,-0.04875669255852699,0.09808947890996933,-0.7359556555747986,0.6657413840293884,0.0,0.0,0.0
0,-0.049375101923942566,0.09859564900398254,-0.7363664507865906,0.6651661396026611,0.0,0.0,0.0
0,-0.049666862934827805,0.09915025532245636,-0.7362651228904724,0.6651738882064819,0.0,0.0,0.0
0,-0.05032949894666672,0.09953833371400833,-0.7363260388374329,0.6649985313415527,0.0,0.0,0.0
0,-0.05097396299242973,0.10059946775436401,-0.7366232872009277,0.6644608974456787,0.0,0.0,0.0
0,-0.05079074949026108,0.10070134699344635,-0.7366989850997925,0.6643750071525574,0.0,0.0,0.0
0,-0.05134692043066025,0.10107044130563736,-0.7368011474609375,0.6641618609428406,0.0,0.0,0.0
0,-0.05129663646221161,0.10119267553091049,-0.7366694808006287,0.664293646812439,0.0,0.0,0.0
0,-0.05154607817530632,0.1018376350402832,-0.7366778254508972,0.6641671061515808,0.0,0.0,0.0
0,-0.05212799087166786,0.10218072682619095,-0.7368565201759338,0.6638705134391785,0.0,0.0,0.0
0,-0.052477091550827026,0.10273764282464981,-0.7369899749755859,0.663608729839325,0.0,0.0,0.0
0,-0.05262286961078644,0.10281489789485931,-0.7368239760398865,0.6637692451477051,0.0,0.0,0.0
0,-0.05337994918227196,0.10307469218969345,-0.7367745041847229,0.6637235879898071,0.0,0.0,0.0
0,-0.053710103034973145,0.10349022597074509,-0.7367677092552185,0.663640558719635,0.0,0.0,0.0
0,-0.054270755499601364,0.10373853892087936,-0.7369087934494019,0.663399338722229,0.0,0.0,0.0
0,-0.05452842265367508,0.10405782610177994,-0.7369750142097473,0.6632542610168457,0.0,0.0,0.0
0,-0.05499996244907379,0.10383414477109909,-0.7369232177734375,0.6633079051971436,0.0,0.0,0.0
0,-0.054526157677173615,0.10403888672590256,-0.736805260181427,0.6634459495544434,0.0,0.0,0.0
0,-0.05417478084564209,0.10414180159568787,-0.7366995811462402,0.6635764241218567,0.0,0.0,0.0
0,-0.053846050053834915,0.10442352294921875,-0.7365627884864807,0.6637102365493774,0.0,0.0,0.0
0,-0.052960291504859924,0.10484291613101959,-0.7366651296615601,0.6636017560958862,0.0,0.0,0.0
0,-0.05279485136270523,0.10446175187826157,-0.7365238070487976,0.6638321876525879,0.0,0.0,0.0
0,-0.05264102667570114,0.10415728390216827,-0.7361747622489929,0.6642786860466003,0.0,0.0,0.0
0,-0.052796557545661926,0.10434490442276001,-0.7360809445381165,0.6643415093421936,0.0,0.0,0.0
0,-0.05250924453139305,0.10439224541187286,-0.7362292408943176,0.664193332195282,0.0,0.0,0.0
0,-0.052745576947927475,0.10440435260534286,-0.7361732125282288,0.6642339825630188,0.0,0.0,0.0
0,-0.052816689014434814,0.10433951020240784,-0.7361921668052673,0.6642178297042847,0.0,0.0,0.0
0,-0.05281379073858261,0.10413580387830734,-0.7364705204963684,0.6639411449432373,0.0,0.0,0.0
0,-0.05323350429534912,0.10361207276582718,-0.736625075340271,0.6638178825378418,0.0,0.0,0.0
0,-0.05276654288172722,0.10326635837554932,-0.7366049289703369,0.6639317870140076,0.0,0.0,0.0
0,-0.05284915864467621,0.1033242717385292,-0.7363276481628418,0.6642229557037354,0.0,0.0,0.0
0,-0.05262494459748268,0.10341620445251465,-0.7364096641540527,0.6641367077827454,0.0,0.0,0.0
0,-0.05264940857887268,0.10342130810022354,-0.7362034916877747,0.6643617749214172,0.0,0.0,0.0
0,-0.05223856121301651,0.10334912687540054,-0.7359902262687683,0.6646414399147034,0.0,0.0,0.0
0,-0.052315372973680496,0.104032501578331,-0.7357835173606873,0.6647576093673706,0.0,0.0,0.0
0,-0.05264843627810478,0.10417818278074265,-0.7356003522872925,0.6649115085601807,0.0,0.0,0.0
0,-0.052480410784482956,0.10412715375423431,-0.7358511686325073,0.6646555066108704,0.0,0.0,0.0
0,-0.052922360599040985,0.10403068363666534,-0.7360064387321472,0.6644636988639832,0.0,0.0,0.0
0,-0.05283038690686226,0.10410905629396439,-0.7360461354255676,0.6644142866134644,0.0,0.0,0.0
0,-0.05254487320780754,0.10393720865249634,-0.7362257838249207,0.6642650961875916,0.0,0.0,0.0
0,-0.0525563545525074,0.10370846092700958,-0.7361485362052917,0.6643852591514587,0.0,0.0,0.0
0,-0.05470147356390953,0.10350678861141205,-0.7368294596672058,0.6634878516197205,0.0,0.0,0.0
0,-0.05483188480138779,0.10398951917886734,-0.7369332313537598,0.6632858514785767,0.0,0.0,0.0
0,-0.054962269961833954,0.10417234897613525,-0.736977756023407,0.6631976962089539,0.0,0.0,0.0
0,-0.055342089384794235,0.10455408692359924,-0.7369468212127686,0.6631394624710083,0.0,0.0,0.0
0,-0.05592310056090355,0.10455029457807541,-0.7370787262916565,0.6629452705383301,0.0,0.0,0.0
0,-0.056032367050647736,0.10481631010770798,-0.7372342944145203,0.6627209186553955,0.0,0.0,0.0
0,-0.05612138286232948,0.10483338683843613,-0.7371430993080139,0.6628117561340332,0.0,0.0,0.0
0,-0.05598902329802513,0.10486946254968643,-0.7370752692222595,0.6628929972648621,0.0,0.0,0.0
0,-0.056318964809179306,0.1049247607588768,-0.7370414733886719,0.6628941297531128,0.0,0.0,0.0
0,-0.056070875376462936,0.10502135753631592,-0.737174391746521,0.662752091884613,0.0,0.0,0.0
0,-0.056346263736486435,0.10496819764375687,-0.7373706102371216,0.6625184416770935,0.0,0.0,0.0
0,-0.05694151669740677,0.1048392504453659,-0.737575352191925,0.6622601747512817,0.0,0.0,0.0
0,-0.056684404611587524,0.10556692630052567,-0.7377164959907532,0.6620092391967773,0.0,0.0,0.0
0,-0.05654073506593704,0.10563172399997711,-0.7378139495849609,0.6619023680686951,0.0,0.0,0.0
0,-0.05694598704576492,0.10600386559963226,-0.737673282623291,0.6619645357131958,0.0,0.0,0.0
0,-0.057027362287044525,0.1060984805226326,-0.7376667857170105,0.6619503498077393,0.0,0.0,0.0
0,-0.05759697034955025,0.10629244148731232,-0.737707793712616,0.661823570728302,0.0,0.0,0.0
0,-0.05775677412748337,0.10624171793460846,-0.7374253869056702,0.6621330380439758,0.0,0.0,0.0
0,-0.0579269640147686,0.10633949935436249,-0.7373537421226501,0.6621827483177185,0.0,0.0,0.0
0,-0.05789613723754883,0.10667417198419571,-0.7373520731925964,0.6621326804161072,0.0,0.0,0.0
0,-0.057762760668992996,0.10674236714839935,-0.7372434139251709,0.6622547507286072,0.0,0.0,0.0
0,-0.05775598809123039,0.10694301128387451,-0.7373043298721313,0.6621545553207397,0.0,0.0,0.0
0,-0.05795523524284363,0.10773270577192307,-0.7370054721832275,0.6623418927192688,0.0,0.0,0.0
0,-0.057752251625061035,0.1079915314912796,-0.7371000647544861,0.6622123718261719,0.0,0.0,0.0
0,-0.057697370648384094,0.10849983245134354,-0.736976683139801,0.6622714996337891,0.0,0.0,0.0
0,-0.0578887015581131,0.10896310210227966,-0.7370244264602661,0.6621250510215759,0.0,0.0,0.0
0,-0.058146022260189056,0.10929041355848312,-0.737177312374115,0.6618784070014954,0.0,0.0,0.0
0,-0.058488573879003525,0.10934116691350937,-0.7373640537261963,0.6616319417953491,0.0,0.0,0.0
0,-0.058692242950201035,0.10944471508264542,-0.7373914122581482,0.6615657210350037,0.0,0.0,0.0
0,-0.05901224911212921,0.10949470847845078,-0.7373972535133362,0.6615225076675415,0.0,0.0,0.0
0,-0.059349481016397476,0.10968223214149475,-0.7371923923492432,0.6616894006729126,0.0,0.0,0.0
0,-0.05971924588084221,0.11009671539068222,-0.737273097038269,0.6614977717399597,0.0,0.0,0.0
0,-0.05971614643931389,0.11032800376415253,-0.7372258305549622,0.6615122556686401,0.0,0.0,0.0
0,-0.059680771082639694,0.11040545254945755,-0.7372063994407654,0.6615241169929504,0.0,0.0,0.0
0,-0.05917763337492943,0.11126212775707245,-0.7370496988296509,0.6615998148918152,0.0,0.0,0.0
0,-0.059351351112127304,0.11128348112106323,-0.7371456623077393,0.6614746451377869,0.0,0.0,0.0
0,-0.0594833679497242,0.11156126856803894,-0.7371279001235962,0.661435604095459,0.0,0.0,0.0
0,-0.05966602638363838,0.11149439215660095,-0.7370114922523499,0.6615602374076843,0.0,0.0,0.0
0,-0.05957169458270073,0.1117001324892044,-0.7369114756584167,0.6616452932357788,0.0,0.0,0.0
0,-0.059707142412662506,0.11181923002004623,-0.736990213394165,0.6615259051322937,0.0,0.0,0.0
0,-0.05970320850610733,0.11187706142663956,-0.7371917366981506,0.6612919569015503,0.0,0.0,0.0
0,-0.05962838605046272,0.11182468384504318,-0.737417459487915,0.6610549092292786,0.0,0.0,0.0
0,-0.059659481048583984,0.11197774112224579,-0.7374328970909119,0.6610086560249329,0.0,0.0,0.0
0,-0.059730228036642075,0.11194341629743576,-0.7373865246772766,0.661060094833374,0.0,0.0,0.0
0,-0.05987286567687988,0.1120048388838768,-0.737307608127594,0.661125123500824,0.0,0.0,0.0
0,-0.059637971222400665,0.11207599192857742,-0.7370938062667847,0.6613730192184448,0.0,0.0,0.0
0,-0.0593368262052536,0.11221463233232498,-0.7368589639663696,0.6616377830505371,0.0,0.0,0.0
0,-0.05996888503432274,0.11222165077924728,-0.7368558645248413,0.6615831255912781,0.0,0.0,0.0
0,-0.060125987976789474,0.11231846362352371,-0.7369005084037781,0.6615027189254761,0.0,0.0,0.0
0,-0.05998208746314049,0.11256825178861618,-0.7369961738586426,0.6613671779632568,0.0,0.0,0.0
0,-0.05991063639521599,0.11294759064912796,-0.7370938062667847,0.6611992716789246,0.0,0.0,0.0
0,-0.06001982092857361,0.11281871050596237,-0.7370468974113464,0.6612638235092163,0.0,0.0,0.0
0,-0.058520086109638214,0.11398163437843323,-0.7361913323402405,0.6621500849723816,0.0,0.0,0.0
0,-0.008301989175379276,0.1551951915025711,-0.6939265131950378,0.7008800506591797,0.0,0.0,0.0
0,-0.11290670186281204,0.12973441183567047,-0.7599714994430542,0.62435382604599,0.0,0.0,0.0
0,-0.15674768388271332,0.15754567086696625,-0.7558584213256836,0.6133292317390442,0.0,0.0,0.0
0,-0.1568712741136551,0.16626249253749847,-0.7467154264450073,0.6220403909683228,0.0,0.0,0.0
0,-0.08904457092285156,0.22972968220710754,-0.7105140089988708,0.6569715142250061,0.0,0.0,0.0
0,-0.10317004472017288,0.2134372740983963,-0.7237587571144104,0.6455870270729065,0.0,0.0,0.0
0,-0.10498198121786118,0.20874321460723877,-0.7259333729743958,0.6443905234336853,0.0,0.0,0.0
0,-0.10673240572214127,0.20382745563983917,-0.7277602553367615,0.6436188817024231,0.0,0.0,0.0
0,-0.10804343223571777,0.19887250661849976,-0.7294750213623047,0.6430104970932007,0.0,0.0,0.0
0,-0.10952594131231308,0.19482915103435516,-0.7306035757064819,0.6427183151245117,0.0,0.0,0.0
0,-0.11068480461835861,0.19122543931007385,-0.7313884496688843,0.6427108645439148,0.0,0.0,0.0
0,-0.11172284185886383,0.18791696429252625,-0.7321543097496033,0.642636775970459,0.0,0.0,0.0
0,-0.11251489073038101,0.18470774590969086,-0.7328718304634094,0.6426118016242981,0.0,0.0,0.0
0,-0.1129855141043663,0.18173420429229736,-0.733421266078949,0.6427512764930725,0.0,0.0,0.0
0,-0.11285289376974106,0.17962601780891418,-0.7334699630737305,0.643312931060791,0.0,0.0,0.0
0,-0.11135204136371613,0.17929163575172424,-0.7327085733413696,0.6445335745811462,0.0,0.0,0.0
0,-0.1110963374376297,0.17350314557552338,-0.7334836721420288,0.6452812552452087,0.0,0.0,0.0
0,-0.11066983640193939,0.17125381529331207,-0.7337333559989929,0.6456723213195801,0.0,0.0,0.0
0,-0.11055102944374084,0.16970878839492798,-0.7339518666267395,0.6458531022071838,0.0,0.0,0.0
0,-0.11016009747982025,0.16819287836551666,-0.7343840599060059,0.6458247303962708,0.0,0.0,0.0
0,-0.10968425869941711,0.16650348901748657,-0.7344571352005005,0.6462606191635132,0.0,0.0,0.0
0,-0.10894393175840378,0.16503219306468964,-0.7348312139511108,0.6463379263877869,0.0,0.0,0.0
0,-0.10848238319158554,0.1634499728679657,-0.7351842522621155,0.6464163661003113,0.0,0.0,0.0
0,-0.10805380344390869,0.16207557916641235,-0.7351030707359314,0.6469262838363647,0.0,0.0,0.0
0,-0.10775616765022278,0.16091056168079376,-0.7354161739349365,0.6469103693962097,0.0,0.0,0.0
0,-0.10796670615673065,0.15960195660591125,-0.7355566024780273,0.6470407247543335,0.0,0.0,0.0
0,-0.10727281123399734,0.15867404639720917,-0.7356802225112915,0.6472434401512146,0.0,0.0,0.0
0,-0.10682759433984756,0.15770040452480316,-0.7359588146209717,0.6472384929656982,0.0,0.0,0.0
0,-0.10635831207036972,0.15666355192661285,-0.7361796498298645,0.6473163962364197,0.0,0.0,0.0
0,-0.10548941045999527,0.15574778616428375,-0.7362593412399292,0.6475886106491089,0.0,0.0,0.0
0,-0.10501158237457275,0.15480023622512817,-0.7364397048950195,0.6476892828941345,0.0,0.0,0.0
0,-0.10436467081308365,0.15405075252056122,-0.7368497848510742,0.6475050449371338,0.0,0.0,0.0
0,-0.10359964519739151,0.15295292437076569,-0.7371302843093872,0.6475692391395569,0.0,0.0,0.0
0,-0.1026642844080925,0.15176387131214142,-0.7371339797973633,0.6479931473731995,0.0,0.0,0.0
0,-0.10221157222986221,0.15107125043869019,-0.7372185587882996,0.6481305360794067,0.0,0.0,0.0
0,-0.10134517401456833,0.15047185122966766,-0.7374953627586365,0.6480915546417236,0.0,0.0,0.0
0,-0.1011103168129921,0.14995941519737244,-0.7373835444450378,0.6483731269836426,0.0,0.0,0.0
0,-0.10082201659679413,0.1495314985513687,-0.7374724745750427,0.6484161019325256,0.0,0.0,0.0
0,-0.10009633004665375,0.14892220497131348,-0.737330973148346,0.6488298177719116,0.0,0.0,0.0
0,-0.09944882988929749,0.14838886260986328,-0.7372084856033325,0.6491913795471191,0.0,0.0,0.0
0,-0.09424647688865662,0.15381647646427155,-0.7346245050430298,0.6516289710998535,0.0,0.0,0.0
0,-0.09231164306402206,0.1536027044057846,-0.7330287098884583,0.6537500619888306,0.0,0.0,0.0
0,-0.08829505741596222,0.15606682002544403,-0.7321900129318237,0.6546617150306702,0.0,0.0,0.0
0,-0.09205524623394012,0.15238982439041138,-0.733375072479248,0.6536828279495239,0.0,0.0,0.0
0,-0.09436995536088943,0.14974096417427063,-0.7359933853149414,0.6510140299797058,0.0,0.0,0.0
0,-0.09948880225419998,0.14490467309951782,-0.7354487180709839,0.6519641280174255,0.0,0.0,0.0
0,-0.09923868626356125,0.14403285086154938,-0.7362114191055298,0.6513341069221497,0.0,0.0,0.0
0,-0.09874041378498077,0.1435631662607193,-0.7366021275520325,0.6510715484619141,0.0,0.0,0.0
0,-0.09783825278282166,0.14399653673171997,-0.7367904782295227,0.6508973836898804,0.0,0.0,0.0
0,-0.09736562520265579,0.14338290691375732,-0.7371436357498169,0.6507039666175842,0.0,0.0,0.0
0,-0.09701550751924515,0.14316196739673615,-0.7371717095375061,0.6507725715637207,0.0,0.0,0.0
0,-0.09648831188678741,0.14261581003665924,-0.7371364235877991,0.6510108113288879,0.0,0.0,0.0
0,-0.09578470885753632,0.14243198931217194,-0.7371297478675842,0.6511629819869995,0.0,0.0,0.0
0,-0.09488441050052643,0.14182090759277344,-0.7374351620674133,0.6510822772979736,0.0,0.0,0.0
0,-0.09251013398170471,0.1406886875629425,-0.737452507019043,0.6516497731208801,0.0,0.0,0.0
0,-0.09205933660268784,0.1406598538160324,-0.7373520731925964,0.6518332362174988,0.0,0.0,0.0
0,-0.09129313379526138,0.14031192660331726,-0.737379252910614,0.6519857048988342,0.0,0.0,0.0
0,-0.09080886840820312,0.14012804627418518,-0.7374581098556519,0.6520035862922668,0.0,0.0,0.0
0,-0.0910230427980423,0.139700248837471,-0.7377747297286987,0.651706874370575,0.0,0.0,0.0
0,-0.0905660018324852,0.1394396424293518,-0.7379224300384521,0.6516590118408203,0.0,0.0,0.0
0,-0.09047777950763702,0.1385846734046936,-0.7375736832618713,0.652248740196228,0.0,0.0,0.0
0,-0.09016942232847214,0.13819245994091034,-0.7375982403755188,0.6523467898368835,0.0,0.0,0.0
0,-0.08919891715049744,0.13797138631343842,-0.7376073002815247,0.6525166630744934,0.0,0.0,0.0
0,-0.08908689767122269,0.1374005526304245,-0.7377258539199829,0.6525184512138367,0.0,0.0,0.0
0,-0.08869831264019012,0.13650591671466827,-0.7378811240196228,0.6525838971138,0.0,0.0,0.0
0,-0.08778748661279678,0.13662505149841309,-0.737541675567627,0.6530653834342957,0.0,0.0,0.0
0,-0.08728968352079391,0.13529720902442932,-0.7378568053245544,0.6530517935752869,0.0,0.0,0.0
0,-0.08623509109020233,0.13496652245521545,-0.7378682494163513,0.6532483696937561,0.0,0.0,0.0
0,-0.08584565669298172,0.13436631858348846,-0.7380844950675964,0.6531792879104614,0.0,0.0,0.0
0,-0.08532749861478806,0.13356535136699677,-0.7381569743156433,0.6533282995223999,0.0,0.0,0.0
0,-0.08447267860174179,0.13336946070194244,-0.737970232963562,0.6536911129951477,0.0,0.0,0.0
0,-0.08398725092411041,0.13319961726665497,-0.7377339601516724,0.654055118560791,0.0,0.0,0.0
0,-0.0838179960846901,0.13240858912467957,-0.7380785942077637,0.6538482308387756,0.0,0.0,0.0
0,-0.08314619213342667,0.13161146640777588,-0.7380571961402893,0.6541187167167664,0.0,0.0,0.0
0,-0.08271732181310654,0.13072578608989716,-0.738175094127655,0.6542170643806458,0.0,0.0,0.0
0,-0.0820716917514801,0.13056516647338867,-0.7379704117774963,0.65456223487854,0.0,0.0,0.0
0,-0.08130019158124924,0.1296323984861374,-0.7380282282829285,0.6547785997390747,0.0,0.0,0.0
0,-0.08044177293777466,0.12862281501293182,-0.7377150058746338,0.6554371118545532,0.0,0.0,0.0
0,-0.07918845117092133,0.1280880868434906,-0.7375235557556152,0.6559097170829773,0.0,0.0,0.0
0,-0.07877776771783829,0.12763524055480957,-0.7375931739807129,0.6559696793556213,0.0,0.0,0.0
0,-0.07764838635921478,0.1271485835313797,-0.7374218702316284,0.6563913226127625,0.0,0.0,0.0
0,-0.07599376142024994,0.12667493522167206,-0.7374826669692993,0.6566073298454285,0.0,0.0,0.0
0,-0.07545345276594162,0.12585608661174774,-0.7373617887496948,0.6569628119468689,0.0,0.0,0.0
0,-0.07425281405448914,0.12484791874885559,-0.7373191714286804,0.6573402285575867,0.0,0.0,0.0
0,-0.07338438928127289,0.12425494939088821,-0.7372497320175171,0.657627284526825,0.0,0.0,0.0
0,-0.07263205200433731,0.12325388938188553,-0.7373576760292053,0.6577789783477783,0.0,0.0,0.0
0,-0.07178664207458496,0.1225321963429451,-0.7372819185256958,0.6580907702445984,0.0,0.0,0.0
0,-0.07099570333957672,0.12179664522409439,-0.7373393177986145,0.6582497954368591,0.0,0.0,0.0
0,-0.07021258026361465,0.12087119370698929,-0.7372584939002991,0.6585953831672668,0.0,0.0,0.0
0,-0.06971406191587448,0.12029417604207993,-0.7373248934745789,0.6586789488792419,0.0,0.0,0.0
0,-0.06912413984537125,0.11997386813163757,-0.7368053793907166,0.659379780292511,0.0,0.0,0.0
0,-0.06861667335033417,0.11923310160636902,-0.736813485622406,0.6595587730407715,0.0,0.0,0.0
0,-0.06802533566951752,0.11816919595003128,-0.7370524406433105,0.6595442891120911,0.0,0.0,0.0
0,-0.06795328110456467,0.11699611693620682,-0.7373762130737305,0.6593986749649048,0.0,0.0,0.0
0,-0.06766568124294281,0.11694234609603882,-0.737282931804657,0.6595425605773926,0.0,0.0,0.0
0,-0.06689807027578354,0.11630428582429886,-0.7370643615722656,0.6599774956703186,0.0,0.0,0.0
0,-0.06612274795770645,0.11564015597105026,-0.7371200323104858,0.6601108312606812,0.0,0.0,0.0
0,-0.06539660692214966,0.11575696617364883,-0.7370168566703796,0.6602778434753418,0.0,0.0,0.0
0,-0.06507040560245514,0.1152995228767395,-0.7369539737701416,0.6604605913162231,0.0,0.0,0.0
0,-0.06450164318084717,0.11493133008480072,-0.7369551658630371,0.6605787873268127,0.0,0.0,0.0
0,-0.06402070820331573,0.11434686183929443,-0.737021803855896,0.6606530547142029,0.0,0.0,0.0
0,-0.06334321200847626,0.11386923491954803,-0.736935555934906,0.6608965992927551,0.0,0.0,0.0
0,-0.0628180131316185,0.11380523443222046,-0.7370674014091492,0.6608108878135681,0.0,0.0,0.0
0,-0.06255277246236801,0.11382804811000824,-0.7369311451911926,0.6609834432601929,0.0,0.0,0.0
0,-0.06183294579386711,0.11334843933582306,-0.7372939586639404,0.660728394985199,0.0,0.0,0.0
0,-0.0612221397459507,0.11301744729280472,-0.7372564673423767,0.6608844995498657,0.0,0.0,0.0
0,-0.06083430349826813,0.11233673244714737,-0.73713219165802,0.6611745357513428,0.0,0.0,0.0
0,-0.06060817837715149,0.11198176443576813,-0.7369950413703918,0.6614092588424683,0.0,0.0,0.0
0,-0.06060359254479408,0.11149909347295761,-0.7370452284812927,0.6614347100257874,0.0,0.0,0.0
0,-0.060246873646974564,0.11115039139986038,-0.7369353771209717,0.6616491675376892,0.0,0.0,0.0
0,-0.060001518577337265,0.11079225689172745,-0.7369087934494019,0.6617608070373535,0.0,0.0,0.0
0,-0.059368010610342026,0.11025123298168182,-0.7369839549064636,0.6618250012397766,0.0,0.0,0.0
0,-0.059187378734350204,0.11021159589290619,-0.7365946769714355,0.6622804403305054,0.0,0.0,0.0
0,-0.05884087085723877,0.1100507602095604,-0.7368110418319702,0.6620978116989136,0.0,0.0,0.0
0,-0.058856233954429626,0.10988708585500717,-0.7365553975105286,0.6624075174331665,0.0,0.0,0.0
0,-0.05863631144165993,0.10994883626699448,-0.7365857362747192,0.6623839139938354,0.0,0.0,0.0
0,-0.05840945616364479,0.10991162061691284,-0.7362657785415649,0.6627655625343323,0.0,0.0,0.0
0,-0.05860862880945206,0.10986553132534027,-0.7364414930343628,0.662560760974884,0.0,0.0,0.0
0,-0.058282237499952316,0.11023591458797455,-0.7363276481628418,0.6626545190811157,0.0,0.0,0.0
0,-0.058119215071201324,0.11023056507110596,-0.7363876700401306,0.6626024842262268,0.0,0.0,0.0
0,-0.05826525017619133,0.11038630455732346,-0.7364305853843689,0.6625164747238159,0.0,0.0,0.0
0,-0.05822150036692619,0.11048556864261627,-0.7364960312843323,0.6624310612678528,0.0,0.0,0.0
0,-0.057977885007858276,0.11077649146318436,-0.7364472150802612,0.6624577641487122,0.0,0.0,0.0
0,-0.05809394642710686,0.11035094410181046,-0.7365916967391968,0.662357747554779,0.0,0.0,0.0
0,-0.05806544050574303,0.10989926010370255,-0.7366058826446533,0.6624201536178589,0.0,0.0,0.0
0,-0.057863131165504456,0.11002355813980103,-0.7365512251853943,0.6624780297279358,0.0,0.0,0.0
0,-0.057573579251766205,0.1100868508219719,-0.7365727424621582,0.6624679565429688,0.0,0.0,0.0
0,-0.057421088218688965,0.10976676642894745,-0.7364380359649658,0.6626840829849243,0.0,0.0,0.0
0,-0.057445283979177475,0.10962104797363281,-0.7366911172866821,0.6624245047569275,0.0,0.0,0.0
0,-0.05729178711771965,0.10981200635433197,-0.7365497350692749,0.6625639796257019,0.0,0.0,0.0
0,-0.057060714811086655,0.10963109135627747,-0.736427366733551,0.6627495884895325,0.0,0.0,0.0
0,-0.05687941610813141,0.10930968821048737,-0.7366886138916016,0.6625284552574158,0.0,0.0,0.0
0,-0.05641791969537735,0.10924217104911804,-0.7365527153015137,0.662729799747467,0.0,0.0,0.0
0,-0.05626394972205162,0.10887148231267929,-0.7365416884422302,0.662816047668457,0.0,0.0,0.0
0,-0.05593657121062279,0.10863716155290604,-0.7368471026420593,0.6625432372093201,0.0,0.0,0.0
0,-0.05570197477936745,0.10856269299983978,-0.7370071411132812,0.6623963117599487,0.0,0.0,0.0
0,-0.055750954896211624,0.108128122985363,-0.737029492855072,0.6624387502670288,0.0,0.0,0.0
0,-0.05550315976142883,0.10786795616149902,-0.736997663974762,0.6625370383262634,0.0,0.0,0.0
0,-0.055780280381441116,0.10756565630435944,-0.7369233965873718,0.6626455783843994,0.0,0.0,0.0
0,-0.056019969284534454,0.10676803439855576,-0.736903727054596,0.6627769470214844,0.0,0.0,0.0
0,-0.056041307747364044,0.10700149089097977,-0.736893355846405,0.6627487540245056,0.0,0.0,0.0
0,-0.055966801941394806,0.10696711391210556,-0.7369221448898315,0.6627278923988342,0.0,0.0,0.0
0,-0.05585785582661629,0.10708970576524734,-0.7368210554122925,0.6628299951553345,0.0,0.0,0.0
0,-0.05599045380949974,0.10693521797657013,-0.7368180155754089,0.6628478169441223,0.0,0.0,0.0
0,-0.05608204007148743,0.10638710111379623,-0.7371440529823303,0.6625655889511108,0.0,0.0,0.0
0,-0.055754344910383224,0.10644040256738663,-0.7373089790344238,0.6624008417129517,0.0,0.0,0.0
0,-0.05605221539735794,0.10634969919919968,-0.7374361753463745,0.6622477173805237,0.0,0.0,0.0
0,-0.05634578317403793,0.10599206387996674,-0.7375280857086182,0.6621785759925842,0.0,0.0,0.0
0,-0.05637247487902641,0.10583501309156418,-0.7375830411911011,0.6621396541595459,0.0,0.0,0.0
0,-0.05683240666985512,0.10580207407474518,-0.7376652359962463,0.6620139479637146,0.0,0.0,0.0
0,-0.05734148621559143,0.10623613744974136,-0.7377206087112427,0.661838710308075,0.0,0.0,0.0
0,-0.05723202973604202,0.10716143250465393,-0.7375710606575012,0.6618664264678955,0.0,0.0,0.0
0,-0.05763113498687744,0.10647779703140259,-0.7378661036491394,0.6616126298904419,0.0,0.0,0.0
0,-0.05749843269586563,0.1066562607884407,-0.7378986477851868,0.6615588068962097,0.0,0.0,0.0
0,-0.05792459845542908,0.10706210136413574,-0.7377832531929016,0.6615846157073975,0.0,0.0,0.0
0,-0.05827478691935539,0.10714418441057205,-0.7379472255706787,0.6613587141036987,0.0,0.0,0.0
0,-0.05835151672363281,0.10748268663883209,-0.7380242347717285,0.6612108945846558,0.0,0.0,0.0
0,-0.058453015983104706,0.10752618312835693,-0.7381859421730042,0.6610140204429626,0.0,0.0,0.0
0,-0.05873287469148636,0.10783068090677261,-0.7382221817970276,0.6608984470367432,0.0,0.0,0.0
0,-0.05853084847331047,0.10785608738660812,-0.7380335330963135,0.6611238121986389,0.0,0.0,0.0
0,-0.05864659696817398,0.10807710140943527,-0.7381318211555481,0.6609673500061035,0.0,0.0,0.0
0,-0.058862313628196716,0.10839775949716568,-0.7381623983383179,0.6608604192733765,0.0,0.0,0.0
0,-0.05899783596396446,0.10851170122623444,-0.7380045056343079,0.6610047817230225,0.0,0.0,0.0
0,-0.05894545465707779,0.10921137779951096,-0.7377147078514099,0.6612198948860168,0.0,0.0,0.0
0,-0.05972320958971977,0.10917524993419647,-0.737934410572052,0.6609100699424744,0.0,0.0,0.0
0,-0.05982130393385887,0.10928714275360107,-0.7378326654434204,0.6609973311424255,0.0,0.0,0.0
0,-0.0604233518242836,0.10949603468179703,-0.7379347681999207,0.6607944369316101,0.0,0.0,0.0
0,-0.06075150519609451,0.11000753939151764,-0.738046407699585,0.6605530977249146,0.0,0.0,0.0
0,-0.06064768135547638,0.11012385040521622,-0.7381466627120972,0.6604324579238892,0.0,0.0,0.0
0,-0.06044641509652138,0.11057481169700623,-0.7383785247802734,0.6601151823997498,0.0,0.0,0.0
0,-0.06091511622071266,0.11101970821619034,-0.7383310794830322,0.6600499749183655,0.0,0.0,0.0
0,-0.0612531416118145,0.11135116219520569,-0.7381426095962524,0.6601741909980774,0.0,0.0,0.0
0,-0.06143515557050705,0.11122547835111618,-0.738014817237854,0.6603222489356995,0.0,0.0,0.0
0,-0.0616140142083168,0.1116330698132515,-0.7380685210227966,0.6601762175559998,0.0,0.0,0.0
0,-0.06091715395450592,0.11253571510314941,-0.737658679485321,0.6605455875396729,0.0,0.0,0.0
0,-0.061600808054208755,0.11255349963903427,-0.7378877401351929,0.660223662853241,0.0,0.0,0.0
0,-0.061780184507369995,0.11264656484127045,-0.7379409670829773,0.6601313352584839,0.0,0.0,0.0
0,-0.062067583203315735,0.1126287579536438,-0.7381006479263306,0.6599277257919312,0.0,0.0,0.0
0,-0.06206240504980087,0.11244051903486252,-0.7380871176719666,0.6599767208099365,0.0,0.0,0.0
0,-0.06264805793762207,0.11260119080543518,-0.7380422949790955,0.6599438190460205,0.0,0.0,0.0
0,-0.06255839020013809,0.11248309910297394,-0.7382123470306396,0.6597819328308105,0.0,0.0,0.0
0,-0.06323150545358658,0.11271879822015762,-0.7382741570472717,0.6596083641052246,0.0,0.0,0.0
0,-0.06309192627668381,0.11270689219236374,-0.7383841276168823,0.6595011353492737,0.0,0.0,0.0
0,-0.06363627314567566,0.11261839419603348,-0.7385173439979553,0.6593140959739685,0.0,0.0,0.0
0,-0.06366885453462601,0.11320440471172333,-0.7383177280426025,0.65943443775177,0.0,0.0,0.0
0,-0.06377405673265457,0.11376354098320007,-0.7382501363754272,0.6594035029411316,0.0,0.0,0.0
0,-0.06361793726682663,0.11398165673017502,-0.7380574345588684,0.6595967411994934,0.0,0.0,0.0
0,-0.06393033266067505,0.11453765630722046,-0.7379662394523621,0.6595725417137146,0.0,0.0,0.0
0,-0.06385716795921326,0.11461426317691803,-0.7379220724105835,0.6596152186393738,0.0,0.0,0.0
0,-0.0635044202208519,0.11482669413089752,-0.7379465699195862,0.6595853567123413,0.0,0.0,0.0
0,-0.06337715685367584,0.11478866636753082,-0.7380346655845642,0.6595054864883423,0.0,0.0,0.0
0,-0.06346559524536133,0.11480364203453064,-0.7380437850952148,0.6594843864440918,0.0,0.0,0.0
0,-0.06330754607915878,0.11459709703922272,-0.7379971146583557,0.6595867276191711,0.0,0.0,0.0
0,-0.0633966252207756,0.11481188982725143,-0.7378026247024536,0.6597591638565063,0.0,0.0,0.0
0,-0.06401117891073227,0.11488032341003418,-0.7377470135688782,0.6597504019737244,0.0,0.0,0.0
0,-0.06453991681337357,0.11495491117238998,-0.737881600856781,0.6595348119735718,0.0,0.0,0.0
0,-0.06523028761148453,0.11537730693817139,-0.7380074262619019,0.6592516899108887,0.0,0.0,0.0
0,-0.06590291857719421,0.11554843187332153,-0.7379395365715027,0.6592319011688232,0.0,0.0,0.0
0,-0.06659206002950668,0.1153814047574997,-0.7379468679428101,0.6591823101043701,0.0,0.0,0.0
0,-0.06706906855106354,0.11619572341442108,-0.7377154231071472,0.6592508554458618,0.0,0.0,0.0
0,-0.06688056886196136,0.11662712693214417,-0.7377814054489136,0.6591202020645142,0.0,0.0,0.0
0,-0.06736139953136444,0.11737953126430511,-0.7379156351089478,0.6587867736816406,0.0,0.0,0.0
0,-0.06763019412755966,0.11766365170478821,-0.7378584146499634,0.6587733626365662,0.0,0.0,0.0
0,-0.06766324490308762,0.11765504628419876,-0.737959086894989,0.6586585640907288,0.0,0.0,0.0
0,-0.06842855364084244,0.11770246177911758,-0.7382423877716064,0.6582529544830322,0.0,0.0,0.0
0,-0.06927108764648438,0.11814310401678085,-0.7382159233093262,0.6581151485443115,0.0,0.0,0.0
0,-0.06919223070144653,0.1185913011431694,-0.7379615902900696,0.6583284735679626,0.0,0.0,0.0
0,-0.07009707391262054,0.11814674735069275,-0.7378403544425964,0.6584494709968567,0.0,0.0,0.0
0,-0.0698460191488266,0.11893348395824432,-0.7376492619514465,0.6585481762886047,0.0,0.0,0.0
0,-0.07063338160514832,0.11875888705253601,-0.7376823425292969,0.6584584712982178,0.0,0.0,0.0
0,-0.07029277086257935,0.11907091736793518,-0.7376133799552917,0.6585167646408081,0.0,0.0,0.0
0,-0.07031042128801346,0.11918286979198456,-0.7374640703201294,0.6586610674858093,0.0,0.0,0.0
0,-0.07003534585237503,0.11930440366268158,-0.7374598383903503,0.6586734652519226,0.0,0.0,0.0
0,-0.07000285387039185,0.11939114332199097,-0.7372482419013977,0.6588979363441467,0.0,0.0,0.0
0,-0.06931477040052414,0.11928043514490128,-0.737143874168396,0.65910804271698,0.0,0.0,0.0
0,-0.06862656027078629,0.1193685531616211,-0.7368965744972229,0.6594405174255371,0.0,0.0,0.0
0,-0.06808318942785263,0.11939604580402374,-0.7368369102478027,0.6595584154129028,0.0,0.0,0.0
0,-0.06911244988441467,0.11792594939470291,-0.737464964389801,0.6590133905410767,0.0,0.0,0.0
0,0.4192243814468384,-0.02894609607756138,-0.784564733505249,0.4553895890712738,0.0,0.0,0.0
0,-0.24260738492012024,-0.5806335806846619,-0.4325411915779114,0.6450672149658203,0.0,0.0,0.0
0,-0.364178866147995,-0.5594648122787476,0.1411450207233429,-0.7304814457893372,0.0,0.0,0.0
0,-0.16778434813022614,0.3599245548248291,0.41815218329429626,0.8162016272544861,0.0,0.0,0.0
0,0.7763926386833191,-0.3483215570449829,0.4756447374820709,0.2220909744501114,0.0,0.0,0.0
0,0.40193113684654236,-0.18387791514396667,-0.8506205081939697,-0.2838263511657715,0.0,0.0,0.0
0,0.3498159348964691,-0.24425168335437775,0.4236803352832794,0.7986674308776855,0.0,0.0,0.0
0,-0.40699031949043274,-0.14954707026481628,0.1213880330324173,-0.8925079107284546,0.0,0.0,0.0
0,-0.8003656268119812,0.28888002038002014,0.32105550169944763,-0.4132314622402191,0.0,0.0,0.0
0,-0.8463377952575684,0.4342242181301117,-0.29095637798309326,0.09678227454423904,0.0,0.0,0.0
0,0.13327322900295258,0.7800970673561096,-0.5982271432876587,0.11708872020244598,0.0,0.0,0.0
0,0.5603103637695312,0.36657336354255676,-0.17003890872001648,0.7208239436149597,0.0,0.0,0.0
0,0.5952585935592651,0.6165334582328796,-0.3915407359600067,-0.33485645055770874,0.0,0.0,0.0
0,0.6890136003494263,0.00576334772631526,0.7055903077125549,-0.1618688702583313,0.0,0.0,0.0
0,0.5285279154777527,0.2831876277923584,0.6833240389823914,-0.4129784405231476,0.0,0.0,0.0
0,0.5285279154777527,0.2831876277923584,0.6833240389823914,-0.4129784405231476,0.0,0.0,0.0
0,-0.23574396967887878,0.5755906105041504,-0.3067465126514435,-0.719383716583252,0.0,0.0,0.0
0,0.07273752987384796,-0.33307531476020813,-0.8321577906608582,-0.43392711877822876,0.0,0.0,0.0
0,-0.06439720839262009,-0.48228535056114197,-0.8606554269790649,-0.13837003707885742,0.0,0.0,0.0
0,0.0018299112562090158,-0.6716870069503784,-0.7259145379066467,-0.13603746891021729,0.0,0.0,0.0
0,0.11610661447048187,-0.6165621280670166,-0.7573099136352539,-0.1717149317264557,0.0,0.0,0.0
0,0.1306188404560089,-0.5542730093002319,-0.7932457327842712,-0.20764441788196564,0.0,0.0,0.0
0,0.00516287749633193,-0.4946247339248657,-0.8594725131988525,-0.11557488888502121,0.0,0.0,0.0
0,-0.08514837920665741,-0.4636385142803192,-0.867159366607666,-0.1498344987630844,0.0,0.0,0.0
0,-0.14160193502902985,-0.42392969131469727,-0.8876093029975891,-0.09489105641841888,0.0,0.0,0.0
0,-0.18794183433055878,-0.41366180777549744,-0.8846073746681213,-0.08748432248830795,0.0,0.0,0.0
0,-0.2981204390525818,-0.2755577564239502,-0.9121599197387695,-0.006019802764058113,0.0,0.0,0.0
0,-0.3721329867839813,0.4936921298503876,-0.6134256720542908,-0.4907534122467041,0.0,0.0,0.0
0,0.3520914912223816,-0.279316782951355,0.4866671860218048,-0.7488805651664734,0.0,0.0,0.0
0,-0.06858350336551666,-0.6710759997367859,0.409170538187027,0.614230215549469,0.0,0.0,0.0
0,0.18421082198619843,0.6594305634498596,-0.7192714810371399,-0.11759089678525925,0.0,0.0,0.0
0,0.7128203511238098,0.052152834832668304,-0.6433316469192505,-0.2739371955394745,0.0,0.0,0.0
0,0.618943989276886,0.30250877141952515,-0.5272554159164429,-0.49694645404815674,0.0,0.0,0.0
0,0.45507457852363586,0.7036157846450806,0.06517867743968964,-0.5387076139450073,0.0,0.0,0.0
0,0.2655699849128723,0.5591519474983215,0.43456122279167175,-0.6542002558708191,0.0,0.0,0.0
0,0.0075811967253685,0.31997793912887573,0.428970605134964,-0.8438993692398071,0.0,0.0,0.0
0,0.08342687785625458,0.14967405796051025,0.22743071615695953,-0.958182692527771,0.0,0.0,0.0
0,-0.2355281412601471,-0.08360159397125244,-0.5541841983795166,-0.7918677926063538,0.0,0.0,0.0
0,-0.2510937750339508,0.13525652885437012,-0.32928481698036194,-0.8982521891593933,0.0,0.0,0.0
0,-0.23122704029083252,0.07699767500162125,-0.4197024703025818,-0.8724080920219421,0.0,0.0,0.0
0,-0.24956265091896057,0.07125873863697052,-0.42713817954063416,-0.8641956448554993,0.0,0.0,0.0
0,-0.27857592701911926,0.024886567145586014,-0.5212814807891846,-0.8041614890098572,0.0,0.0,0.0
0,-0.26840952038764954,0.0354396291077137,-0.5030666589736938,-0.8186978697776794,0.0,0.0,0.0
0,-0.3232174515724182,-0.02881692908704281,-0.585951030254364,-0.7402735352516174,0.0,0.0,0.0
0,-0.33184710144996643,-0.08341339230537415,-0.6221920847892761,-0.7017408609390259,0.0,0.0,0.0
0,-0.3989569842815399,-0.10624004900455475,-0.6313968300819397,-0.6538501381874084,0.0,0.0,0.0
0,-0.3911266028881073,-0.11272401362657547,-0.6295876502990723,-0.6592248678207397,0.0,0.0,0.0
0,-0.37225526571273804,-0.13663312792778015,-0.6306673884391785,-0.6645739078521729,0.0,0.0,0.0
0,-0.3903391659259796,-0.12887385487556458,-0.6435711979866028,-0.6430293321609497,0.0,0.0,0.0
0,-0.380478173494339,-0.18597017228603363,-0.7065007090568542,-0.5640481114387512,0.0,0.0,0.0
0,-0.2889036536216736,-0.39995554089546204,-0.8348706960678101,-0.2370692640542984,0.0,0.0,0.0
0,-0.2389865517616272,-0.1699039787054062,-0.8368949890136719,-0.4590441882610321,0.0,0.0,0.0
0,0.16538721323013306,0.10697933286428452,-0.712630569934845,-0.6708215475082397,0.0,0.0,0.0
0,0.23782825469970703,0.07714832574129105,-0.718856692314148,-0.6460431814193726,0.0,0.0,0.0
0,0.3771974444389343,-0.22012859582901,-0.43312254548072815,-0.7880155444145203,0.0,0.0,0.0
0,-0.23491382598876953,-0.1820826381444931,0.8773571848869324,0.3735058605670929,0.0,0.0,0.0
0,-0.21172067523002625,-0.15133389830589294,0.8901189565658569,0.36956533789634705,0.0,0.0,0.0
0,-0.4521254301071167,0.29058757424354553,0.50002121925354,0.6789305806159973,0.0,0.0,0.0
0,-0.29636451601982117,0.2882207930088043,0.06374585628509521,0.9081342816352844,0.0,0.0,0.0
0,0.962932288646698,0.23152609169483185,-0.02910599298775196,-0.1341758370399475,0.0,0.0,0.0
0,0.589611828327179,0.5356525778770447,0.6004226207733154,0.04508816823363304,0.0,0.0,0.0
0,0.8582701086997986,-0.22298748791217804,-0.13321031630039215,0.4396582841873169,0.0,0.0,0.0
0,0.31700530648231506,-0.5085452795028687,-0.20445594191551208,0.7718195915222168,0.0,0.0,0.0
0,0.28457698225975037,-0.56891268491745,-0.2325322926044464,0.7334336042404175,0.0,0.0,0.0
0,0.29327094554901123,-0.5178591012954712,-0.2610398530960083,0.7578340172767639,0.0,0.0,0.0
0,0.26195642352104187,-0.5063896775245667,-0.27219802141189575,0.7729802131652832,0.0,0.0,0.0
0,0.26653242111206055,-0.5018337368965149,-0.2656996250152588,0.7766390442848206,0.0,0.0,0.0
0,0.29918909072875977,-0.5604245066642761,-0.2080705165863037,0.7414572834968567,0.0,0.0,0.0
0,0.32309573888778687,-0.5476654171943665,-0.19719097018241882,0.7439287304878235,0.0,0.0,0.0
0,0.32370755076408386,-0.5394987463951111,-0.20961202681064606,0.7462301254272461,0.0,0.0,0.0
0,0.3292301893234253,-0.5204784870147705,-0.2149045169353485,0.7557561993598938,0.0,0.0,0.0
0,0.3354234993457794,-0.49892327189445496,-0.20039546489715576,0.7713943719863892,0.0,0.0,0.0
0,0.3400879502296448,-0.48190754652023315,-0.21427565813064575,0.7764225602149963,0.0,0.0,0.0
0,0.3309617340564728,-0.4623109996318817,-0.233987495303154,0.7865261435508728,0.0,0.0,0.0
0,0.3217771351337433,-0.4561392068862915,-0.2565528154373169,0.7869042158126831,0.0,0.0,0.0
0,0.3148418664932251,-0.45072686672210693,-0.252238392829895,0.7941890358924866,0.0,0.0,0.0
0,0.3189452588558197,-0.4409109354019165,-0.2513763904571533,0.7983245253562927,0.0,0.0,0.0
0,0.328806608915329,-0.426836222410202,-0.24947798252105713,0.8025572299957275,0.0,0.0,0.0
0,0.33892297744750977,-0.42638304829597473,-0.2561068534851074,0.7964786887168884,0.0,0.0,0.0
0,0.3379722833633423,-0.4013741910457611,-0.2614738643169403,0.8080500364303589,0.0,0.0,0.0
0,0.3574749231338501,-0.4005699157714844,-0.2590029835700989,0.800819993019104,0.0,0.0,0.0
0,0.35673174262046814,-0.37794220447540283,-0.27464091777801514,0.8069160580635071,0.0,0.0,0.0
0,0.37430045008659363,-0.35179075598716736,-0.27539315819740295,0.8105181455612183,0.0,0.0,0.0
0,0.40140077471733093,-0.38014736771583557,-0.2100849747657776,0.8042712807655334,0.0,0.0,0.0
0,-0.26013049483299255,0.20576970279216766,0.9309489130973816,0.14649619162082672,0.0,0.0,0.0
0,0.5582561492919922,-0.20054282248020172,0.19306284189224243,-0.7809060215950012,0.0,0.0,0.0
0,0.1002843976020813,0.829027533531189,-0.19503730535507202,0.513226330280304,0.0,0.0,0.0
0,-0.3343779742717743,0.7425898909568787,-0.03675095736980438,0.5762206315994263,0.0,0.0,0.0
0,-0.2648693323135376,0.7791257500648499,-0.1963769793510437,0.529978334903717,0.0,0.0,0.0
0,-0.2709041237831116,0.7566912174224854,-0.28931912779808044,0.516678512096405,0.0,0.0,0.0
0,-0.2641669809818268,0.7294279336929321,-0.2949196398258209,0.5548005700111389,0.0,0.0,0.0
0,-0.28179097175598145,0.6894546747207642,-0.31020861864089966,0.5879126191139221,0.0,0.0,0.0
0,-0.27163198590278625,0.6772044897079468,-0.36349281668663025,0.5762857794761658,0.0,0.0,0.0
0,-0.27107393741607666,0.6534441709518433,-0.3783608675003052,0.5941306352615356,0.0,0.0,0.0
0,-0.2721502184867859,0.6429783701896667,-0.39640113711357117,0.5932939648628235,0.0,0.0,0.0
0,-0.49497461318969727,0.48976758122444153,-0.3673296570777893,0.6140727996826172,0.0,0.0,0.0
0,-0.762053906917572,0.12614181637763977,-0.4993615746498108,0.38810068368911743,0.0,0.0,0.0
0,-0.9442411661148071,-0.09657217562198639,-0.26875898241996765,0.15319916605949402,0.0,0.0,0.0
0,-0.8108278512954712,-0.066552072763443,0.1495334804058075,-0.559208869934082,0.0,0.0,0.0
0,-0.7006680965423584,-0.17383334040641785,0.3984512388706207,-0.5630342364311218,0.0,0.0,0.0
0,-0.8381208777427673,-0.3647203743457794,0.013045274652540684,-0.4023030996322632,0.0,0.0,0.0
0,-0.5223291516304016,-0.5830520391464233,0.17098598182201385,-0.5954879522323608,0.0,0.0,0.0
0,-0.5130817294120789,-0.5944770574569702,0.20501044392585754,-0.5813256502151489,0.0,0.0,0.0
0,-0.4955490827560425,-0.5919119119644165,0.21215173602104187,-0.5963935256004333,0.0,0.0,0.0
0,-0.4951033592224121,-0.5805867910385132,0.22996945679187775,-0.6012713313102722,0.0,0.0,0.0
0,-0.4920654296875,-0.5673797726631165,0.25504276156425476,-0.6062387824058533,0.0,0.0,0.0
0,-0.4510895907878876,-0.5733854174613953,0.27224355936050415,-0.6246994137763977,0.0,0.0,0.0
0,-0.4370245337486267,-0.5968435406684875,0.33856314420700073,-0.5786035060882568,0.0,0.0,0.0
0,-0.4340970814228058,-0.5873228907585144,0.36593449115753174,-0.5738676190376282,0.0,0.0,0.0
0,-0.4027724862098694,-0.6285104751586914,0.43981698155403137,-0.4959132969379425,0.0,0.0,0.0
0,-0.41170623898506165,-0.5951511859893799,0.4476867616176605,-0.522009551525116,0.0,0.0,0.0
0,-0.3957363963127136,-0.5998148918151855,0.48785877227783203,-0.49217090010643005,0.0,0.0,0.0
0,-0.3957363963127136,-0.5998148918151855,0.48785877227783203,-0.49217090010643005,0.0,0.0,0.0
0,-0.3725408911705017,-0.6131389141082764,0.5197680592536926,-0.46016085147857666,0.0,0.0,0.0
0,-0.3553864061832428,-0.609504759311676,0.5413601398468018,-0.453609436750412,0.0,0.0,0.0
0,-0.27386558055877686,-0.6674996614456177,0.5742706060409546,-0.3824828863143921,0.0,0.0,0.0
0,-0.25044503808021545,-0.7023887038230896,0.5872696042060852,-0.3093258738517761,0.0,0.0,0.0
0,-0.2551463842391968,-0.7076687812805176,0.5881107449531555,-0.29132843017578125,0.0,0.0,0.0
0,-0.2753100097179413,-0.690581738948822,0.5913142561912537,-0.3070657551288605,0.0,0.0,0.0
0,-0.26397570967674255,-0.6986624598503113,0.6153307557106018,-0.24533435702323914,0.0,0.0,0.0
0,-0.25227677822113037,-0.6997366547584534,0.628572404384613,-0.21968963742256165,0.0,0.0,0.0
0,-0.19981752336025238,-0.7165945768356323,0.6599430441856384,-0.08765613287687302,0.0,0.0,0.0
0,-0.121156707406044,-0.7376912236213684,0.6578635573387146,0.07063723355531693,0.0,0.0,0.0
0,0.036852963268756866,-0.6612412333488464,0.6711856722831726,0.32794204354286194,0.0,0.0,0.0
0,0.04260580614209175,-0.6661351919174194,0.6534327268600464,0.35230553150177,0.0,0.0,0.0
0,-0.010891350917518139,-0.6842577457427979,0.6337520480155945,0.35591578483581543,0.0,0.0,0.0
0,-0.04368200525641441,-0.6823662519454956,0.6336748003959656,0.35716894268989563,0.0,0.0,0.0
0,-0.0375329926609993,-0.6820119023323059,0.6397322416305542,0.34761831164360046,0.0,0.0,0.0
0,0.0037905066274106503,-0.6692439913749695,0.636904239654541,0.37828102707862854,0.0,0.0,0.0
0,-0.1372220814228058,-0.682867705821991,0.6225109100341797,0.35211026668548584,0.0,0.0,0.0
0,-0.13976891338825226,-0.6620877385139465,0.6206058263778687,0.3919157385826111,0.0,0.0,0.0
0,-0.1454901099205017,-0.6356474757194519,0.6077955961227417,0.44945961236953735,0.0,0.0,0.0
0,-0.11428124457597733,-0.6248652935028076,0.6212863922119141,0.45511624217033386,0.0,0.0,0.0
0,-0.04548456519842148,-0.6042910814285278,0.6212848424911499,0.49337008595466614,0.0,0.0,0.0
0,0.07905013114213943,-0.2797439694404602,0.5021376609802246,0.8123959898948669,0.0,0.0,0.0
0,0.17715081572532654,-0.05252501368522644,0.4498113691806793,0.8718767762184143,0.0,0.0,0.0
0,0.1776324361562729,0.005599415395408869,0.3881625533103943,0.9024324417114258,0.0,0.0,0.0
0,0.221235454082489,0.11177483946084976,0.2883414626121521,0.9230680465698242,0.0,0.0,0.0
0,0.260689377784729,0.12313693761825562,0.2438887506723404,0.9241374731063843,0.0,0.0,0.0
0,0.2721065580844879,0.23286519944667816,0.10344336181879044,0.9260978698730469,0.0,0.0,0.0
0,0.2654436528682709,0.2292327880859375,0.0853208526968956,0.9307724833488464,0.0,0.0,0.0
0,0.24028846621513367,0.1641596108675003,0.11126063019037247,0.9484512209892273,0.0,0.0,0.0
0,0.22468644380569458,0.2085629105567932,0.07466624677181244,0.9471365809440613,0.0,0.0,0.0
0,0.23582175374031067,0.2805473804473877,-0.017050951719284058,0.9284489154815674,0.0,0.0,0.0
0,0.22098180651664734,0.6089017391204834,-0.40023723244667053,0.6461451649665833,0.0,0.0,0.0
0,0.352801650762558,-0.05447668954730034,0.4163244366645813,0.8343498110771179,0.0,0.0,0.0
0,0.4516768455505371,0.23797021806240082,0.6017827391624451,0.6141428351402283,0.0,0.0,0.0
0,0.6040979027748108,-0.04581223428249359,0.7555756568908691,-0.24647758901119232,0.0,0.0,0.0
0,0.9241547584533691,-0.3182770013809204,0.04949275776743889,-0.19813495874404907,0.0,0.0,0.0
0,0.4256620407104492,0.7842629551887512,0.06428553909063339,-0.446593314409256,0.0,0.0,0.0
0,0.20836082100868225,0.8446741700172424,0.48721376061439514,0.06041751056909561,0.0,0.0,0.0
0,-0.18827752768993378,-0.9573152661323547,0.21354931592941284,0.004541655071079731,0.0,0.0,0.0
0,0.6554495692253113,0.2823495864868164,-0.005320989526808262,0.6997539401054382,0.0,0.0,0.0
0,0.39482367038726807,-0.5158599615097046,-0.6277438402175903,0.424942284822464,0.0,0.0,0.0
0,-0.0944964811205864,-0.7642308473587036,-0.38522425293922424,0.506996750831604,0.0,0.0,0.0
0,-0.3295784890651703,-0.3398585021495819,-0.3166748881340027,0.819886326789856,0.0,0.0,0.0
0,-0.32391756772994995,-0.3517912030220032,-0.44032731652259827,0.7576738595962524,0.0,0.0,0.0
0,-0.3450638949871063,-0.361764132976532,-0.3369961977005005,0.795683741569519,0.0,0.0,0.0
0,-0.3098195791244507,-0.5777449011802673,-0.29148069024086,0.6941854953765869,0.0,0.0,0.0
0,-0.4046763479709625,-0.5671067237854004,-0.3753838539123535,0.6085670590400696,0.0,0.0,0.0
0,-0.3939095735549927,-0.4927366375923157,-0.3631325662136078,0.6832391023635864,0.0,0.0,0.0
0,-0.3106084167957306,-0.4374699592590332,-0.4532490372657776,0.7094686627388,0.0,0.0,0.0
0,-0.2843504846096039,-0.30331888794898987,-0.4623120427131653,0.7810494303703308,0.0,0.0,0.0
0,-0.32707005739212036,-0.18085496127605438,-0.512221097946167,0.7715609669685364,0.0,0.0,0.0
0,-0.3258671760559082,-0.1283227801322937,-0.4786841869354248,0.8032177686691284,0.0,0.0,0.0
0,-0.32348188757896423,0.021650634706020355,-0.4721095860004425,0.8178598284721375,0.0,0.0,0.0
0,-0.3075903356075287,-0.07025035470724106,-0.5059409737586975,0.8008658289909363,0.0,0.0,0.0
0,-0.3894825577735901,-0.0368514209985733,-0.525375247001648,0.7533614635467529,0.0,0.0,0.0
0,-0.48124924302101135,-0.07827845215797424,-0.5884319543838501,0.642475426197052,0.0,0.0,0.0
0,-0.6345340013504028,-0.0713576227426529,-0.6125321984291077,0.46228858828544617,0.0,0.0,0.0
0,-0.7760223746299744,-0.49987760186195374,-0.2220776081085205,-0.30973657965660095,0.0,0.0,0.0
0,0.4133268892765045,-0.7920737862586975,0.35192495584487915,-0.2779519557952881,0.0,0.0,0.0
0,0.4466888904571533,-0.2618069052696228,-0.09985166043043137,0.8482856750488281,0.0,0.0,0.0
0,0.23980435729026794,-0.04416818544268608,-0.44372501969337463,0.8616761565208435,0.0,0.0,0.0
0,0.1483275294303894,-0.09052150696516037,-0.5062167048454285,0.8428791165351868,0.0,0.0,0.0
0,0.09619934856891632,-0.19220560789108276,-0.741633951663971,0.633063554763794,0.0,0.0,0.0
0,-0.20435599982738495,-0.0543937012553215,-0.8699967861175537,0.4423283338546753,0.0,0.0,0.0
0,0.800757884979248,0.428297758102417,-0.19399519264698029,-0.3665345311164856,0.0,0.0,0.0
0,0.9141516089439392,0.37218108773231506,0.1363430619239807,-0.07000614702701569,0.0,0.0,0.0
0,0.6862146854400635,0.5918443202972412,-0.23240019381046295,0.34850549697875977,0.0,0.0,0.0
0,0.5932372212409973,0.5520443320274353,-0.5099921822547913,0.2827089726924896,0.0,0.0,0.0
0,0.5575716495513916,0.5150011777877808,-0.6197837591171265,0.19078253209590912,0.0,0.0,0.0
0,0.4913392961025238,0.4687119126319885,-0.718410074710846,0.13938017189502716,0.0,0.0,0.0
0,0.5369213819503784,0.36501145362854004,-0.7420920133590698,0.15628957748413086,0.0,0.0,0.0
0,0.46151408553123474,0.3551671504974365,-0.8076968789100647,0.07162100076675415,0.0,0.0,0.0
0,0.4725840985774994,0.34984204173088074,-0.8052758574485779,0.04950468987226486,0.0,0.0,0.0
0,0.5476052761077881,0.33646583557128906,-0.7624807357788086,0.046748287975788116,0.0,0.0,0.0
0,0.611677885055542,0.3797626495361328,-0.6884401440620422,0.06576590240001678,0.0,0.0,0.0
0,0.5558986067771912,0.4686392545700073,-0.6840239763259888,-0.009139207191765308,0.0,0.0,0.0
0,0.5389152765274048,0.5416584610939026,-0.6392077803611755,-0.06505940109491348,0.0,0.0,0.0
0,0.5997678637504578,0.4970446825027466,-0.6228064894676208,-0.04450491443276405,0.0,0.0,0.0
0,0.5860817432403564,0.49607256054878235,-0.6295982599258423,-0.10330267250537872,0.0,0.0,0.0
0,0.5306786298751831,0.4544871747493744,-0.681620180606842,-0.20960217714309692,0.0,0.0,0.0
0,0.6031551361083984,0.34691599011421204,-0.6944926381111145,-0.1737150251865387,0.0,0.0,0.0
0,0.5823518633842468,0.23358605802059174,-0.7468374371528625,-0.21255601942539215,0.0,0.0,0.0
0,0.5736367702484131,0.1160275936126709,-0.7664326429367065,-0.2582695186138153,0.0,0.0,0.0
0,0.5343101620674133,0.08721139281988144,-0.8059428334236145,-0.23239333927631378,0.0,0.0,0.0
0,0.5860515832901001,0.08278702199459076,-0.7809290289878845,-0.19101117551326752,0.0,0.0,0.0
0,0.5298675298690796,0.12955309450626373,-0.8147162199020386,-0.18798835575580597,0.0,0.0,0.0
0,0.374481201171875,0.17847202718257904,-0.8985050916671753,-0.13131669163703918,0.0,0.0,0.0
0,0.32292670011520386,0.23848214745521545,-0.8840915560722351,-0.23210355639457703,0.0,0.0,0.0
0,0.36814895272254944,0.29127806425094604,-0.8549672961235046,-0.21283479034900665,0.0,0.0,0.0
0,0.37086015939712524,0.35576173663139343,-0.8430132865905762,-0.14788268506526947,0.0,0.0,0.0
0,0.4017947018146515,0.4327971637248993,-0.7940572500228882,-0.13176266849040985,0.0,0.0,0.0
0,0.39324918389320374,0.5633728504180908,-0.702925980091095,-0.17465783655643463,0.0,0.0,0.0
0,0.32283905148506165,0.6296114325523376,-0.6840217113494873,-0.16770039498806,0.0,0.0,0.0
0,0.3361625075340271,0.6635375618934631,-0.6534034609794617,-0.12814877927303314,0.0,0.0,0.0
0,0.30540400743484497,0.6854708194732666,-0.634730875492096,-0.17498667538166046,0.0,0.0,0.0
0,0.3475145101547241,0.6575873494148254,-0.6398531794548035,-0.18451496958732605,0.0,0.0,0.0
0,0.3944149315357208,0.6182162761688232,-0.6617948412895203,-0.14462991058826447,0.0,0.0,0.0
0,0.3874553143978119,0.6011173725128174,-0.6712730526924133,-0.1859382688999176,0.0,0.0,0.0
0,0.38186565041542053,0.5571058392524719,-0.6886342167854309,-0.2573717534542084,0.0,0.0,0.0
0,0.38086840510368347,0.5286239981651306,-0.6866909861564636,-0.31716856360435486,0.0,0.0,0.0
0,0.41413161158561707,0.4838387370109558,-0.6917601227760315,-0.33542290329933167,0.0,0.0,0.0
0,0.4343975782394409,0.49589380621910095,-0.6846706867218018,-0.3053833246231079,0.0,0.0,0.0
0,0.36406436562538147,0.5638890862464905,-0.667548656463623,-0.3170334994792938,0.0,0.0,0.0
0,0.2787352204322815,0.6268302202224731,-0.6372501254081726,-0.34633439779281616,0.0,0.0,0.0
0,0.2715679407119751,0.6780533194541931,-0.5832488536834717,-0.3506507873535156,0.0,0.0,0.0
0,0.3121110200881958,0.7409167885780334,-0.5040582418441772,-0.3101530075073242,0.0,0.0,0.0
0,0.291024774312973,0.7469640374183655,-0.48674923181533813,-0.3421504497528076,0.0,0.0,0.0
0,0.29448816180229187,0.7612566947937012,-0.4604533314704895,-0.3440714180469513,0.0,0.0,0.0
0,0.24753665924072266,0.7479254603385925,-0.4577251970767975,-0.4080260097980499,0.0,0.0,0.0
0,0.1952737420797348,0.704373300075531,-0.483320415019989,-0.47829750180244446,0.0,0.0,0.0
0,0.3429538905620575,0.6763135194778442,-0.49095699191093445,-0.42503997683525085,0.0,0.0,0.0
0,0.40151211619377136,0.6046291589736938,-0.5238004326820374,-0.4421318471431732,0.0,0.0,0.0
0,0.49210718274116516,0.529644787311554,-0.5194488167762756,-0.4518015682697296,0.0,0.0,0.0
0,0.49211475253105164,0.4614344835281372,-0.5328466296195984,-0.5075477957725525,0.0,0.0,0.0
0,0.4083288609981537,0.427691787481308,-0.5540863871574402,-0.5830696821212769,0.0,0.0,0.0
0,0.40415242314338684,0.4398340880870819,-0.580814778804779,-0.550003707408905,0.0,0.0,0.0
0,0.3466666042804718,0.4545551538467407,-0.6356673240661621,-0.5155287384986877,0.0,0.0,0.0
0,0.3732464015483856,0.47768285870552063,-0.6165912747383118,-0.4989655017852783,0.0,0.0,0.0
0,0.2919478714466095,0.5097127556800842,-0.6050815582275391,-0.5343033671379089,0.0,0.0,0.0
0,0.32486873865127563,0.5411714315414429,-0.6149031519889832,-0.46918246150016785,0.0,0.0,0.0
0,0.29486119747161865,0.6014927625656128,-0.6064143180847168,-0.4244631826877594,0.0,0.0,0.0
