time_boot_ms,press_abs,press_diff,temperature
514940,994.0827026367188,1.10373345771153e-19,2928
515350,994.0819091796875,1.10373345771153e-19,2930
515490,994.0401000976562,1.10373345771153e-19,2929
515620,994.0377807617188,1.10373345771153e-19,2930
515750,994.06494140625,1.10373345771153e-19,2930
515890,994.0419311523438,1.10373345771153e-19,2931
516020,994.07958984375,1.10373345771153e-19,2931
516150,994.076904296875,1.10373345771153e-19,2931
516290,994.0806884765625,1.10373345771153e-19,2932
516420,994.0731811523438,1.10373345771153e-19,2931
516550,994.063720703125,1.10373345771153e-19,2932
516690,994.0810546875,1.10373345771153e-19,2932
516830,994.0512084960938,1.10373345771153e-19,2932
516960,994.0885620117188,1.10373345771153e-19,2932
517090,994.0576782226562,1.10373345771153e-19,2932
517220,994.065185546875,1.10373345771153e-19,2933
517350,994.0391235351562,1.10373345771153e-19,2933
517480,994.0625,1.10373345771153e-19,2933
517610,994.0828247070312,1.10373345771153e-19,2933
517740,994.074462890625,1.10373345771153e-19,2934
517880,994.0510864257812,1.10373345771153e-19,2935
518010,994.1030883789062,1.10373345771153e-19,2935
518170,994.07861328125,1.10373345771153e-19,2935
518300,994.0653686523438,1.10373345771153e-19,2935
518430,994.0691528320312,1.10373345771153e-19,2935
518560,994.0559692382812,1.10373345771153e-19,2936
518690,994.080078125,1.10373345771153e-19,2936
518820,994.062744140625,1.10373345771153e-19,2936
518960,994.0521850585938,1.10373345771153e-19,2935
519090,994.042724609375,1.10373345771153e-19,2936
519220,994.0332641601562,1.10373345771153e-19,2936
519350,994.0570068359375,1.10373345771153e-19,2936
519490,994.0615234375,1.10373345771153e-19,2937
519620,994.0814819335938,1.10373345771153e-19,2937
519750,994.027587890625,1.10373345771153e-19,2937
519880,994.0833129882812,1.10373345771153e-19,2938
520010,994.0656127929688,1.10373345771153e-19,2938
520140,994.0460205078125,1.10373345771153e-19,2938
520290,994.07763671875,1.10373345771153e-19,2939
520430,994.0946044921875,1.10373345771153e-19,2939
520560,994.0504760742188,1.10373345771153e-19,2939
520690,994.041748046875,1.10373345771153e-19,2940
520830,994.06103515625,1.10373345771153e-19,2939
520960,994.0515747070312,1.10373345771153e-19,2940
521090,994.0508422851562,1.10373345771153e-19,2939
521220,994.0658569335938,1.10373345771153e-19,2940
521360,994.0206909179688,1.10373345771153e-19,2940
521490,994.0624389648438,1.10373345771153e-19,2940
521620,994.0801391601562,1.10373345771153e-19,2941
521750,994.0865478515625,1.10373345771153e-19,2941
521880,994.0594482421875,1.10373345771153e-19,2941
522010,994.0978393554688,1.10373345771153e-19,2941
522150,994.0687866210938,1.10373345771153e-19,2942
522290,994.060546875,1.10373345771153e-19,2941
522420,994.0778198242188,1.10373345771153e-19,2942
522550,994.0850219726562,1.10373345771153e-19,2942
522680,994.054443359375,1.10373345771153e-19,2942
522810,994.0687866210938,1.10373345771153e-19,2942
522940,994.0291137695312,1.10373345771153e-19,2943
523080,994.0800170898438,1.10373345771153e-19,2943
523220,994.0596923828125,1.10373345771153e-19,2943
523350,994.0841674804688,1.10373345771153e-19,2944
523490,994.0645141601562,1.10373345771153e-19,2944
523620,994.07470703125,1.10373345771153e-19,2944
523750,994.0607299804688,1.10373345771153e-19,2944
523880,994.0946655273438,1.10373345771153e-19,2944
524010,994.0882568359375,1.10373345771153e-19,2944
524140,994.087890625,1.10373345771153e-19,2944
524290,994.0502319335938,1.10373345771153e-19,2944
524420,994.0909423828125,1.10373345771153e-19,2944
524550,994.0863037109375,1.10373345771153e-19,2945
524680,994.04345703125,1.10373345771153e-19,2944
524820,994.0927124023438,1.10373345771153e-19,2945
524960,994.0464477539062,1.10373345771153e-19,2943
525090,994.073974609375,1.10373345771153e-19,2944
525220,994.0482788085938,1.10373345771153e-19,2945
525350,994.0584716796875,1.10373345771153e-19,2945
525500,994.0112915039062,1.10373345771153e-19,2945
525630,994.007568359375,1.10373345771153e-19,2945
525770,994.052734375,1.10373345771153e-19,2945
525910,994.0609741210938,1.10373345771153e-19,2946
526040,994.0459594726562,1.10373345771153e-19,2945
526180,994.0127563476562,1.10373345771153e-19,2946
526310,994.0447387695312,1.10373345771153e-19,2947
526440,994.0372314453125,1.10373345771153e-19,2946
526570,994.0617065429688,1.10373345771153e-19,2947
526700,994.0491943359375,1.10373345771153e-19,2948
526830,994.0699462890625,1.10373345771153e-19,2948
526960,994.0601196289062,1.10373345771153e-19,2948
527090,994.0446166992188,1.10373345771153e-19,2949
527220,994.0543823242188,1.10373345771153e-19,2949
527360,994.0932006835938,1.10373345771153e-19,2950
527500,994.0415649414062,1.10373345771153e-19,2949
527630,994.0581665039062,1.10373345771153e-19,2949
527770,994.0921020507812,1.10373345771153e-19,2949
527900,994.0890502929688,1.10373345771153e-19,2949
528030,994.069091796875,1.10373345771153e-19,2950
528170,994.0578002929688,1.10373345771153e-19,2949
528300,994.065673828125,1.10373345771153e-19,2950
528430,994.0615844726562,1.10373345771153e-19,2949
528560,994.0720825195312,1.10373345771153e-19,2949
528690,994.0799560546875,1.10373345771153e-19,2950
528830,994.0355224609375,1.10373345771153e-19,2950
528970,994.0675048828125,1.10373345771153e-19,2951
529100,994.0403442382812,1.10373345771153e-19,2951
529250,994.0806884765625,1.10373345771153e-19,2951
529380,994.0855102539062,1.10373345771153e-19,2952
529520,994.0760498046875,1.10373345771153e-19,2952
529650,994.0734252929688,1.10373345771153e-19,2953
529790,994.0489501953125,1.10373345771153e-19,2952
530210,994.1121826171875,1.10373345771153e-19,2954
530340,994.05712890625,1.10373345771153e-19,2953
530470,994.0469970703125,1.10373345771153e-19,2953
530610,994.0650024414062,1.10373345771153e-19,2954
530740,994.0861206054688,1.10373345771153e-19,2954
530870,994.0796508789062,1.10373345771153e-19,2955
531000,994.0416259765625,1.10373345771153e-19,2954
531130,994.0325317382812,1.10373345771153e-19,2955
531270,994.056640625,1.10373345771153e-19,2955
531400,994.0291137695312,1.10373345771153e-19,2955
531540,994.0359497070312,1.10373345771153e-19,2955
531910,994.0438232421875,1.10373345771153e-19,2956
532040,994.0305786132812,1.10373345771153e-19,2956
532170,994.0448608398438,1.10373345771153e-19,2956
532300,994.0336303710938,1.10373345771153e-19,2956
532430,994.0595092773438,1.10373345771153e-19,2957
532560,994.0490112304688,1.10373345771153e-19,2957
532690,994.0493774414062,1.10373345771153e-19,2957
532820,994.040283203125,1.10373345771153e-19,2958
532950,994.082763671875,1.10373345771153e-19,2959
533110,994.0722045898438,1.10373345771153e-19,2959
533240,994.0729370117188,1.10373345771153e-19,2959
533390,994.0582885742188,1.10373345771153e-19,2959
533520,994.0725708007812,1.10373345771153e-19,2959
533650,994.0431518554688,1.10373345771153e-19,2960
533780,994.0458374023438,1.10373345771153e-19,2959
533910,994.0227661132812,1.10373345771153e-19,2960
534040,994.0404663085938,1.10373345771153e-19,2960
534170,994.0645751953125,1.10373345771153e-19,2961
534310,994.0879516601562,1.10373345771153e-19,2960
534450,994.047607421875,1.10373345771153e-19,2961
534580,994.0472412109375,1.10373345771153e-19,2960
534710,994.0360107421875,1.10373345771153e-19,2960
534840,994.0506591796875,1.10373345771153e-19,2960
534970,994.0167236328125,1.10373345771153e-19,2960
535100,994.0578002929688,1.10373345771153e-19,2961
535240,994.0340576171875,1.10373345771153e-19,2961
535390,994.0460205078125,1.10373345771153e-19,2962
535520,994.0840454101562,1.10373345771153e-19,2962
535650,994.029052734375,1.10373345771153e-19,2962
535790,994.0527954101562,1.10373345771153e-19,2962
535930,994.047119140625,1.10373345771153e-19,2963
536070,994.0654907226562,1.10373345771153e-19,2964
536200,994.076416015625,1.10373345771153e-19,2964
536330,994.0386962890625,1.10373345771153e-19,2964
536460,994.0552978515625,1.10373345771153e-19,2964
536590,994.025146484375,1.10373345771153e-19,2964
536720,994.0315551757812,1.10373345771153e-19,2964
536880,994.0808715820312,1.10373345771153e-19,2965
537010,994.0357055664062,1.10373345771153e-19,2964
537150,994.0390625,1.10373345771153e-19,2964
537280,994.0560302734375,1.10373345771153e-19,2964
537410,994.0612182617188,1.10373345771153e-19,2966
537540,994.0924682617188,1.10373345771153e-19,2966
537670,994.0785522460938,1.10373345771153e-19,2966
537800,994.0555419921875,1.10373345771153e-19,2966
537930,994.06982421875,1.10373345771153e-19,2967
538060,994.0653686523438,1.10373345771153e-19,2966
538190,994.0603637695312,1.10373345771153e-19,2967
538320,994.0573120117188,1.10373345771153e-19,2968
538460,994.0264282226562,1.10373345771153e-19,2967
538590,994.05126953125,1.10373345771153e-19,2968
538730,994.0553588867188,1.10373345771153e-19,2969
538870,994.0458984375,1.10373345771153e-19,2969
539000,994.068603515625,1.10373345771153e-19,2968
539130,994.0534057617188,1.10373345771153e-19,2970
539540,994.0499877929688,1.10373345771153e-19,2970
539680,994.0564575195312,1.10373345771153e-19,2969
539820,994.0360717773438,1.10373345771153e-19,2969
539950,994.0473022460938,1.10373345771153e-19,2970
540100,994.0368041992188,1.10373345771153e-19,2970
540230,994.0748291015625,1.10373345771153e-19,2970
540370,994.02392578125,1.10373345771153e-19,2970
540520,994.0691528320312,1.10373345771153e-19,2971
540650,994.0728759765625,1.10373345771153e-19,2971
540780,994.0555419921875,1.10373345771153e-19,2971
540910,994.0657348632812,1.10373345771153e-19,2971
541040,994.0325317382812,1.10373345771153e-19,2972
541180,994.0498657226562,1.10373345771153e-19,2972
541310,994.088623046875,1.10373345771153e-19,2973
541440,994.0448608398438,1.10373345771153e-19,2973
541570,994.0475463867188,1.10373345771153e-19,2973
541700,994.0628662109375,1.10373345771153e-19,2974
541830,994.0383911132812,1.10373345771153e-19,2973
541960,994.0557250976562,1.10373345771153e-19,2974
542100,994.0391235351562,1.10373345771153e-19,2974
542230,994.0432739257812,1.10373345771153e-19,2974
542370,994.0357666015625,1.10373345771153e-19,2974
542510,994.0884399414062,1.10373345771153e-19,2975
542640,994.0609130859375,1.10373345771153e-19,2975
542770,994.0575561523438,1.10373345771153e-19,2975
542900,994.0579223632812,1.10373345771153e-19,2975
543030,994.075927734375,1.10373345771153e-19,2976
543160,994.0650634765625,1.10373345771153e-19,2975
543300,994.0722045898438,1.10373345771153e-19,2976
543430,994.0352172851562,1.10373345771153e-19,2976
543560,994.0736083984375,1.10373345771153e-19,2977
543690,994.0604248046875,1.10373345771153e-19,2977
543830,994.0834350585938,1.10373345771153e-19,2976
543960,994.0780639648438,1.10373345771153e-19,2977
544110,994.0682983398438,1.10373345771153e-19,2978
544240,994.0621948242188,1.10373345771153e-19,2978
544400,994.1005859375,1.10373345771153e-19,2979
544530,994.066650390625,1.10373345771153e-19,2979
544670,994.0806274414062,1.10373345771153e-19,2979
544810,994.0511474609375,1.10373345771153e-19,2980
544940,994.0609741210938,1.10373345771153e-19,2980
545070,994.0704345703125,1.10373345771153e-19,2979
545210,994.0650634765625,1.10373345771153e-19,2980
545340,994.0263061523438,1.10373345771153e-19,2979
545480,994.084716796875,1.10373345771153e-19,2980
545610,994.04736328125,1.10373345771153e-19,2980
545740,994.0858154296875,1.10373345771153e-19,2980
545890,994.07861328125,1.10373345771153e-19,2980
546020,994.0213012695312,1.10373345771153e-19,2980
546150,994.0182495117188,1.10373345771153e-19,2981
546280,994.0494995117188,1.10373345771153e-19,2981
546410,994.0563354492188,1.10373345771153e-19,2981
546550,994.0702514648438,1.10373345771153e-19,2981
546680,994.0430908203125,1.10373345771153e-19,2981
546810,994.0423583984375,1.10373345771153e-19,2981
546940,994.0396728515625,1.10373345771153e-19,2981
547070,993.998046875,1.10373345771153e-19,2978
547200,994.0611572265625,1.10373345771153e-19,2982
547340,994.0380859375,1.10373345771153e-19,2983
547470,994.0275268554688,1.10373345771153e-19,2982
547600,994.0444946289062,1.10373345771153e-19,2982
547730,994.055419921875,1.10373345771153e-19,2983
547910,994.0139770507812,1.10373345771153e-19,2982
548040,994.0309448242188,1.10373345771153e-19,2982
548180,994.0482788085938,1.10373345771153e-19,2983
548310,994.0697021484375,1.10373345771153e-19,2983
548440,994.0621948242188,1.10373345771153e-19,2983
548580,994.0452270507812,1.10373345771153e-19,2983
548710,994.0557861328125,1.10373345771153e-19,2983
548840,994.090087890625,1.10373345771153e-19,2983
548980,994.0398559570312,1.10373345771153e-19,2984
549110,994.053466796875,1.10373345771153e-19,2984
549250,994.0548706054688,1.10373345771153e-19,2985
549400,994.064697265625,1.10373345771153e-19,2985
549530,994.0375366210938,1.10373345771153e-19,2985
549660,994.0130615234375,1.10373345771153e-19,2984
549790,994.0103759765625,1.10373345771153e-19,2985
549920,994.06201171875,1.10373345771153e-19,2985
550050,994.0518188476562,1.10373345771153e-19,2985
550180,994.0613403320312,1.10373345771153e-19,2985
550310,994.0419921875,1.10373345771153e-19,2985
550440,994.04541015625,1.10373345771153e-19,2985
550580,994.0257568359375,1.10373345771153e-19,2986
550720,994.0563354492188,1.10373345771153e-19,2986
550850,994.0332641601562,1.10373345771153e-19,2986
550980,994.0471801757812,1.10373345771153e-19,2987
551110,994.0016479492188,1.10373345771153e-19,2986
551240,994.0166625976562,1.10373345771153e-19,2987
551390,994.0132446289062,1.10373345771153e-19,2987
551540,994.0264892578125,1.10373345771153e-19,2986
551670,994.0166625976562,1.10373345771153e-19,2987
551800,994.04150390625,1.10373345771153e-19,2987
551940,994.0003662109375,1.10373345771153e-19,2987
552070,994.037353515625,1.10373345771153e-19,2987
552200,994.0758056640625,1.10373345771153e-19,2988
552330,994.0278930664062,1.10373345771153e-19,2987
552460,994.0313110351562,1.10373345771153e-19,2987
552590,994.0146484375,1.10373345771153e-19,2988
552720,994.0252075195312,1.10373345771153e-19,2988
552870,994.0323486328125,1.10373345771153e-19,2988
553000,994.03076171875,1.10373345771153e-19,2989
553130,993.9991455078125,1.10373345771153e-19,2989
553270,994.0236206054688,1.10373345771153e-19,2989
553400,994.0043334960938,1.10373345771153e-19,2990
553530,994.0325317382812,1.10373345771153e-19,2991
553660,993.97265625,1.10373345771153e-19,2989
553790,994.06005859375,1.10373345771153e-19,2991
553920,994.0151977539062,1.10373345771153e-19,2990
554060,994.06005859375,1.10373345771153e-19,2991
554190,994.0471801757812,1.10373345771153e-19,2991
554320,994.046142578125,1.10373345771153e-19,2991
554450,994.0438232421875,1.10373345771153e-19,2991
554590,994.0614624023438,1.10373345771153e-19,2992
554720,994.0543212890625,1.10373345771153e-19,2992
554850,994.04345703125,1.10373345771153e-19,2991
554980,994.0679321289062,1.10373345771153e-19,2992
555110,994.0468139648438,1.10373345771153e-19,2991
555260,994.0750732421875,1.10373345771153e-19,2992
555390,994.0614624023438,1.10373345771153e-19,2992
555520,994.0577392578125,1.10373345771153e-19,2992
555650,994.0645141601562,1.10373345771153e-19,2992
555780,994.0587768554688,1.10373345771153e-19,2993
555920,994.0635986328125,1.10373345771153e-19,2994
556050,994.0632934570312,1.10373345771153e-19,2993
556180,994.0734252929688,1.10373345771153e-19,2993
556310,994.0782470703125,1.10373345771153e-19,2994
556440,994.064697265625,1.10373345771153e-19,2994
556570,994.0918579101562,1.10373345771153e-19,2994
556700,994.0918579101562,1.10373345771153e-19,2994
556830,994.068115234375,1.10373345771153e-19,2994
556970,994.05859375,1.10373345771153e-19,2995
557100,994.055908203125,1.10373345771153e-19,2995
557240,994.062744140625,1.10373345771153e-19,2995
557390,994.0589599609375,1.10373345771153e-19,2995
557520,994.0556030273438,1.10373345771153e-19,2995
557650,994.07666015625,1.10373345771153e-19,2996
557780,994.0514526367188,1.10373345771153e-19,2995
557910,994.0484008789062,1.10373345771153e-19,2995
558040,994.0076904296875,1.10373345771153e-19,2995
558170,994.0525512695312,1.10373345771153e-19,2995
558300,994.0457153320312,1.10373345771153e-19,2995
558430,994.0400390625,1.10373345771153e-19,2996
558570,994.0362548828125,1.10373345771153e-19,2996
558710,994.0570068359375,1.10373345771153e-19,2996
558840,994.0407104492188,1.10373345771153e-19,2997
558970,994.0580444335938,1.10373345771153e-19,2997
559100,994.0509033203125,1.10373345771153e-19,2997
559230,994.0308837890625,1.10373345771153e-19,2997
559370,994.0621948242188,1.10373345771153e-19,2997
559500,994.0499877929688,1.10373345771153e-19,2998
559630,994.0462646484375,1.10373345771153e-19,2998
559760,994.02587890625,1.10373345771153e-19,2998
559900,994.0571899414062,1.10373345771153e-19,2999
560030,994.0439453125,1.10373345771153e-19,2999
560160,994.0416259765625,1.10373345771153e-19,3000
560290,994.0484008789062,1.10373345771153e-19,3000
560420,994.0630493164062,1.10373345771153e-19,3000
560550,994.0426635742188,1.10373345771153e-19,3000
560680,994.0528564453125,1.10373345771153e-19,3000
560810,994.0634155273438,1.10373345771153e-19,3001
560940,994.03662109375,1.10373345771153e-19,3001
561070,994.0576782226562,1.10373345771153e-19,3001
561220,994.0580444335938,1.10373345771153e-19,3002
561350,994.0773315429688,1.10373345771153e-19,3001
561480,994.0478515625,1.10373345771153e-19,3002
561610,994.0383911132812,1.10373345771153e-19,3002
561740,994.03125,1.10373345771153e-19,3002
561890,994.0455322265625,1.10373345771153e-19,3002
562020,994.0288696289062,1.10373345771153e-19,3003
562150,994.0088500976562,1.10373345771153e-19,3003
562280,994.0601806640625,1.10373345771153e-19,3003
562410,994.0646362304688,1.10373345771153e-19,3004
562570,994.04833984375,1.10373345771153e-19,3004
562700,994.0205078125,1.10373345771153e-19,3004
562830,994.031005859375,1.10373345771153e-19,3004
562960,994.014404296875,1.10373345771153e-19,3004
563090,994.0249633789062,1.10373345771153e-19,3005
563220,994.0721435546875,1.10373345771153e-19,3004
563370,994.031005859375,1.10373345771153e-19,3004
563500,994.0460205078125,1.10373345771153e-19,3005
563630,994.0181274414062,1.10373345771153e-19,3005
563760,994.01513671875,1.10373345771153e-19,3005
563900,994.0113525390625,1.10373345771153e-19,3005
564030,994.03515625,1.10373345771153e-19,3005
564160,994.0276489257812,1.10373345771153e-19,3004
564290,994.0426635742188,1.10373345771153e-19,3005
564420,994.0498046875,1.10373345771153e-19,3005
564550,994.081787109375,1.10373345771153e-19,3006
564680,994.0335083007812,1.10373345771153e-19,3006
564810,994.0467529296875,1.10373345771153e-19,3006
564940,994.0059814453125,1.10373345771153e-19,3006
565070,994.0338745117188,1.10373345771153e-19,3006
565210,994.0413818359375,1.10373345771153e-19,3007
565350,994.0319213867188,1.10373345771153e-19,3007
565480,994.0322265625,1.10373345771153e-19,3007
565610,994.0427856445312,1.10373345771153e-19,3008
565740,994.0499267578125,1.10373345771153e-19,3008
565890,994.0703125,1.10373345771153e-19,3008
566020,994.0424194335938,1.10373345771153e-19,3007
566150,994.0431518554688,1.10373345771153e-19,3008
566300,994.0438842773438,1.10373345771153e-19,3008
566430,994.047607421875,1.10373345771153e-19,3009
566570,994.0513305664062,1.10373345771153e-19,3009
566700,994.0445556640625,1.10373345771153e-19,3009
566830,994.044921875,1.10373345771153e-19,3009
566960,994.0211181640625,1.10373345771153e-19,3009
567090,993.990234375,1.10373345771153e-19,3009
567220,994.0072021484375,1.10373345771153e-19,3009
567350,994.0259399414062,1.10373345771153e-19,3010
567480,994.0324096679688,1.10373345771153e-19,3010
567610,994.0320434570312,1.10373345771153e-19,3010
567740,994.0327758789062,1.10373345771153e-19,3010
567910,994.0409545898438,1.10373345771153e-19,3011
568040,994.0232543945312,1.10373345771153e-19,3011
568170,994.068115234375,1.10373345771153e-19,3011
568300,994.0274047851562,1.10373345771153e-19,3011
568430,994.05078125,1.10373345771153e-19,3011
568570,994.031494140625,1.10373345771153e-19,3012
568700,994.0650634765625,1.10373345771153e-19,3011
568830,994.0107421875,1.10373345771153e-19,3011
568960,994.072265625,1.10373345771153e-19,3012
569090,994.0423583984375,1.10373345771153e-19,3012
569230,994.042724609375,1.10373345771153e-19,3012
569370,994.05224609375,1.10373345771153e-19,3012
569510,994.0529174804688,1.10373345771153e-19,3012
569640,994.0277099609375,1.10373345771153e-19,3011
569770,994.0579223632812,1.10373345771153e-19,3011
569910,994.0684814453125,1.10373345771153e-19,3011
570040,994.0994262695312,1.10373345771153e-19,3012
570170,994.0216674804688,1.10373345771153e-19,3012
570300,994.0559692382812,1.10373345771153e-19,3012
570440,994.0291748046875,1.10373345771153e-19,3012
570580,994.0186157226562,1.10373345771153e-19,3012
570710,994.0220336914062,1.10373345771153e-19,3012
570840,994.0475463867188,1.10373345771153e-19,3013
570970,994.0505981445312,1.10373345771153e-19,3013
571100,994.0302124023438,1.10373345771153e-19,3013
571230,994.0404052734375,1.10373345771153e-19,3013
571370,994.0067749023438,1.10373345771153e-19,3013
571500,994.0363159179688,1.10373345771153e-19,3013
571630,994.01123046875,1.10373345771153e-19,3014
571760,994.0177001953125,1.10373345771153e-19,3014
571900,994.0105590820312,1.10373345771153e-19,3014
572030,994.0278930664062,1.10373345771153e-19,3014
572160,994.0418090820312,1.10373345771153e-19,3014
572290,994.072021484375,1.10373345771153e-19,3014
572420,994.0629272460938,1.10373345771153e-19,3015
572560,994.0425415039062,1.10373345771153e-19,3015
572690,994.04931640625,1.10373345771153e-19,3015
572820,994.043212890625,1.10373345771153e-19,3015
572950,994.052734375,1.10373345771153e-19,3015
573080,994.0534057617188,1.10373345771153e-19,3015
573220,994.026611328125,1.10373345771153e-19,3015
573350,994.0374755859375,1.10373345771153e-19,3016
573500,994.0541381835938,1.10373345771153e-19,3016
573630,994.0402221679688,1.10373345771153e-19,3015
573770,994.0235595703125,1.10373345771153e-19,3016
573900,994.0201416015625,1.10373345771153e-19,3016
574030,994.0402221679688,1.10373345771153e-19,3015
574160,994.0314331054688,1.10373345771153e-19,3016
574290,994.0416259765625,1.10373345771153e-19,3016
574420,994.0076293945312,1.10373345771153e-19,3016
574560,994.010009765625,1.10373345771153e-19,3016
574690,994.0069580078125,1.10373345771153e-19,3016
574820,994.0042724609375,1.10373345771153e-19,3016
574960,994.0276489257812,1.10373345771153e-19,3016
575090,993.98388671875,1.10373345771153e-19,3016
575220,993.962646484375,1.10373345771153e-19,3013
575350,994.0491333007812,1.10373345771153e-19,3017
575480,994.0171508789062,1.10373345771153e-19,3016
575610,994.0028076171875,1.10373345771153e-19,3015
575740,994.037841796875,1.10373345771153e-19,3016
575900,994.010009765625,1.10373345771153e-19,3016
576030,994.0276489257812,1.10373345771153e-19,3016
576160,994.0317993164062,1.10373345771153e-19,3017
576290,993.9963989257812,1.10373345771153e-19,3016
576420,993.9974365234375,1.10373345771153e-19,3016
576550,994.021240234375,1.10373345771153e-19,3016
576680,994.0103149414062,1.10373345771153e-19,3016
576810,994.0314331054688,1.10373345771153e-19,3016
576940,994.0147705078125,1.10373345771153e-19,3017
577100,994.0249633789062,1.10373345771153e-19,3017
577250,994.0457153320312,1.10373345771153e-19,3017
577390,994.0205078125,1.10373345771153e-19,3016
577520,994.0280151367188,1.10373345771153e-19,3016
577650,994.0408935546875,1.10373345771153e-19,3016
577780,994.0341186523438,1.10373345771153e-19,3016
577920,994.0167846679688,1.10373345771153e-19,3016
578050,994.0314331054688,1.10373345771153e-19,3016
578180,994.037841796875,1.10373345771153e-19,3016
578310,994.044677734375,1.10373345771153e-19,3016
578440,993.9998168945312,1.10373345771153e-19,3016
578580,994.023193359375,1.10373345771153e-19,3015
578710,994.0507202148438,1.10373345771153e-19,3016
578840,994.0330200195312,1.10373345771153e-19,3015
578970,994.0201416015625,1.10373345771153e-19,3016
579100,994.0350341796875,1.10373345771153e-19,3014
579230,994.028564453125,1.10373345771153e-19,3014
579370,994.0360717773438,1.10373345771153e-19,3015
579510,994.0262451171875,1.10373345771153e-19,3015
579650,994.0225219726562,1.10373345771153e-19,3015
579780,994.061279296875,1.10373345771153e-19,3016
579920,994.026611328125,1.10373345771153e-19,3015
580050,994.0291137695312,1.10373345771153e-19,3017
580180,994.0555419921875,1.10373345771153e-19,3017
580310,994.0260620117188,1.10373345771153e-19,3017
580450,994.0403442382812,1.10373345771153e-19,3018
580580,994.0640869140625,1.10373345771153e-19,3018
580710,994.0291137695312,1.10373345771153e-19,3017
581580,994.0509033203125,1.10373345771153e-19,3018
581710,994.041748046875,1.10373345771153e-19,3019
581850,994.0601196289062,1.10373345771153e-19,3020
581980,994.0454711914062,1.10373345771153e-19,3019
582110,994.0360107421875,1.10373345771153e-19,3020
582250,994.0642700195312,1.10373345771153e-19,3021
582390,994.0499877929688,1.10373345771153e-19,3020
582520,994.0567626953125,1.10373345771153e-19,3020
582660,994.0462036132812,1.10373345771153e-19,3020
582790,994.05029296875,1.10373345771153e-19,3020
582920,994.0560302734375,1.10373345771153e-19,3020
583050,994.0479736328125,1.10373345771153e-19,3021
583190,994.0272216796875,1.10373345771153e-19,3021
583320,994.03369140625,1.10373345771153e-19,3021
583450,994.0472412109375,1.10373345771153e-19,3021
583580,994.0360107421875,1.10373345771153e-19,3020
583710,994.0306396484375,1.10373345771153e-19,3021
583840,994.0133056640625,1.10373345771153e-19,3021
583990,994.0533447265625,1.10373345771153e-19,3020
584120,994.0496215820312,1.10373345771153e-19,3020
584250,994.0706787109375,1.10373345771153e-19,3020
584410,994.0556640625,1.10373345771153e-19,3019
584540,994.0519409179688,1.10373345771153e-19,3019
584670,994.0625,1.10373345771153e-19,3019
584800,994.038330078125,1.10373345771153e-19,3019
584930,994.00439453125,1.10373345771153e-19,3019
585060,994.0454711914062,1.10373345771153e-19,3019
585190,994.0296020507812,1.10373345771153e-19,3020
585330,994.0220947265625,1.10373345771153e-19,3020
585460,994.0133056640625,1.10373345771153e-19,3021
585590,994.042236328125,1.10373345771153e-19,3022
585730,994.0269165039062,1.10373345771153e-19,3021
585870,994.031005859375,1.10373345771153e-19,3021
586000,994.051025390625,1.10373345771153e-19,3021
586130,994.0377807617188,1.10373345771153e-19,3021
586260,994.0320434570312,1.10373345771153e-19,3022
586400,994.0225830078125,1.10373345771153e-19,3022
586770,994.036865234375,1.10373345771153e-19,3023
586910,994.0239868164062,1.10373345771153e-19,3023
587040,994.03076171875,1.10373345771153e-19,3023
587170,994.0409545898438,1.10373345771153e-19,3023
587300,994.013427734375,1.10373345771153e-19,3023
587430,994.0223388671875,1.10373345771153e-19,3025
587570,994.0529174804688,1.10373345771153e-19,3025
587700,994.0491943359375,1.10373345771153e-19,3024
587830,994.0502319335938,1.10373345771153e-19,3025
587960,994.0671997070312,1.10373345771153e-19,3025
588090,994.022705078125,1.10373345771153e-19,3025
588230,994.057373046875,1.10373345771153e-19,3025
588380,994.0203857421875,1.10373345771153e-19,3026
588510,994.0234375,1.10373345771153e-19,3025
588640,994.0377197265625,1.10373345771153e-19,3026
588780,994.04931640625,1.10373345771153e-19,3027
588910,994.0448608398438,1.10373345771153e-19,3026
589040,994.055419921875,1.10373345771153e-19,3026
589170,994.040771484375,1.10373345771153e-19,3026
589300,994.0523681640625,1.10373345771153e-19,3027
589430,994.0693359375,1.10373345771153e-19,3027
589580,994.0387573242188,1.10373345771153e-19,3027
589710,994.04931640625,1.10373345771153e-19,3027
589840,994.0503540039062,1.10373345771153e-19,3028
589970,994.0530395507812,1.10373345771153e-19,3027
590100,994.060546875,1.10373345771153e-19,3028
590230,994.0507202148438,1.10373345771153e-19,3028
590360,994.0205078125,1.10373345771153e-19,3028
590490,994.0439453125,1.10373345771153e-19,3028
590620,994.037109375,1.10373345771153e-19,3028
590760,994.0503540039062,1.10373345771153e-19,3028
590900,994.0099487304688,1.10373345771153e-19,3028
591030,994.054443359375,1.10373345771153e-19,3028
591160,994.052490234375,1.10373345771153e-19,3029
591300,994.0422973632812,1.10373345771153e-19,3029
591430,994.0211791992188,1.10373345771153e-19,3029
591570,994.0276489257812,1.10373345771153e-19,3028
591700,994.0494384765625,1.10373345771153e-19,3029
591830,994.02978515625,1.10373345771153e-19,3030
591990,994.0365600585938,1.10373345771153e-19,3030
592120,994.0300903320312,1.10373345771153e-19,3030
592260,994.040283203125,1.10373345771153e-19,3030
592390,994.0335083007812,1.10373345771153e-19,3030
592520,994.0542602539062,1.10373345771153e-19,3030
592650,994.03759765625,1.10373345771153e-19,3031
592790,994.06103515625,1.10373345771153e-19,3030
592920,994.0620727539062,1.10373345771153e-19,3031
593050,994.0372314453125,1.10373345771153e-19,3030
593180,994.0780029296875,1.10373345771153e-19,3030
593320,994.061767578125,1.10373345771153e-19,3031
593450,994.0318603515625,1.10373345771153e-19,3031
593600,994.0560302734375,1.10373345771153e-19,3032
593730,994.0118408203125,1.10373345771153e-19,3032
593860,994.05029296875,1.10373345771153e-19,3032
593990,994.0328979492188,1.10373345771153e-19,3032
594120,994.0264892578125,1.10373345771153e-19,3032
594250,994.0193481445312,1.10373345771153e-19,3032
594380,994.006103515625,1.10373345771153e-19,3032
594510,994.0166625976562,1.10373345771153e-19,3033
594640,994.0516967773438,1.10373345771153e-19,3033
594770,994.0404052734375,1.10373345771153e-19,3033
594910,994.0238037109375,1.10373345771153e-19,3033
595050,994.020751953125,1.10373345771153e-19,3033
595180,994.0339965820312,1.10373345771153e-19,3033
595320,994.0513305664062,1.10373345771153e-19,3033
595450,994.020751953125,1.10373345771153e-19,3033
595610,994.0040893554688,1.10373345771153e-19,3033
595740,994.0663452148438,1.10373345771153e-19,3034
595870,994.0670166015625,1.10373345771153e-19,3035
596010,994.031982421875,1.10373345771153e-19,3034
596140,994.0809936523438,1.10373345771153e-19,3035
596280,994.0455932617188,1.10373345771153e-19,3034
596410,994.0391235351562,1.10373345771153e-19,3034
596540,994.08203125,1.10373345771153e-19,3036
596670,994.0737915039062,1.10373345771153e-19,3035
596800,994.0643310546875,1.10373345771153e-19,3035
596930,994.0609130859375,1.10373345771153e-19,3035
597070,994.0269775390625,1.10373345771153e-19,3035
597200,994.0545043945312,1.10373345771153e-19,3035
597330,994.0443115234375,1.10373345771153e-19,3035
597460,994.0514526367188,1.10373345771153e-19,3036
597600,994.0677490234375,1.10373345771153e-19,3035
597730,994.0307006835938,1.10373345771153e-19,3035
597870,994.0272827148438,1.10373345771153e-19,3035
598000,994.0314331054688,1.10373345771153e-19,3036
598130,994.0310668945312,1.10373345771153e-19,3036
598260,994.044677734375,1.10373345771153e-19,3036
598390,994.0321044921875,1.10373345771153e-19,3036
598520,994.0147705078125,1.10373345771153e-19,3036
598650,994.01513671875,1.10373345771153e-19,3036
598780,994.0498046875,1.10373345771153e-19,3037
598920,994.005615234375,1.10373345771153e-19,3037
599050,994.0301513671875,1.10373345771153e-19,3037
599210,994.04638671875,1.10373345771153e-19,3037
599340,994.0338745117188,1.10373345771153e-19,3038
599470,994.0440673828125,1.10373345771153e-19,3038
599600,994.07568359375,1.10373345771153e-19,3038
599730,994.0801391601562,1.10373345771153e-19,3039
599860,994.034912109375,1.10373345771153e-19,3038
599990,994.0390014648438,1.10373345771153e-19,3039
600180,994.0393676757812,1.10373345771153e-19,3039
600320,994.0778198242188,1.10373345771153e-19,3040
600450,994.015625,1.10373345771153e-19,3039
600590,994.0258178710938,1.10373345771153e-19,3039
600730,994.0220336914062,1.10373345771153e-19,3039
600860,993.98876953125,1.10373345771153e-19,3039
600990,994.0203857421875,1.10373345771153e-19,3040
601190,994.0189819335938,1.10373345771153e-19,3039
601320,994.0374145507812,1.10373345771153e-19,3040
601460,994.0170288085938,1.10373345771153e-19,3040
601590,994.0101928710938,1.10373345771153e-19,3040
601730,994.058837890625,1.10373345771153e-19,3041
601860,994.0452270507812,1.10373345771153e-19,3041
601990,994.0455932617188,1.10373345771153e-19,3041
602190,994.0598754882812,1.10373345771153e-19,3042
602320,994.0629272460938,1.10373345771153e-19,3041
602450,994.029296875,1.10373345771153e-19,3042
602600,994.0235595703125,1.10373345771153e-19,3042
602730,994.029296875,1.10373345771153e-19,3042
602860,994.0269775390625,1.10373345771153e-19,3042
603010,994.006591796875,1.10373345771153e-19,3042
603150,994.04736328125,1.10373345771153e-19,3042
603280,994.0276489257812,1.10373345771153e-19,3043
603410,993.9257202148438,1.10373345771153e-19,3036
603540,994.05517578125,1.10373345771153e-19,3043
603670,994.0205078125,1.10373345771153e-19,3043
603800,994.0314331054688,1.10373345771153e-19,3043
603930,994.05322265625,1.10373345771153e-19,3044
604070,994.0426635742188,1.10373345771153e-19,3044
604200,994.025634765625,1.10373345771153e-19,3044
604330,994.0300903320312,1.10373345771153e-19,3045
604470,994.0270385742188,1.10373345771153e-19,3045
604600,994.0274047851562,1.10373345771153e-19,3045
604730,994.0240478515625,1.10373345771153e-19,3045
604870,993.9771728515625,1.10373345771153e-19,3046
605000,994.0791015625,1.10373345771153e-19,3046
605130,994.0247192382812,1.10373345771153e-19,3046
605260,994.046142578125,1.10373345771153e-19,3047
605390,994.0020141601562,1.10373345771153e-19,3047
605530,994.0532836914062,1.10373345771153e-19,3047
605670,994.0186157226562,1.10373345771153e-19,3046
605810,994.0223999023438,1.10373345771153e-19,3047
605940,993.9959106445312,1.10373345771153e-19,3047
606090,994.0186157226562,1.10373345771153e-19,3046
606220,993.9928588867188,1.10373345771153e-19,3047
606350,994.0438232421875,1.10373345771153e-19,3047
606480,994.0536499023438,1.10373345771153e-19,3047
606630,994.0136108398438,1.10373345771153e-19,3048
606760,994.0486450195312,1.10373345771153e-19,3048
606890,994.0343017578125,1.10373345771153e-19,3048
607020,994.0275268554688,1.10373345771153e-19,3048
607170,994.01123046875,1.10373345771153e-19,3048
607300,994.0210571289062,1.10373345771153e-19,3048
607430,994.035400390625,1.10373345771153e-19,3049
607570,994.0224609375,1.10373345771153e-19,3049
607700,994.0326538085938,1.10373345771153e-19,3049
607840,994.04052734375,1.10373345771153e-19,3050
607970,994.0031127929688,1.10373345771153e-19,3050
608100,994.0385131835938,1.10373345771153e-19,3051
608230,994.010986328125,1.10373345771153e-19,3051
608360,994.0038452148438,1.10373345771153e-19,3050
608500,994.01171875,1.10373345771153e-19,3051
608630,994.0388793945312,1.10373345771153e-19,3051
608760,994.0208129882812,1.10373345771153e-19,3050
608890,993.984130859375,1.10373345771153e-19,3051
609020,993.9404907226562,1.10373345771153e-19,3046
609160,994.0385131835938,1.10373345771153e-19,3051
609290,993.97802734375,1.10373345771153e-19,3051
609420,994.0048828125,1.10373345771153e-19,3051
609550,994.0215454101562,1.10373345771153e-19,3051
609680,993.98828125,1.10373345771153e-19,3051
609820,993.9912719726562,1.10373345771153e-19,3051
609950,994.022216796875,1.10373345771153e-19,3051
610100,994.0052490234375,1.10373345771153e-19,3051
610250,993.9923706054688,1.10373345771153e-19,3052
610380,994.0028686523438,1.10373345771153e-19,3052
610510,993.9920043945312,1.10373345771153e-19,3052
610640,993.9824829101562,1.10373345771153e-19,3052
610770,993.9590454101562,1.10373345771153e-19,3052
610910,993.986572265625,1.10373345771153e-19,3053
611040,993.969970703125,1.10373345771153e-19,3053
611180,994.0121459960938,1.10373345771153e-19,3054
611310,994.0277099609375,1.10373345771153e-19,3053
611440,994.0144653320312,1.10373345771153e-19,3053
611590,994.0264282226562,1.10373345771153e-19,3054
611720,994.0199584960938,1.10373345771153e-19,3055
611850,994.0083618164062,1.10373345771153e-19,3054
611990,994.01318359375,1.10373345771153e-19,3055
612120,993.9700317382812,1.10373345771153e-19,3055
612250,994.0033569335938,1.10373345771153e-19,3055
612380,994.0281982421875,1.10373345771153e-19,3056
612520,993.9938354492188,1.10373345771153e-19,3055
612650,994.0108642578125,1.10373345771153e-19,3055
612780,993.987060546875,1.10373345771153e-19,3055
612910,994.007080078125,1.10373345771153e-19,3055
613040,993.9496459960938,1.10373345771153e-19,3055
613170,993.9986572265625,1.10373345771153e-19,3056
613300,993.9850463867188,1.10373345771153e-19,3056
613430,993.9718017578125,1.10373345771153e-19,3057
613570,994.0098876953125,1.10373345771153e-19,3057
613700,994.02685546875,1.10373345771153e-19,3057
613860,994.0208129882812,1.10373345771153e-19,3058
613990,993.992919921875,1.10373345771153e-19,3057
614120,993.989501953125,1.10373345771153e-19,3057
614250,993.9701538085938,1.10373345771153e-19,3058
614380,993.9949951171875,1.10373345771153e-19,3059
614510,994.0211181640625,1.10373345771153e-19,3058
614640,993.9749755859375,1.10373345771153e-19,3059
614780,994.0078735351562,1.10373345771153e-19,3058
614910,993.9949951171875,1.10373345771153e-19,3059
615040,993.995361328125,1.10373345771153e-19,3059
615190,994.0337524414062,1.10373345771153e-19,3060
615320,994.0232543945312,1.10373345771153e-19,3059
615450,994.0171508789062,1.10373345771153e-19,3060
615590,994.0137329101562,1.10373345771153e-19,3060
615720,994.0110473632812,1.10373345771153e-19,3060
615850,993.9845581054688,1.10373345771153e-19,3061
615980,994.0185546875,1.10373345771153e-19,3061
616140,994.0287475585938,1.10373345771153e-19,3061
617410,994.0165405273438,1.10373345771153e-19,3062
617570,993.9998779296875,1.10373345771153e-19,3062
617700,993.9900512695312,1.10373345771153e-19,3062
617830,993.9696044921875,1.10373345771153e-19,3062
617970,994.0036010742188,1.10373345771153e-19,3062
618100,993.9903564453125,1.10373345771153e-19,3063
618230,994.0043334960938,1.10373345771153e-19,3063
618360,993.976806640625,1.10373345771153e-19,3063
618490,993.9563598632812,1.10373345771153e-19,3063
618620,993.9913940429688,1.10373345771153e-19,3063
618750,994.0084228515625,1.10373345771153e-19,3063
618880,994.00537109375,1.10373345771153e-19,3064
619010,993.9955444335938,1.10373345771153e-19,3064
619140,994.013916015625,1.10373345771153e-19,3065
619280,994.0003051757812,1.10373345771153e-19,3065
619420,994.0387573242188,1.10373345771153e-19,3066
619560,993.9972534179688,1.10373345771153e-19,3065
619690,994.0316162109375,1.10373345771153e-19,3065
619820,994.0380249023438,1.10373345771153e-19,3065
619950,994.0322875976562,1.10373345771153e-19,3066
620090,994.021728515625,1.10373345771153e-19,3066
620220,994.0115356445312,1.10373345771153e-19,3066
620360,994.0357055664062,1.10373345771153e-19,3066
620500,993.9775390625,1.10373345771153e-19,3066
620640,994.0330200195312,1.10373345771153e-19,3066
620780,994.0020751953125,1.10373345771153e-19,3066
620910,993.992919921875,1.10373345771153e-19,3067
621040,993.9888305664062,1.10373345771153e-19,3066
621180,993.9993286132812,1.10373345771153e-19,3067
621310,994.01025390625,1.10373345771153e-19,3067
621440,994.0133056640625,1.10373345771153e-19,3067
621590,994.0031127929688,1.10373345771153e-19,3067
621720,994.0231323242188,1.10373345771153e-19,3067
621850,994.0064697265625,1.10373345771153e-19,3067
621990,994.0003662109375,1.10373345771153e-19,3067
622120,993.9925537109375,1.10373345771153e-19,3067
622250,993.9796752929688,1.10373345771153e-19,3067
622380,993.9854125976562,1.10373345771153e-19,3066
622510,993.959228515625,1.10373345771153e-19,3067
622640,993.9432983398438,1.10373345771153e-19,3068
622770,993.9459838867188,1.10373345771153e-19,3067
622900,993.9973754882812,1.10373345771153e-19,3068
623030,994.01806640625,1.10373345771153e-19,3068
623160,993.9528198242188,1.10373345771153e-19,3067
623300,993.9810180664062,1.10373345771153e-19,3068
623430,994.011962890625,1.10373345771153e-19,3068
623570,993.9848022460938,1.10373345771153e-19,3068
623700,993.9671020507812,1.10373345771153e-19,3068
623830,993.9508056640625,1.10373345771153e-19,3068
623960,993.9929809570312,1.10373345771153e-19,3069
624100,994.033447265625,1.10373345771153e-19,3069
624230,993.9851684570312,1.10373345771153e-19,3069
624360,993.9760131835938,1.10373345771153e-19,3069
624490,994.003173828125,1.10373345771153e-19,3069
624660,993.9838256835938,1.10373345771153e-19,3070
624790,993.994384765625,1.10373345771153e-19,3070
624920,993.9638061523438,1.10373345771153e-19,3070
625050,993.9630737304688,1.10373345771153e-19,3070
625180,993.9844970703125,1.10373345771153e-19,3071
625320,993.9712524414062,1.10373345771153e-19,3071
625450,994.005615234375,1.10373345771153e-19,3071
625590,993.9712524414062,1.10373345771153e-19,3071
625720,993.9818115234375,1.10373345771153e-19,3071
625850,993.9780883789062,1.10373345771153e-19,3071
625990,993.9549560546875,1.10373345771153e-19,3071
626120,993.9682006835938,1.10373345771153e-19,3071
626250,993.9923706054688,1.10373345771153e-19,3071
626380,994.0025634765625,1.10373345771153e-19,3071
626510,993.978759765625,1.10373345771153e-19,3071
626640,993.975341796875,1.10373345771153e-19,3071
626770,993.9658813476562,1.10373345771153e-19,3072
626900,993.9651489257812,1.10373345771153e-19,3071
627030,993.97265625,1.10373345771153e-19,3072
627170,993.989990234375,1.10373345771153e-19,3072
627310,993.9927368164062,1.10373345771153e-19,3072
627440,993.9791259765625,1.10373345771153e-19,3072
627590,993.9658813476562,1.10373345771153e-19,3072
627720,993.969970703125,1.10373345771153e-19,3073
627850,993.9628295898438,1.10373345771153e-19,3072
627980,993.963134765625,1.10373345771153e-19,3073
628130,993.9805297851562,1.10373345771153e-19,3073
628280,993.943115234375,1.10373345771153e-19,3073
628410,993.9808349609375,1.10373345771153e-19,3073
628540,993.96044921875,1.10373345771153e-19,3073
628690,993.9461669921875,1.10373345771153e-19,3073
628830,993.9774780273438,1.10373345771153e-19,3073
628970,993.96044921875,1.10373345771153e-19,3073
629100,993.9910278320312,1.10373345771153e-19,3073
629230,993.9703369140625,1.10373345771153e-19,3073
629360,993.9608154296875,1.10373345771153e-19,3073
629490,993.9539794921875,1.10373345771153e-19,3073
629620,993.9536743164062,1.10373345771153e-19,3073
629760,993.981201171875,1.10373345771153e-19,3073
629900,993.9686279296875,1.10373345771153e-19,3074
630040,993.9683227539062,1.10373345771153e-19,3074
630170,993.9856567382812,1.10373345771153e-19,3074
630300,993.9893798828125,1.10373345771153e-19,3074
630430,993.9754638671875,1.10373345771153e-19,3074
630570,993.9798583984375,1.10373345771153e-19,3075
630700,993.9669799804688,1.10373345771153e-19,3075
630830,993.980224609375,1.10373345771153e-19,3075
630960,994.00439453125,1.10373345771153e-19,3075
631090,993.9730834960938,1.10373345771153e-19,3075
631220,993.9564208984375,1.10373345771153e-19,3075
631360,993.9557495117188,1.10373345771153e-19,3075
631490,993.97412109375,1.10373345771153e-19,3076
631620,993.9765014648438,1.10373345771153e-19,3075
631770,993.9632568359375,1.10373345771153e-19,3075
631900,993.9683837890625,1.10373345771153e-19,3076
632030,993.9544067382812,1.10373345771153e-19,3076
632160,993.9510498046875,1.10373345771153e-19,3076
632290,993.95068359375,1.10373345771153e-19,3076
632420,993.9517211914062,1.10373345771153e-19,3077
632550,994.0223999023438,1.10373345771153e-19,3076
632690,993.9520874023438,1.10373345771153e-19,3077
632820,993.9452514648438,1.10373345771153e-19,3077
632950,993.9483032226562,1.10373345771153e-19,3077
633100,993.9932250976562,1.10373345771153e-19,3077
633230,993.9761962890625,1.10373345771153e-19,3077
633370,993.955810546875,1.10373345771153e-19,3077
633500,993.97998046875,1.10373345771153e-19,3077
633630,993.9598999023438,1.10373345771153e-19,3078
633760,993.9629516601562,1.10373345771153e-19,3077
633890,993.9619140625,1.10373345771153e-19,3077
634030,993.9667358398438,1.10373345771153e-19,3078
634160,993.9564819335938,1.10373345771153e-19,3078
634290,993.967041015625,1.10373345771153e-19,3078
634430,993.9537963867188,1.10373345771153e-19,3078
634570,993.9749145507812,1.10373345771153e-19,3079
634700,993.98779296875,1.10373345771153e-19,3078
634830,994.0061645507812,1.10373345771153e-19,3079
634970,994.000732421875,1.10373345771153e-19,3078
635100,993.9983520507812,1.10373345771153e-19,3078
635230,993.9680786132812,1.10373345771153e-19,3079
635390,993.9511108398438,1.10373345771153e-19,3079
635520,993.97216796875,1.10373345771153e-19,3079
635650,993.9613037109375,1.10373345771153e-19,3079
635780,993.9956665039062,1.10373345771153e-19,3079
635910,993.9865112304688,1.10373345771153e-19,3080
636040,993.9861450195312,1.10373345771153e-19,3079
636170,993.9680786132812,1.10373345771153e-19,3079
636300,993.9521484375,1.10373345771153e-19,3079
636430,993.93408203125,1.10373345771153e-19,3079
637290,993.9970092773438,1.10373345771153e-19,3080
637420,993.987548828125,1.10373345771153e-19,3080
637560,993.977294921875,1.10373345771153e-19,3080
637690,993.9943237304688,1.10373345771153e-19,3080
637820,993.9640502929688,1.10373345771153e-19,3081
637950,993.9497680664062,1.10373345771153e-19,3080
638110,993.9603271484375,1.10373345771153e-19,3080
638240,993.9358520507812,1.10373345771153e-19,3080
638380,993.9609985351562,1.10373345771153e-19,3081
638510,993.9358520507812,1.10373345771153e-19,3080
638640,993.995361328125,1.10373345771153e-19,3081
638770,993.974609375,1.10373345771153e-19,3081
638900,993.966796875,1.10373345771153e-19,3080
639070,993.9674682617188,1.10373345771153e-19,3081
639200,993.9678344726562,1.10373345771153e-19,3081
639330,993.9844970703125,1.10373345771153e-19,3081
639470,993.9882202148438,1.10373345771153e-19,3081
639600,993.9814453125,1.10373345771153e-19,3081
639730,993.9882202148438,1.10373345771153e-19,3081
639860,993.9749755859375,1.10373345771153e-19,3081
639990,993.9783935546875,1.10373345771153e-19,3081
640120,993.9783935546875,1.10373345771153e-19,3081
640250,993.98583984375,1.10373345771153e-19,3082
640380,993.9531860351562,1.10373345771153e-19,3080
640510,993.9637451171875,1.10373345771153e-19,3080
640640,993.9814453125,1.10373345771153e-19,3081
640780,993.966796875,1.10373345771153e-19,3080
640910,993.9742431640625,1.10373345771153e-19,3081
641040,993.9627075195312,1.10373345771153e-19,3080
641170,993.998046875,1.10373345771153e-19,3081
641300,993.9837646484375,1.10373345771153e-19,3080
641430,993.9939575195312,1.10373345771153e-19,3080
641580,993.9596557617188,1.10373345771153e-19,3080
641710,993.9623413085938,1.10373345771153e-19,3079
642060,993.961669921875,1.10373345771153e-19,3079
642190,993.9544677734375,1.10373345771153e-19,3079
642330,993.9606323242188,1.10373345771153e-19,3078
642460,993.9745483398438,1.10373345771153e-19,3078
642590,993.9368286132812,1.10373345771153e-19,3078
642740,993.9639892578125,1.10373345771153e-19,3078
642880,993.9663696289062,1.10373345771153e-19,3077
643010,993.9395141601562,1.10373345771153e-19,3078
643140,993.9493408203125,1.10373345771153e-19,3077
643290,993.94189453125,1.10373345771153e-19,3077
643420,993.94189453125,1.10373345771153e-19,3077
643550,993.9384765625,1.10373345771153e-19,3077
643700,993.9095458984375,1.10373345771153e-19,3076
643830,993.9737548828125,1.10373345771153e-19,3075
643960,993.9431762695312,1.10373345771153e-19,3075
644090,993.956787109375,1.10373345771153e-19,3075
644220,993.9482421875,1.10373345771153e-19,3074
644350,993.9703979492188,1.10373345771153e-19,3075
644480,993.98095703125,1.10373345771153e-19,3076
644610,993.9669799804688,1.10373345771153e-19,3075
644740,993.9771728515625,1.10373345771153e-19,3075
644870,993.9390869140625,1.10373345771153e-19,3075
645010,993.95947265625,1.10373345771153e-19,3075
645140,993.9761352539062,1.10373345771153e-19,3075
645290,993.9588012695312,1.10373345771153e-19,3074
645430,993.968994140625,1.10373345771153e-19,3074
645560,993.9652709960938,1.10373345771153e-19,3074
645690,993.9376831054688,1.10373345771153e-19,3074
645830,993.9683227539062,1.10373345771153e-19,3074
645960,993.954345703125,1.10373345771153e-19,3074
646090,993.9420776367188,1.10373345771153e-19,3072
646220,993.9696044921875,1.10373345771153e-19,3072
646360,993.9508666992188,1.10373345771153e-19,3071
646490,993.9685668945312,1.10373345771153e-19,3071
646620,993.9764404296875,1.10373345771153e-19,3072
646750,993.96484375,1.10373345771153e-19,3071
646880,993.9542846679688,1.10373345771153e-19,3071
647010,993.9603881835938,1.10373345771153e-19,3070
647140,993.9491577148438,1.10373345771153e-19,3070
647290,993.987548828125,1.10373345771153e-19,3070
647420,993.98583984375,1.10373345771153e-19,3069
647560,993.95361328125,1.10373345771153e-19,3070
647700,993.979736328125,1.10373345771153e-19,3070
647830,993.9443359375,1.10373345771153e-19,3069
647970,993.9776611328125,1.10373345771153e-19,3068
648100,993.9882202148438,1.10373345771153e-19,3068
648240,993.8733520507812,1.10373345771153e-19,3059
648370,993.99462890625,1.10373345771153e-19,3068
648500,994.0045166015625,1.10373345771153e-19,3068
648630,993.94189453125,1.10373345771153e-19,3067
648770,993.9412231445312,1.10373345771153e-19,3066
648900,993.9766235351562,1.10373345771153e-19,3067
649040,993.966064453125,1.10373345771153e-19,3067
649170,994.0333251953125,1.10373345771153e-19,3067
649300,994.001708984375,1.10373345771153e-19,3066
649430,993.9510498046875,1.10373345771153e-19,3066
649560,994.016357421875,1.10373345771153e-19,3067
649690,994.0224609375,1.10373345771153e-19,3066
649840,994.0119018554688,1.10373345771153e-19,3066
649980,994.0081787109375,1.10373345771153e-19,3066
650110,994.0054321289062,1.10373345771153e-19,3066
650240,993.998291015625,1.10373345771153e-19,3066
650380,993.9949340820312,1.10373345771153e-19,3066
650510,993.9884643554688,1.10373345771153e-19,3066
650640,994.0013427734375,1.10373345771153e-19,3066
650790,994.005126953125,1.10373345771153e-19,3066
650920,994.0037231445312,1.10373345771153e-19,3065
651050,994.0149536132812,1.10373345771153e-19,3066
651180,994.0316162109375,1.10373345771153e-19,3065
651310,993.9979858398438,1.10373345771153e-19,3066
651450,994.0176391601562,1.10373345771153e-19,3065
651580,994.0418090820312,1.10373345771153e-19,3065
651720,994.01318359375,1.10373345771153e-19,3064
651850,994.0159301757812,1.10373345771153e-19,3064
651980,994.0216674804688,1.10373345771153e-19,3063
652110,994.0328979492188,1.10373345771153e-19,3064
652250,994.0322265625,1.10373345771153e-19,3063
652380,994.0107421875,1.10373345771153e-19,3063
652510,994.014892578125,1.10373345771153e-19,3063
652640,994.0070190429688,1.10373345771153e-19,3062
652790,994.0070190429688,1.10373345771153e-19,3062
652920,994.000244140625,1.10373345771153e-19,3062
653060,994.0216674804688,1.10373345771153e-19,3063
653190,994.050537109375,1.10373345771153e-19,3062
653340,994.0233154296875,1.10373345771153e-19,3062
653470,994.0342407226562,1.10373345771153e-19,3062
653600,994.0338745117188,1.10373345771153e-19,3062
653730,994.0165405273438,1.10373345771153e-19,3062
653860,994.021240234375,1.10373345771153e-19,3060
653990,994.00830078125,1.10373345771153e-19,3061
654120,994.02294921875,1.10373345771153e-19,3062
654270,994.012451171875,1.10373345771153e-19,3061
654410,994.00830078125,1.10373345771153e-19,3061
654540,994.0161743164062,1.10373345771153e-19,3062
654670,994.0188598632812,1.10373345771153e-19,3061
654800,993.9838256835938,1.10373345771153e-19,3060
654930,994.0317993164062,1.10373345771153e-19,3061
655060,994.0521850585938,1.10373345771153e-19,3061
655190,994.0269775390625,1.10373345771153e-19,3060
655320,994.0235595703125,1.10373345771153e-19,3060
655450,994.026611328125,1.10373345771153e-19,3059
655580,994.0198364257812,1.10373345771153e-19,3059
655720,994.033447265625,1.10373345771153e-19,3059
655850,993.9926147460938,1.10373345771153e-19,3059
655980,994.0232543945312,1.10373345771153e-19,3059
656110,994.0371704101562,1.10373345771153e-19,3060
656240,994.0337524414062,1.10373345771153e-19,3060
656370,994.0269775390625,1.10373345771153e-19,3060
656510,994.0443115234375,1.10373345771153e-19,3060
656640,994.0341186523438,1.10373345771153e-19,3060
656790,994.0235595703125,1.10373345771153e-19,3060
656940,993.9987182617188,1.10373345771153e-19,3059
657080,994.0089111328125,1.10373345771153e-19,3059
657210,993.9878540039062,1.10373345771153e-19,3058
657340,994.0391845703125,1.10373345771153e-19,3059
657470,993.9844360351562,1.10373345771153e-19,3058
657600,994.0211181640625,1.10373345771153e-19,3058
657730,994.044921875,1.10373345771153e-19,3058
657860,994.0112915039062,1.10373345771153e-19,3058
657990,993.9966430664062,1.10373345771153e-19,3057
658120,994.0170288085938,1.10373345771153e-19,3057
658250,994.0626220703125,1.10373345771153e-19,3058
658400,993.9898681640625,1.10373345771153e-19,3057
658530,993.9901733398438,1.10373345771153e-19,3058
658660,993.997314453125,1.10373345771153e-19,3058
658790,993.9697875976562,1.10373345771153e-19,3058
658920,994.0116577148438,1.10373345771153e-19,3058
659050,994.0184326171875,1.10373345771153e-19,3058
659180,994.011962890625,1.10373345771153e-19,3059
659310,994.0323486328125,1.10373345771153e-19,3059
659440,993.9970092773438,1.10373345771153e-19,3058
659570,993.992919921875,1.10373345771153e-19,3057
659710,994.000732421875,1.10373345771153e-19,3058
659840,993.9728393554688,1.10373345771153e-19,3057
659980,994.0112915039062,1.10373345771153e-19,3058
660110,994.031005859375,1.10373345771153e-19,3058
660240,993.9996948242188,1.10373345771153e-19,3057
660400,994.0377807617188,1.10373345771153e-19,3058
660530,994.0227661132812,1.10373345771153e-19,3057
660660,994.0245361328125,1.10373345771153e-19,3058
660790,994.0013427734375,1.10373345771153e-19,3056
660920,994.0122680664062,1.10373345771153e-19,3056
661060,993.9741821289062,1.10373345771153e-19,3056
661190,994.0428466796875,1.10373345771153e-19,3056
661320,994.0431518554688,1.10373345771153e-19,3057
661460,993.9996948242188,1.10373345771153e-19,3057
661590,993.998291015625,1.10373345771153e-19,3056
661720,993.9877319335938,1.10373345771153e-19,3056
661850,993.9744873046875,1.10373345771153e-19,3056
661980,993.974853515625,1.10373345771153e-19,3056
662110,993.989501953125,1.10373345771153e-19,3057
662240,993.99560546875,1.10373345771153e-19,3057
662410,993.9616088867188,1.10373345771153e-19,3057
662550,994.0133056640625,1.10373345771153e-19,3057
662680,993.9816284179688,1.10373345771153e-19,3056
662810,993.9711303710938,1.10373345771153e-19,3056
662940,994.01904296875,1.10373345771153e-19,3056
663070,993.984375,1.10373345771153e-19,3056
663200,993.974853515625,1.10373345771153e-19,3056
663330,993.9711303710938,1.10373345771153e-19,3056
663460,993.9752197265625,1.10373345771153e-19,3057
663590,993.9880981445312,1.10373345771153e-19,3056
663730,993.9724731445312,1.10373345771153e-19,3057
663880,993.977294921875,1.10373345771153e-19,3058
664010,994.0157470703125,1.10373345771153e-19,3059
664140,993.9984130859375,1.10373345771153e-19,3059
664290,993.99462890625,1.10373345771153e-19,3058
664420,993.9987182617188,1.10373345771153e-19,3059
664550,993.9705200195312,1.10373345771153e-19,3058
664680,993.9613647460938,1.10373345771153e-19,3059
664810,994.0123291015625,1.10373345771153e-19,3059
664940,994.0126953125,1.10373345771153e-19,3059
665080,993.965087890625,1.10373345771153e-19,3059
665210,994.0307006835938,1.10373345771153e-19,3060
665340,994.0202026367188,1.10373345771153e-19,3060
665470,994.0303955078125,1.10373345771153e-19,3060
665600,994.0228881835938,1.10373345771153e-19,3059
665730,994.0191040039062,1.10373345771153e-19,3059
665860,994.0130615234375,1.10373345771153e-19,3059
665990,994.0341186523438,1.10373345771153e-19,3060
666130,993.982421875,1.10373345771153e-19,3059
666270,994.00048828125,1.10373345771153e-19,3060
666410,993.9892578125,1.10373345771153e-19,3059
666540,993.9790649414062,1.10373345771153e-19,3059
666670,993.9491577148438,1.10373345771153e-19,3060
666820,993.9926147460938,1.10373345771153e-19,3059
666950,993.9854736328125,1.10373345771153e-19,3059
667080,993.9760131835938,1.10373345771153e-19,3060
667210,993.9990844726562,1.10373345771153e-19,3059
667340,994.0072631835938,1.10373345771153e-19,3060
667500,993.9664916992188,1.10373345771153e-19,3060
667630,994.0076293945312,1.10373345771153e-19,3060
667780,994.0110473632812,1.10373345771153e-19,3060
667910,994.0226440429688,1.10373345771153e-19,3061
668040,994.012451171875,1.10373345771153e-19,3061
668170,994.0093994140625,1.10373345771153e-19,3062
668300,993.9913330078125,1.10373345771153e-19,3061
668430,994.0018920898438,1.10373345771153e-19,3061
668570,993.9580688476562,1.10373345771153e-19,3061
668700,993.9950561523438,1.10373345771153e-19,3061
668830,993.99169921875,1.10373345771153e-19,3061
668960,994.0011596679688,1.10373345771153e-19,3061
669100,993.9981079101562,1.10373345771153e-19,3061
669230,994.0174560546875,1.10373345771153e-19,3060
669360,994.0171508789062,1.10373345771153e-19,3060
669490,994.0062255859375,1.10373345771153e-19,3059
669620,994.0202026367188,1.10373345771153e-19,3060
669750,994.0405883789062,1.10373345771153e-19,3060
669880,994.0416259765625,1.10373345771153e-19,3060
670010,994.0202026367188,1.10373345771153e-19,3060
670140,993.9915771484375,1.10373345771153e-19,3059
670290,994.0062255859375,1.10373345771153e-19,3059
670430,994.050048828125,1.10373345771153e-19,3059
670560,993.9817504882812,1.10373345771153e-19,3059
670690,994.0191040039062,1.10373345771153e-19,3059
670830,994.0245361328125,1.10373345771153e-19,3058
670990,994.0381469726562,1.10373345771153e-19,3058
671120,993.9959716796875,1.10373345771153e-19,3057
671250,993.9962768554688,1.10373345771153e-19,3057
671380,994.031005859375,1.10373345771153e-19,3058
671510,994.0347290039062,1.10373345771153e-19,3058
671640,993.9789428710938,1.10373345771153e-19,3057
671800,994.0082397460938,1.10373345771153e-19,3058
671930,994.0010986328125,1.10373345771153e-19,3058
672060,994.0282592773438,1.10373345771153e-19,3058
672190,993.9844360351562,1.10373345771153e-19,3058
672320,994.0116577148438,1.10373345771153e-19,3058
672450,994.035400390625,1.10373345771153e-19,3058
672580,994.0350952148438,1.10373345771153e-19,3058
672710,994.0595703125,1.10373345771153e-19,3059
672840,994.0452880859375,1.10373345771153e-19,3058
672970,994.0082397460938,1.10373345771153e-19,3058
673110,994.0527954101562,1.10373345771153e-19,3059
673240,994.0313110351562,1.10373345771153e-19,3058
673370,993.9942626953125,1.10373345771153e-19,3058
673500,993.980712890625,1.10373345771153e-19,3058
673630,994.0232543945312,1.10373345771153e-19,3059
673770,994.0368041992188,1.10373345771153e-19,3059
673900,994.0269775390625,1.10373345771153e-19,3060
674030,994.02734375,1.10373345771153e-19,3060
674160,994.0235595703125,1.10373345771153e-19,3060
674290,994.0113525390625,1.10373345771153e-19,3061
674460,994.0457153320312,1.10373345771153e-19,3061
674590,994.0147705078125,1.10373345771153e-19,3061
674720,993.9834594726562,1.10373345771153e-19,3060
674850,994.0389404296875,1.10373345771153e-19,3061
