time_boot_ms,xacc,yacc,zacc,xgyro,ygyro,zgyro,xmag,ymag,zmag
515640,425,-327,-7949,-11,-1,0,0,0,0
516140,424,-327,-7936,-11,1,-3,0,0,0
516640,426,-331,-7937,-12,1,-3,0,0,0
517140,424,-333,-7921,-11,-4,-5,0,0,0
517640,418,-322,-7918,-13,-2,-3,0,0,0
518140,425,-333,-7944,-13,-1,-1,0,0,0
518640,422,-318,-7945,-12,-8,0,0,0,0
519140,420,-333,-7936,-7,-3,-3,0,0,0
519640,426,-333,-7940,-14,-1,-3,0,0,0
520140,427,-324,-7936,-11,-5,-2,0,0,0
520640,419,-325,-7939,-12,-5,-4,0,0,0
521140,418,-332,-7932,-13,0,-3,0,0,0
521640,419,-328,-7937,-8,-1,-2,0,0,0
522140,425,-330,-7944,-11,-5,-4,0,0,0
522640,425,-328,-7931,-12,-4,-4,0,0,0
523140,416,-332,-7934,-11,-1,-3,0,0,0
523640,423,-330,-7937,-11,-4,-4,0,0,0
524140,427,-328,-7932,-8,-9,-4,0,0,0
524640,419,-330,-7928,-16,-1,-5,0,0,0
525140,424,-331,-7928,-11,-3,-3,0,0,0
525640,427,-324,-7933,-8,-3,-3,0,0,0
526140,418,-334,-7939,-12,-3,-3,0,0,0
526640,420,-332,-7941,-13,-4,-3,0,0,0
527140,434,-324,-7935,-10,-3,-3,0,0,0
527640,431,-326,-7939,-13,-1,-5,0,0,0
528140,420,-332,-7943,-12,-4,-3,0,0,0
528640,420,-327,-7943,-12,-3,-4,0,0,0
529140,425,-332,-7943,-13,-2,-5,0,0,0
529640,427,-334,-7939,-3,-8,0,0,0,0
530640,420,-334,-7934,-10,-9,-1,0,0,0
531140,426,-333,-7933,-12,-4,-4,0,0,0
531770,422,-323,-7936,-13,-5,-4,0,0,0
532240,427,-327,-7945,-13,0,-3,0,0,0
532740,426,-328,-7930,-11,-3,-3,0,0,0
533240,431,-327,-7940,-9,-3,-3,0,0,0
533740,422,-333,-7939,-14,-1,-4,0,0,0
534240,422,-334,-7937,-11,-3,-4,0,0,0
534740,421,-335,-7932,-11,-1,-5,0,0,0
535240,407,-327,-7947,-12,-6,-3,0,0,0
535740,429,-330,-7933,-10,0,-4,0,0,0
536240,428,-333,-7943,-10,-6,-2,0,0,0
536750,419,-333,-7942,-10,-7,-3,0,0,0
537240,426,-330,-7933,-11,-4,-1,0,0,0
537740,420,-333,-7946,-12,-3,-1,0,0,0
538240,419,-331,-7935,-10,-6,-5,0,0,0
538740,417,-335,-7933,-15,-5,-4,0,0,0
539240,416,-333,-7950,-11,-2,-3,0,0,0
539740,425,-324,-7937,-13,-4,-4,0,0,0
540240,424,-339,-7942,-12,-5,-2,0,0,0
540740,423,-335,-7940,0,-5,1,0,0,0
541240,424,-339,-7932,-12,2,-6,0,0,0
541740,425,-335,-7949,-11,-5,-4,0,0,0
542240,426,-331,-7950,-11,-5,-3,0,0,0
542740,427,-327,-7943,-12,-5,-5,0,0,0
543240,419,-330,-7939,-13,-3,-3,0,0,0
543740,414,-328,-7938,-12,-4,-1,0,0,0
544240,427,-331,-7950,-14,-3,-2,0,0,0
544740,424,-333,-7930,-12,-6,-7,0,0,0
545240,422,-333,-7940,-12,-4,-4,0,0,0
545740,416,-332,-7945,-12,-4,0,0,0,0
546240,426,-330,-7943,-12,-3,-2,0,0,0
546740,424,-326,-7941,-18,-1,-4,0,0,0
547240,420,-332,-7947,-11,-6,-9,0,0,0
547740,423,-329,-7947,-15,-3,-6,0,0,0
548240,426,-327,-7938,-9,-7,-1,0,0,0
548740,430,-334,-7948,-13,-5,-4,0,0,0
549240,418,-327,-7954,-12,-3,-3,0,0,0
549740,415,-332,-7940,-15,-3,-3,0,0,0
550240,421,-328,-7941,-16,-2,-3,0,0,0
550740,421,-340,-7946,-13,-4,-5,0,0,0
551240,423,-323,-7938,-9,-2,-4,0,0,0
551740,421,-330,-7938,-14,-3,-9,0,0,0
552240,418,-307,-7944,-8,4,-3,0,0,0
552740,437,-339,-7943,-16,4,-9,0,0,0
553240,425,-333,-7937,-18,-9,-4,0,0,0
553740,425,-327,-7933,-13,-1,-2,0,0,0
554240,421,-331,-7935,-10,-4,-6,0,0,0
554740,419,-332,-7944,-13,-2,-5,0,0,0
555240,424,-334,-7942,-14,-4,-5,0,0,0
555740,422,-328,-7940,-14,-5,-6,0,0,0
556240,422,-327,-7948,-12,1,-7,0,0,0
556740,420,-336,-7940,-14,-4,-5,0,0,0
557240,421,-328,-7943,-14,-3,-9,0,0,0
557740,427,-323,-7952,-14,0,-6,0,0,0
558240,420,-334,-7950,-20,1,-6,0,0,0
558740,426,-330,-7946,-14,-5,-3,0,0,0
559240,424,-344,-7941,-13,0,-3,0,0,0
559740,419,-335,-7947,-14,-3,-6,0,0,0
560240,429,-338,-7942,-13,-5,-12,0,0,0
560740,419,-329,-7941,-15,-5,-5,0,0,0
561240,416,-330,-7942,-15,-3,-6,0,0,0
561740,416,-330,-7954,-13,-3,-9,0,0,0
562240,426,-333,-7949,-13,-5,-7,0,0,0
562740,418,-331,-7953,-11,-3,-5,0,0,0
563240,427,-332,-7951,-15,-3,-7,0,0,0
563740,423,-327,-7948,-14,-2,-3,0,0,0
564240,424,-333,-7944,-15,-1,-4,0,0,0
564740,427,-331,-7954,-14,-4,-6,0,0,0
565240,419,-334,-7941,-14,-4,-6,0,0,0
565740,422,-328,-7939,-12,-2,-2,0,0,0
566240,425,-324,-7951,-14,1,-3,0,0,0
566740,427,-335,-7948,-13,-5,-7,0,0,0
567240,418,-333,-7956,-17,-2,-7,0,0,0
567740,425,-335,-7953,-14,-3,-7,0,0,0
568240,426,-330,-7955,-14,-2,-5,0,0,0
568740,427,-329,-7932,-14,-3,-2,0,0,0
569240,416,-332,-7954,-14,-5,-5,0,0,0
569740,417,-338,-7940,-11,-4,-1,0,0,0
570240,422,-333,-7941,-17,-12,-4,0,0,0
570740,421,-328,-7945,-17,-4,-5,0,0,0
571240,419,-329,-7942,-11,-2,0,0,0,0
571740,430,-332,-7931,-13,-2,-4,0,0,0
572240,418,-343,-7943,-14,-7,-3,0,0,0
572740,417,-333,-7935,-13,-2,-3,0,0,0
573240,418,-322,-7937,-12,-5,-5,0,0,0
573740,420,-333,-7947,-13,-3,-4,0,0,0
574240,420,-331,-7942,-16,-3,-2,0,0,0
574740,420,-329,-7948,-13,-5,0,0,0,0
575240,428,-333,-7940,-11,-3,-4,0,0,0
575740,434,-356,-7936,-17,1,-11,0,0,0
576240,420,-333,-7945,-13,-9,-4,0,0,0
576740,428,-328,-7938,-10,-5,-3,0,0,0
577240,428,-333,-7955,-10,-7,-6,0,0,0
577740,420,-329,-7935,-12,-4,-6,0,0,0
578240,418,-337,-7943,-15,-5,-1,0,0,0
578740,422,-327,-7941,-15,-1,-5,0,0,0
579240,419,-326,-7935,-11,-1,-4,0,0,0
579740,420,-335,-7945,-15,-5,-1,0,0,0
580240,421,-336,-7943,-12,-3,-4,0,0,0
580740,426,-335,-7943,-15,1,-4,0,0,0
581740,413,-335,-7946,-14,-3,-3,0,0,0
582240,417,-330,-7947,-12,1,-4,0,0,0
582740,431,-334,-7945,-14,-4,-4,0,0,0
583240,428,-326,-7940,-16,-5,-9,0,0,0
583740,419,-329,-7939,-14,-1,-1,0,0,0
584240,427,-333,-7945,-17,-5,-9,0,0,0
584740,425,-333,-7944,-15,-4,-5,0,0,0
585240,424,-332,-7935,-13,-3,-2,0,0,0
585740,420,-338,-7947,-12,-2,-4,0,0,0
586240,431,-333,-7945,-14,-7,-1,0,0,0
586940,421,-333,-7943,-11,0,-4,0,0,0
587440,416,-333,-7926,-12,0,-6,0,0,0
587940,429,-334,-7943,-19,-3,-3,0,0,0
588440,424,-330,-7942,-14,-4,-4,0,0,0
588940,425,-327,-7939,-14,-3,-6,0,0,0
589440,422,-338,-7938,-13,-3,-5,0,0,0
589940,427,-328,-7952,-15,0,-7,0,0,0
590440,427,-336,-7945,-11,-2,-5,0,0,0
590940,415,-341,-7937,-13,-1,-6,0,0,0
591440,425,-325,-7940,-13,-1,-5,0,0,0
591940,420,-329,-7941,-15,-3,-2,0,0,0
592440,418,-329,-7930,-14,-3,-5,0,0,0
592940,419,-323,-7942,-10,-9,-6,0,0,0
593440,416,-334,-7956,-17,-1,-7,0,0,0
593940,419,-333,-7954,-13,-7,-6,0,0,0
594440,418,-336,-7947,-14,-1,-5,0,0,0
594940,421,-332,-7942,-14,-5,-4,0,0,0
595440,435,-332,-7942,-14,-3,-6,0,0,0
595940,425,-329,-7949,-16,-4,-4,0,0,0
596440,421,-328,-7944,-16,-3,-5,0,0,0
596940,426,-328,-7941,-13,-3,-3,0,0,0
597440,418,-330,-7950,-17,-5,-3,0,0,0
597940,423,-329,-7950,-10,-6,-7,0,0,0
598440,420,-325,-7951,-15,-5,-3,0,0,0
598940,418,-327,-7941,-14,-9,-6,0,0,0
599440,416,-332,-7955,-15,3,-6,0,0,0
599940,420,-328,-7952,-13,-5,-3,0,0,0
600440,416,-326,-7950,-15,-3,-5,0,0,0
600940,430,-333,-7950,-14,-5,-6,0,0,0
601440,420,-331,-7950,-14,-3,-3,0,0,0
601940,429,-334,-7947,-15,-4,-9,0,0,0
602440,424,-329,-7949,-17,-10,-5,0,0,0
602940,428,-325,-7943,-14,-4,-5,0,0,0
603440,420,-333,-7951,-13,-6,-4,0,0,0
603950,423,-333,-7948,-15,-3,-5,0,0,0
604440,418,-333,-7938,-14,-6,-2,0,0,0
604940,419,-336,-7954,-15,2,-5,0,0,0
605440,425,-332,-7944,-13,-10,-4,0,0,0
605940,417,-333,-7951,-16,-2,-4,0,0,0
606440,420,-331,-7940,-15,-5,-4,0,0,0
606940,419,-330,-7943,-14,-8,-3,0,0,0
607440,420,-326,-7945,-16,-2,-5,0,0,0
607940,428,-284,-7960,2,-45,-1,0,0,0
608440,239,-477,-7909,767,-603,62,0,0,0
608940,439,-331,-7950,-131,823,-956,0,0,0
609440,482,-373,-7870,-164,269,-982,0,0,0
609940,640,-220,-7947,-45,100,-16,0,0,0
610440,489,-278,-7958,427,-1685,184,0,0,0
610940,392,-291,-7956,-41,65,-16,0,0,0
611440,394,-290,-7947,-19,6,-5,0,0,0
611940,389,-301,-7956,-18,-3,-3,0,0,0
612440,382,-300,-7950,-13,-3,-3,0,0,0
612940,393,-299,-7948,-15,-3,-5,0,0,0
613440,390,-297,-7943,-14,-3,-2,0,0,0
613940,388,-303,-7955,-17,-7,-5,0,0,0
614440,380,-305,-7948,-17,-2,-7,0,0,0
614940,388,-298,-7951,-16,-1,-5,0,0,0
615440,398,-302,-7945,-45,90,-18,0,0,0
615940,384,-299,-7966,-22,15,-9,0,0,0
617440,389,-296,-7959,-16,-7,-3,0,0,0
617940,390,-293,-7958,-15,-6,-1,0,0,0
618440,382,-299,-7953,-15,-1,-6,0,0,0
618940,392,-298,-7954,-18,-5,-6,0,0,0
619440,391,-297,-7956,-13,-6,-3,0,0,0
619940,388,-300,-7949,-15,-3,-4,0,0,0
620440,389,-299,-7946,-16,-3,-6,0,0,0
620940,394,-301,-7960,-13,-4,-7,0,0,0
621440,390,-294,-7939,-18,-4,-3,0,0,0
621940,387,-294,-7949,-18,0,-5,0,0,0
622440,385,-296,-7957,-15,-3,-6,0,0,0
622940,390,-303,-7955,-19,-2,-6,0,0,0
623440,391,-300,-7956,-17,-2,-4,0,0,0
623940,387,-297,-7944,-18,-5,-3,0,0,0
624440,397,-301,-7948,-14,-4,-7,0,0,0
624940,392,-295,-7950,-17,-3,-2,0,0,0
625440,391,-305,-7959,-16,-2,-5,0,0,0
625940,391,-299,-7953,-14,-4,-5,0,0,0
626440,390,-290,-7957,-17,-2,-4,0,0,0
626940,391,-306,-7960,-19,-2,-2,0,0,0
627440,393,-292,-7963,-18,-4,-5,0,0,0
627940,390,-295,-7952,-17,-8,-4,0,0,0
628440,388,-294,-7958,-18,3,-5,0,0,0
628940,398,-294,-7952,-19,4,-5,0,0,0
629440,378,-293,-7957,-13,-18,-9,0,0,0
629940,385,-285,-7951,23,-62,6,0,0,0
630440,453,-330,-7958,-1,-7,-5,0,0,0
630940,433,-288,-7950,-12,-1,-3,0,0,0
631440,355,-287,-7947,-1,-22,2,0,0,0
631940,386,-310,-7958,14,-97,6,0,0,0
632440,385,-296,-7956,-17,-17,-2,0,0,0
632940,381,-299,-7964,-17,-3,-5,0,0,0
633440,394,-293,-7958,-19,-7,-4,0,0,0
633940,386,-293,-7953,-17,-4,-5,0,0,0
634440,386,-289,-7958,-17,-1,-6,0,0,0
634940,390,-290,-7949,-16,-1,-5,0,0,0
635440,393,-289,-7960,-18,-3,-9,0,0,0
635940,382,-294,-7964,-17,-6,-4,0,0,0
636440,378,-291,-7954,-16,-1,-5,0,0,0
637440,382,-290,-7944,-17,-6,-6,0,0,0
637940,391,-297,-7953,-16,-4,-6,0,0,0
638440,386,-297,-7943,-18,-4,-4,0,0,0
638940,384,-295,-7958,-17,-4,-4,0,0,0
639440,387,-291,-7963,-25,3,-9,0,0,0
639940,385,-291,-7956,-20,-4,-4,0,0,0
640440,393,-304,-7956,-16,-5,-7,0,0,0
640940,390,-291,-7961,-18,2,-7,0,0,0
641440,387,-299,-7959,-16,-7,-5,0,0,0
642140,389,-294,-7946,-16,-7,-7,0,0,0
642640,391,-295,-7971,-22,5,-7,0,0,0
643140,388,-288,-7958,-15,-10,-4,0,0,0
643640,386,-291,-7962,-17,0,0,0,0,0
644140,388,-291,-7950,-14,-5,-4,0,0,0
644640,387,-299,-7957,-18,-3,-3,0,0,0
645140,386,-294,-7949,-17,-2,-3,0,0,0
645640,386,-298,-7957,-21,-3,-3,0,0,0
646140,397,-291,-7957,-18,2,-5,0,0,0
646640,387,-297,-7960,-13,-10,-3,0,0,0
647140,394,-292,-7954,-19,6,-3,0,0,0
647640,383,-298,-7959,-16,-9,-2,0,0,0
648140,392,-297,-7959,-16,0,-5,0,0,0
648640,390,-296,-7964,-19,-1,-2,0,0,0
649140,383,-292,-7940,-13,-8,-1,0,0,0
649640,389,-294,-7957,-18,-6,-2,0,0,0
650140,387,-301,-7948,-17,-3,-2,0,0,0
650640,393,-299,-7956,-18,1,0,0,0,0
651140,391,-291,-7939,-24,-1,-1,0,0,0
651640,398,-287,-7956,-16,-5,-2,0,0,0
652140,393,-299,-7963,-19,-7,0,0,0,0
652640,389,-295,-7958,-15,-9,0,0,0,0
653140,394,-296,-7950,-16,-8,-3,0,0,0
653640,393,-290,-7946,-14,-3,-4,0,0,0
654140,397,-294,-7938,-15,-4,0,0,0,0
654640,382,-298,-7957,-12,-7,0,0,0,0
655140,386,-295,-7957,-15,-6,0,0,0,0
655640,391,-295,-7950,-17,-1,1,0,0,0
656140,386,-292,-7955,-18,-2,-2,0,0,0
656640,388,-289,-7967,-16,-5,-3,0,0,0
657140,390,-293,-7953,-18,-4,-1,0,0,0
657640,405,-295,-7955,-15,1,-3,0,0,0
658140,390,-293,-7962,-15,-5,-2,0,0,0
658640,392,-291,-7951,-16,0,0,0,0,0
659140,393,-296,-7944,-15,-5,-4,0,0,0
659640,387,-291,-7951,-18,-5,-2,0,0,0
660140,390,-298,-7944,-16,-6,-2,0,0,0
660640,386,-297,-7947,-18,-2,-2,0,0,0
661140,389,-298,-7956,-17,-6,-3,0,0,0
661640,386,-295,-7944,-17,-6,-2,0,0,0
662140,384,-294,-7956,-15,-5,-4,0,0,0
662640,388,-286,-7948,-29,-4,0,0,0,0
663140,386,-296,-7953,-19,-9,-2,0,0,0
663640,395,-292,-7947,-13,-4,0,0,0,0
664140,390,-291,-7960,-13,-5,-1,0,0,0
664640,391,-301,-7956,-14,-2,-2,0,0,0
665140,387,-300,-7946,-16,-5,-1,0,0,0
665640,383,-291,-7951,-13,-6,-4,0,0,0
666140,391,-302,-7955,-15,-3,-5,0,0,0
666640,394,-295,-7947,-14,-4,0,0,0,0
667140,384,-295,-7960,-16,-3,-2,0,0,0
667650,393,-291,-7964,-15,-2,-2,0,0,0
668140,382,-291,-7963,-18,-5,-1,0,0,0
668640,392,-295,-7963,-12,-8,-3,0,0,0
669140,393,-299,-7945,-18,-3,-1,0,0,0
669640,404,-290,-7960,-15,-10,-2,0,0,0
670140,393,-291,-7952,-15,-7,-5,0,0,0
670640,393,-295,-7956,-14,-8,-6,0,0,0
671140,395,-297,-7951,-20,-2,-4,0,0,0
671640,393,-297,-7949,-14,-6,-3,0,0,0
672140,388,-294,-7957,-15,-3,-2,0,0,0
672640,383,-299,-7954,-14,-2,-10,0,0,0
673140,384,-293,-7949,-17,-8,-5,0,0,0
673640,390,-294,-7958,-14,-6,-3,0,0,0
674140,394,-290,-7938,-17,-6,0,0,0,0
674640,386,-288,-7946,-13,3,-6,0,0,0
675140,385,-303,-7966,-14,-9,-4,0,0,0
675640,382,-303,-7953,-14,-4,-5,0,0,0
676140,387,-299,-7948,-15,-2,-3,0,0,0
676640,377,-294,-7948,-14,-5,-2,0,0,0
677140,391,-290,-7961,-16,-3,-3,0,0,0
677640,391,-299,-7952,-16,-6,-4,0,0,0
678140,388,-293,-7949,-17,-4,-4,0,0,0
678640,391,-293,-7946,-15,-4,-3,0,0,0
679140,395,-291,-7945,-13,-4,1,0,0,0
679640,392,-299,-7955,-15,-6,-7,0,0,0
680140,401,-301,-7947,-10,8,-6,0,0,0
680640,393,-299,-7944,-18,-8,-7,0,0,0
681140,379,-288,-7952,-18,-2,-3,0,0,0
681640,386,-296,-7961,-15,-2,-6,0,0,0
682140,388,-296,-7955,-15,-3,-5,0,0,0
682640,387,-292,-7944,-16,-1,0,0,0,0
683640,379,-295,-7966,-15,-5,-6,0,0,0
684140,391,-293,-7959,-17,-3,-3,0,0,0
684640,388,-291,-7964,-18,-5,-4,0,0,0
685140,380,-291,-7950,-16,-4,-4,0,0,0
685640,385,-288,-7944,-19,-4,-7,0,0,0
686140,391,-294,-7949,-24,-2,-4,0,0,0
686640,394,-294,-7952,-16,-4,-2,0,0,0
687140,388,-292,-7953,-17,-1,-5,0,0,0
687640,388,-289,-7958,-17,-4,-10,0,0,0
688140,394,-293,-7963,-18,-4,-5,0,0,0
688640,391,-293,-7960,-16,-6,-4,0,0,0
689140,388,-294,-7956,-18,-6,-4,0,0,0
689640,391,-291,-7962,-18,-3,-6,0,0,0
690140,387,-292,-7963,-17,-5,0,0,0,0
690640,388,-296,-7959,-19,-3,-6,0,0,0
691140,388,-292,-7949,-16,-3,-3,0,0,0
691640,371,-279,-7960,-17,-1,-2,0,0,0
692140,390,-285,-7954,-16,-3,-7,0,0,0
692640,385,-294,-7953,-16,-1,-7,0,0,0
693140,387,-286,-7955,-19,-4,-5,0,0,0
693640,394,-288,-7958,-18,-4,-7,0,0,0
694140,385,-289,-7953,-18,-3,-7,0,0,0
694640,388,-293,-7957,-16,-5,-3,0,0,0
695140,388,-297,-7966,-18,-7,-5,0,0,0
695640,388,-284,-7944,-18,-5,-12,0,0,0
696140,393,-292,-7950,-18,-3,-5,0,0,0
696640,389,-295,-7956,-13,-1,-4,0,0,0
697340,393,-296,-7957,-16,-3,-10,0,0,0
697840,390,-296,-7961,-12,-9,-4,0,0,0
698340,384,-300,-7951,-20,-5,-6,0,0,0
698840,386,-293,-7961,-17,-5,-6,0,0,0
699340,382,-286,-7946,-18,-3,-5,0,0,0
699840,381,-303,-7945,-18,-3,-2,0,0,0
700340,389,-296,-7956,-15,-2,-4,0,0,0
700840,385,-287,-7956,-19,-2,-9,0,0,0
701340,388,-288,-7957,-17,-3,-10,0,0,0
701840,389,-300,-7949,-19,-2,-1,0,0,0
702340,393,-298,-7951,-17,-1,-5,0,0,0
703340,387,-293,-7958,-17,-1,-5,0,0,0
703840,399,-291,-7954,-20,-1,-3,0,0,0
704340,381,-295,-7944,-14,-8,-9,0,0,0
704840,391,-288,-7946,-18,-6,-7,0,0,0
705340,390,-289,-7968,-17,-3,-7,0,0,0
705840,391,-290,-7958,-15,-6,-3,0,0,0
706340,391,-293,-7941,-19,-5,-6,0,0,0
706840,391,-293,-7951,-18,-4,-5,0,0,0
707340,393,-297,-7958,-17,-4,-3,0,0,0
707840,379,-292,-7957,-17,-3,-5,0,0,0
708340,390,-291,-7961,-19,-4,-5,0,0,0
708840,387,-295,-7965,-15,-6,-7,0,0,0
709340,391,-287,-7964,-25,0,-7,0,0,0
709840,383,-291,-7974,-16,-4,-5,0,0,0
710340,392,-295,-7966,-17,2,-5,0,0,0
710840,389,-290,-7958,-15,-5,-4,0,0,0
711340,383,-299,-7956,-18,-6,-9,0,0,0
711840,391,-293,-7956,-16,-5,-7,0,0,0
712340,390,-291,-7958,-18,-1,-13,0,0,0
712840,394,-299,-7947,-15,-5,-5,0,0,0
713340,379,-294,-7955,-20,-3,-5,0,0,0
713840,388,-287,-7963,-21,-1,-4,0,0,0
714340,398,-287,-7962,-19,-3,-10,0,0,0
714840,392,-299,-7959,-16,-5,-6,0,0,0
715340,386,-292,-7960,-22,-3,-10,0,0,0
715840,398,-286,-7961,-18,-5,-4,0,0,0
716340,384,-298,-7955,-15,0,-6,0,0,0
716840,387,-302,-7953,-17,-6,-3,0,0,0
717340,392,-290,-7958,-16,-3,-5,0,0,0
717840,388,-293,-7947,-15,-5,-3,0,0,0
718340,390,-288,-7956,-15,-7,-7,0,0,0
718840,395,-290,-7960,-15,-6,-1,0,0,0
719340,392,-297,-7953,-17,-8,-3,0,0,0
719840,386,-291,-7947,-18,-4,-5,0,0,0
720340,375,-292,-7954,-26,13,0,0,0,0
720840,-176,-450,-8767,-2584,-3670,4593,0,0,0
721340,2613,-388,-9366,-1308,4234,3733,0,0,0
721840,4468,-1133,-8152,-2350,6724,8585,0,0,0
722340,3822,-2514,-4838,-4180,-970,11079,0,0,0
722840,341,-5236,-6446,3247,-5554,1806,0,0,0
723340,-414,-5128,-4363,4857,2730,-3081,0,0,0
723840,2135,-7936,-1832,9947,3328,1366,0,0,0
724340,-294,-6788,2254,5340,-9337,1399,0,0,0
724840,114,-8074,1839,-226,2777,-2243,0,0,0
725340,825,-7212,1241,-2582,-1665,4186,0,0,0
725840,-1071,-8201,-859,-1720,-375,2837,0,0,0
726340,-2624,-7343,81,503,-707,1225,0,0,0
726840,-1477,-7659,-2751,-1039,-7303,1527,0,0,0
727340,-3513,-7129,-2491,-3558,-2912,1869,0,0,0
727840,-3761,-6287,-1733,1015,990,1036,0,0,0
728340,-4336,-6150,-396,2895,2910,-1186,0,0,0
728840,-3390,-7091,536,1921,751,-783,0,0,0
729340,-2908,-7272,909,294,654,-804,0,0,0
729840,-2984,-7187,769,182,630,958,0,0,0
730340,-3237,-7168,920,478,-60,304,0,0,0
730840,-3104,-6912,913,83,319,-99,0,0,0
731340,-3145,-7183,1158,1488,736,93,0,0,0
731840,-2833,-7134,939,23,-553,-123,0,0,0
732340,-2536,-7310,1054,409,-79,14,0,0,0
732840,-2620,-7282,975,-60,-143,-354,0,0,0
733340,-2483,-7274,1207,659,-1272,-267,0,0,0
733840,-1887,-7165,217,-5828,-548,-870,0,0,0
734340,580,-7029,-3115,-6826,763,-7305,0,0,0
734840,1381,-6174,-5572,-4211,1064,-5710,0,0,0
735340,1841,-1462,-8105,-6906,-4611,-3764,0,0,0
735840,1918,401,-7882,-840,7036,-1274,0,0,0
736340,2528,455,-7875,1001,-6514,1351,0,0,0
736840,17,620,-7757,-1556,-241,1023,0,0,0
737340,216,428,-8214,-2406,-7741,-2846,0,0,0
737840,-1125,494,-7670,-3841,-2701,806,0,0,0
738340,-931,53,-7860,2355,-1192,-5143,0,0,0
738840,-1618,-1725,-7571,-689,-540,-209,0,0,0
739340,-1724,-626,-7718,-873,-186,130,0,0,0
739840,-1426,-1202,-7651,-69,2,70,0,0,0
740340,-1436,-1350,-7640,169,-90,-126,0,0,0
740840,-1452,-1710,-7559,1231,-77,-3,0,0,0
741340,-1292,-1413,-7731,-456,-140,327,0,0,0
741840,-1850,-1974,-7829,67,-440,-25,0,0,0
742340,-1170,-2063,-7423,489,-243,-245,0,0,0
742840,-1327,-2325,-7476,1230,158,-451,0,0,0
743340,-1432,-2218,-7565,84,-52,-32,0,0,0
743840,-1069,-2160,-7457,-555,383,385,0,0,0
744340,-1607,-2192,-7522,368,-150,-251,0,0,0
744840,-1238,-2446,-7378,770,92,-276,0,0,0
745340,-1152,-3461,-6997,746,-75,131,0,0,0
745840,-1519,-2918,-7136,-1614,-481,2411,0,0,0
746340,-1785,-1950,-7412,-641,569,408,0,0,0
746840,-1449,-1996,-7514,836,-591,35,0,0,0
747340,-1152,-1675,-7643,-5415,3157,-141,0,0,0
747840,1295,4062,-6884,-3458,1196,263,0,0,0
748340,1023,3424,-7091,-1710,1255,119,0,0,0
748840,1840,4084,-6689,-6018,4008,1750,0,0,0
749340,2502,5410,-6821,-3042,-5454,3076,0,0,0
749840,1094,5531,-4603,-2478,-2806,5851,0,0,0
750340,2223,5051,-5346,219,-2956,475,0,0,0
750840,2463,6281,-2750,-1905,661,1292,0,0,0
751340,3102,7211,-2114,695,-671,-1497,0,0,0
751980,3257,7290,-2094,359,-154,185,0,0,0
752440,3166,7083,-2040,219,-356,498,0,0,0
752940,3113,7264,-2075,-55,142,119,0,0,0
753440,3127,7230,-1958,62,-53,400,0,0,0
753940,3374,7120,-1947,85,-5,348,0,0,0
754440,3368,7225,-2065,-40,-24,-26,0,0,0
754940,3370,7185,-2032,-79,44,-154,0,0,0
755440,3365,7079,-2056,39,-109,161,0,0,0
755940,3341,7054,-2065,35,81,251,0,0,0
756440,3275,7111,-2002,-162,70,-262,0,0,0
756940,3401,7180,-1994,45,-95,247,0,0,0
757440,3358,7137,-2027,83,75,59,0,0,0
757940,3328,7127,-2018,-71,45,150,0,0,0
758440,3313,7182,-1917,19,2,-23,0,0,0
758940,3363,7163,-1958,-42,13,-108,0,0,0
759440,3376,7097,-1976,-151,-38,36,0,0,0
759940,3309,7129,-2053,21,72,-196,0,0,0
760440,3298,7116,-2068,-96,92,-28,0,0,0
760940,3333,7174,-2000,0,-25,-345,0,0,0
761440,3310,7103,-2058,83,-40,163,0,0,0
761940,3879,7471,-2328,940,181,1225,0,0,0
762440,2837,4983,-2814,12720,967,741,0,0,0
762940,2108,5612,-5467,11445,405,176,0,0,0
763440,3509,1163,-6971,9497,2330,6531,0,0,0
763940,3833,-244,-7162,-877,146,37,0,0,0
764440,3967,117,-7019,-351,303,-5,0,0,0
764940,4178,165,-6969,-165,337,119,0,0,0
765440,4226,70,-6918,310,-133,234,0,0,0
765940,4129,36,-6964,389,383,97,0,0,0
766440,4217,-28,-6927,-179,79,11,0,0,0
766940,4225,56,-6930,-292,373,27,0,0,0
767440,4202,-71,-6991,87,-51,4,0,0,0
767940,4405,-563,-6806,894,809,-143,0,0,0
768440,5349,-761,-6181,592,921,243,0,0,0
768940,6075,-970,-5596,861,1188,-116,0,0,0
769440,6964,-164,-4611,340,936,800,0,0,0
769950,7077,621,-4186,734,-756,610,0,0,0
770440,6619,-310,-4876,2403,-1742,-143,0,0,0
770940,7002,-567,-4334,172,43,-316,0,0,0
771440,6976,-604,-4252,0,25,-220,0,0,0
771940,7037,-943,-4164,186,109,402,0,0,0
772440,7039,-862,-4152,133,25,204,0,0,0
772940,6977,-608,-4306,-291,-87,-191,0,0,0
773450,7018,-874,-4162,218,221,64,0,0,0
773940,7054,-493,-4291,-111,-93,-385,0,0,0
774440,7104,-519,-4223,-175,-48,0,0,0,0
774940,7054,-373,-4379,-219,-101,-851,0,0,0
775440,7139,-451,-4225,-84,-45,111,0,0,0
775940,6997,-204,-4351,-327,-218,-509,0,0,0
776440,7081,-240,-4260,126,81,242,0,0,0
776940,7000,-148,-4328,-217,-119,-696,0,0,0
777440,7073,59,-4298,141,-17,-477,0,0,0
777940,6996,199,-4333,-16,-104,-290,0,0,0
778440,6959,281,-4404,-46,-83,-123,0,0,0
778940,7060,218,-4370,60,10,241,0,0,0
779440,6966,333,-4307,-480,-174,-1136,0,0,0
779940,6983,473,-4478,-84,-42,-366,0,0,0
780440,6951,805,-4337,-110,15,-248,0,0,0
780940,6903,1057,-4390,-280,-4,-772,0,0,0
781440,6753,1435,-4490,38,55,-1439,0,0,0
781940,6858,1534,-4478,-158,-106,-305,0,0,0
782440,6849,1583,-4308,-297,37,39,0,0,0
782940,6762,1636,-4487,-156,-56,-114,0,0,0
783440,6726,1537,-4497,200,-21,193,0,0,0
783940,6787,1526,-4386,-81,-34,142,0,0,0
784440,6817,1384,-4395,-574,130,875,0,0,0
784940,7031,1461,-4304,20,55,22,0,0,0
785440,6838,1542,-4328,111,11,343,0,0,0
785940,6825,1772,-4325,72,-69,-421,0,0,0
786440,6783,1774,-4240,-24,-129,70,0,0,0
786940,6584,2617,-4061,166,92,-1303,0,0,0
787440,6333,3096,-4109,-270,-342,382,0,0,0
787940,6410,3184,-4231,-577,7,-199,0,0,0
788440,6257,3459,-4075,-511,-270,-423,0,0,0
788940,6201,3516,-4105,-212,-411,56,0,0,0
789440,6324,3865,-3902,-239,-87,-229,0,0,0
789940,6264,3810,-3827,-113,210,-236,0,0,0
790440,6290,3545,-4020,22,-83,539,0,0,0
790940,6333,3615,-3833,15,84,-224,0,0,0
791440,6228,3835,-3780,-488,-43,-586,0,0,0
791940,5714,4739,-3570,-1206,359,-2683,0,0,0
792440,6309,3406,-4198,8067,-3204,12245,0,0,0
792940,6708,2619,-4245,-1384,-173,-9052,0,0,0
793440,5542,1079,-5632,3315,-3005,-2525,0,0,0
793940,4183,3085,-5875,1028,1130,-823,0,0,0
794440,3507,1129,-7095,3685,-4942,4179,0,0,0
794940,3760,261,-7754,-3707,-1735,126,0,0,0
795440,524,5132,-8284,-6933,-9485,7155,0,0,0
795940,-4268,3843,-4303,-1307,-9775,5830,0,0,0
796440,-3697,5589,-3324,588,-772,-219,0,0,0
796940,-3130,6529,-3605,-2908,-1392,-3501,0,0,0
797440,-4998,5225,-3375,-221,83,73,0,0,0
797940,-4555,5586,-3080,-264,106,349,0,0,0
798440,-4604,5708,-3166,-872,226,282,0,0,0
798940,-4382,5428,-3459,73,663,1028,0,0,0
799440,-4059,5791,-3301,261,291,-554,0,0,0
799940,-4461,5648,-3388,846,-91,-463,0,0,0
800440,-4389,5989,-3201,-174,-583,-242,0,0,0
800940,-4603,6273,-2776,195,330,-1269,0,0,0
801440,-4352,5571,-2867,-461,-1274,-2878,0,0,0
802470,-4841,5233,-2682,-592,-953,-1545,0,0,0
802940,-5508,5788,-2848,1031,995,1556,0,0,0
803440,-5447,4957,-2556,213,618,181,0,0,0
803940,-5725,5421,-2494,197,1559,1112,0,0,0
804440,-4969,5069,-2293,-825,841,-284,0,0,0
804940,-4128,5344,-4422,-923,2914,-160,0,0,0
805440,-4061,3872,-5736,2423,4420,-3600,0,0,0
805940,-4551,1994,-6293,502,1817,-2209,0,0,0
806440,-4304,1817,-5413,-894,-527,-4869,0,0,0
807140,-5069,2487,-5914,-1117,50,850,0,0,0
807640,-4712,3088,-5718,-2143,-442,1196,0,0,0
808140,-4801,3350,-6163,-2036,-647,-2303,0,0,0
808640,-4290,6706,-2029,754,-191,-563,0,0,0
809140,-4138,6409,-2747,492,2909,2091,0,0,0
809640,-3737,5866,-3827,-243,1042,-714,0,0,0
810140,-3721,5614,-4039,-379,-978,-2037,0,0,0
810640,-4125,5367,-3916,-339,787,244,0,0,0
811140,-4471,4833,-3877,-193,-108,-359,0,0,0
811640,-4354,5109,-3998,-134,-195,-368,0,0,0
812140,-4668,4858,-3712,-35,-199,-827,0,0,0
812640,-4559,4590,-3640,-274,-229,175,0,0,0
813140,-4278,5580,-3688,-337,324,626,0,0,0
813640,-3789,5664,-4001,129,-567,38,0,0,0
814140,-4355,5861,-4310,-141,-1288,-1672,0,0,0
814640,-4043,5721,-3391,-170,-658,415,0,0,0
815140,-4457,6134,-3814,-235,472,470,0,0,0
815640,-4120,5487,-3700,-293,-108,60,0,0,0
816140,-4363,5125,-3194,-459,-1152,-1984,0,0,0
816640,-4101,5580,-3307,-577,127,-387,0,0,0
817140,-4152,5245,-3262,-54,233,-864,0,0,0
817640,-4171,5478,-2974,-247,-2,-631,0,0,0
818140,-4392,5307,-3350,580,424,-115,0,0,0
818640,-4458,5277,-3410,-96,191,168,0,0,0
819140,-4712,4957,-3700,-48,46,94,0,0,0
819640,-5011,4562,-3597,581,372,33,0,0,0
820140,-4884,4626,-3419,250,263,22,0,0,0
820640,-4931,4786,-3628,206,178,516,0,0,0
821140,-5115,4842,-3534,222,43,567,0,0,0
821640,-5156,5006,-3458,-36,510,932,0,0,0
822140,-4858,5132,-3229,198,37,599,0,0,0
822640,-4773,5039,-2959,469,-271,-185,0,0,0
823140,-4549,5160,-3071,163,-52,-170,0,0,0
823640,-4531,4913,-3032,103,-267,-236,0,0,0
824140,-4847,5079,-2951,-149,-269,-213,0,0,0
824640,-4740,5802,-3043,-219,374,303,0,0,0
825140,-4855,5458,-3239,-538,-156,291,0,0,0
825640,-4721,5583,-3221,-192,51,-199,0,0,0
826140,-4917,4982,-3086,-361,-276,-360,0,0,0
826640,-5203,4958,-3073,-166,-113,-279,0,0,0
827140,-5137,5055,-3273,245,373,209,0,0,0
827640,-5128,5188,-3310,282,140,241,0,0,0
828140,-5366,4916,-3494,99,-206,447,0,0,0
828640,-5270,4945,-2841,-390,-931,4,0,0,0
829140,-4813,5259,-3086,-561,-885,104,0,0,0
829640,-4762,4963,-2630,266,61,-758,0,0,0
830140,-4783,5170,-2741,215,-230,-1230,0,0,0
830640,-4676,4856,-2655,-11,-1055,-1933,0,0,0
831140,-4856,4934,-2499,397,-303,-798,0,0,0
831640,-5133,5463,-2602,-677,1091,1923,0,0,0
832140,-5689,5458,-3135,-557,796,945,0,0,0
832640,-5160,5822,-3165,-392,11,143,0,0,0
833140,-5237,5722,-2908,1115,391,-1207,0,0,0
833640,-5317,5216,-2746,265,-382,-1303,0,0,0
834140,-5286,5239,-2876,368,-65,-534,0,0,0
834640,-5058,4695,-2793,449,-405,-715,0,0,0
835140,-5333,5150,-2918,42,-110,-96,0,0,0
835640,-5508,4580,-2899,34,-10,261,0,0,0
836140,-5484,5144,-3061,52,127,480,0,0,0
836640,-5400,5004,-3206,10,-352,442,0,0,0
837140,-5623,5650,-3545,134,628,1261,0,0,0
837640,-5856,5562,-3458,-248,718,2080,0,0,0
838140,-5437,5354,-3430,525,-293,351,0,0,0
838640,-4996,5234,-3291,766,311,742,0,0,0
839140,-5561,5099,-3587,997,606,540,0,0,0
839640,-5446,5072,-3934,113,336,1041,0,0,0
840140,-5630,5419,-3552,-138,1656,3130,0,0,0
840640,-5698,4958,-3391,464,1233,2011,0,0,0
841140,-5352,4934,-3485,-294,484,883,0,0,0
841640,-5092,4750,-3554,-365,-883,-971,0,0,0
842140,-4579,4702,-2738,493,178,-243,0,0,0
842640,-4864,4289,-2656,199,-38,-367,0,0,0
843140,-4737,4224,-2778,-227,13,-154,0,0,0
843640,-4993,4501,-2659,-319,-84,-813,0,0,0
844140,-5120,5022,-2946,-267,268,151,0,0,0
844640,-5048,4949,-3060,-61,160,-381,0,0,0
845140,-5015,5168,-3052,-324,434,-458,0,0,0
845640,-5295,5349,-3322,-247,502,136,0,0,0
846140,-5150,5188,-3440,-253,-254,-116,0,0,0
846640,-5237,4921,-3147,-33,39,-373,0,0,0
847140,-4913,4310,-3227,211,-803,-1749,0,0,0
847640,-4888,4900,-3152,-203,305,495,0,0,0
848140,-5195,4647,-3295,18,-43,-65,0,0,0
848640,-4811,5063,-3649,-453,-714,-111,0,0,0
849140,-4445,4518,-3315,158,-1354,-1863,0,0,0
849640,-4878,4408,-3166,-41,-117,907,0,0,0
