time_boot_ms,distance
514940,20
515350,20
515490,20
515620,20
515750,20
515890,20
516020,20
516150,20
516290,20
516420,20
516550,20
516690,20
516830,20
516960,20
517090,20
517220,20
517350,20
517480,20
517610,20
517740,20
517880,20
518010,20
518170,20
518300,20
518430,20
518560,20
518690,20
518820,20
518960,20
519090,20
519220,20
519350,20
519490,20
519620,20
519750,20
519880,20
520010,20
520140,20
520290,20
520430,20
520560,20
520690,20
520830,20
520960,20
521090,20
521220,20
521360,20
521490,20
521620,20
521750,20
521880,20
522010,20
522150,20
522290,20
522420,20
522550,20
522680,20
522810,20
522940,20
523080,20
523220,20
523350,20
523490,20
523620,20
523750,20
523880,20
524010,20
524140,20
524290,20
524420,20
524550,20
524680,20
524820,20
524960,20
525090,20
525220,20
525350,20
525500,20
525630,20
525770,20
525910,20
526040,20
526180,20
526310,20
526440,20
526570,20
526700,20
526830,20
526960,20
527090,20
527220,20
527360,20
527500,20
527630,20
527770,20
527900,20
528030,20
528170,20
528300,20
528430,20
528560,20
528690,20
528830,20
528970,20
529100,20
529250,20
529380,20
529520,20
529650,20
529790,20
530210,20
530340,20
530470,20
530610,20
530740,20
530870,20
531000,20
531130,20
531270,20
531400,20
531540,20
531910,20
532040,20
532170,20
532300,20
532430,20
532560,20
532690,20
532820,20
532950,20
533110,20
533240,20
533390,20
533520,20
533650,20
533780,20
533910,20
534040,20
534170,20
534310,20
534450,20
534580,20
534710,20
534840,20
534970,20
535100,20
535240,20
535390,20
535520,20
535650,20
535790,20
535930,20
536070,20
536200,20
536330,20
536460,20
536590,20
536720,20
536880,20
537010,20
537150,20
537280,20
537410,20
537540,20
537670,20
537800,20
537930,20
538060,20
538190,20
538320,20
538460,20
538590,20
538730,20
538870,20
539000,20
539130,20
539540,20
539680,20
539820,20
539950,20
540100,20
540230,20
540370,20
540520,20
540650,20
540780,20
540910,20
541040,20
541180,20
541310,20
541440,20
541570,20
541700,20
541830,20
541960,20
542100,20
542230,20
542370,20
542510,20
542640,20
542770,20
542900,20
543030,20
543160,20
543300,20
543430,20
543560,20
543690,20
543830,20
543960,20
544110,20
544240,20
544400,20
544530,20
544670,31
544810,20
544940,20
545070,20
545210,20
545340,20
545480,20
545610,20
545740,20
545890,20
546020,20
546150,20
546280,20
546410,20
546550,20
546680,20
546810,20
546940,20
547070,20
547200,20
547340,20
547470,20
547600,20
547730,20
547910,20
548040,20
548180,20
548310,20
548440,20
548580,20
548710,20
548840,20
548980,20
549110,20
549250,20
549400,20
549530,20
549660,20
549790,20
549920,20
550050,20
550180,20
550310,20
550440,20
550580,20
550720,20
550850,20
550980,20
551110,20
551240,20
551390,20
551540,20
551670,20
551800,20
551940,20
552070,20
552200,20
552330,20
552460,20
552590,20
552720,20
552870,20
553000,20
553130,20
553270,20
553400,20
553530,20
553660,20
553790,20
553920,20
554060,20
554190,20
554320,20
554450,20
554590,20
554720,20
554850,20
554980,20
555110,20
555260,20
555390,20
555520,20
555650,20
555780,20
555920,20
556050,20
556180,20
556310,20
556440,20
556570,20
556700,20
556830,20
556970,20
557100,20
557240,20
557390,20
557520,20
557650,20
557780,20
557910,20
558040,20
558170,20
558300,20
558430,20
558570,20
558710,20
558840,20
558970,20
559100,20
559230,20
559370,20
559500,20
559630,20
559760,20
559900,20
560030,20
560160,20
560290,20
560420,20
560550,20
560680,20
560810,20
560940,20
561070,20
561220,20
561350,20
561480,20
561610,20
561740,20
561890,20
562020,20
562150,20
562280,20
562410,20
562570,20
562700,20
562830,20
562960,20
563090,20
563220,20
563370,20
563500,20
563630,20
563760,20
563900,20
564030,20
564160,20
564290,20
564420,20
564550,20
564680,20
564810,20
564940,20
565070,20
565210,20
565350,20
565480,20
565610,20
565740,20
565890,20
566020,20
566150,20
566300,20
566430,20
566570,20
566700,20
566830,20
566960,20
567090,20
567220,20
567350,20
567480,20
567610,20
567740,20
567910,20
568040,20
568170,20
568300,20
568430,20
568570,20
568700,20
568830,20
568960,20
569090,20
569230,20
569370,20
569510,20
569640,20
569770,20
569910,20
570040,20
570170,20
570300,20
570440,20
570580,20
570710,20
570840,20
570970,20
571100,20
571230,20
571370,20
571500,20
571630,20
571760,20
571900,20
572030,20
572160,20
572290,20
572420,20
572560,20
572690,20
572820,20
572950,20
573080,20
573220,20
573350,20
573500,20
573630,20
573770,20
573900,20
574030,20
574160,20
574290,20
574420,20
574560,20
574690,20
574820,20
574960,20
575090,20
575220,20
575350,20
575480,20
575610,20
575740,20
575900,20
576030,20
576160,20
576290,20
576420,20
576550,20
576680,20
576810,20
576940,20
577100,20
577250,20
577390,20
577520,20
577650,20
577780,20
577920,20
578050,20
578180,20
578310,20
578440,20
578580,20
578710,20
578840,20
578970,20
579100,20
579230,20
579370,20
579510,20
579650,20
579780,20
579920,20
580050,20
580180,20
580310,20
580450,20
580580,20
580710,20
581580,20
581710,20
581850,20
581980,20
582110,20
582250,20
582390,20
582520,20
582660,20
582790,20
582920,20
583050,20
583190,20
583320,20
583450,20
583580,20
583710,20
583840,20
583990,20
584120,20
584250,20
584410,20
584540,20
584670,20
584800,20
584930,20
585060,20
585190,20
585330,20
585460,20
585590,20
585730,20
585870,20
586000,20
586130,20
586260,20
586400,20
586770,20
586910,20
587040,20
587170,20
587300,20
587430,20
587570,20
587700,20
587830,20
587960,20
588090,20
588230,20
588380,20
588510,20
588640,20
588780,20
588910,20
589040,20
589170,20
589300,20
589430,20
589580,20
589710,20
589840,20
589970,20
590100,20
590230,20
590360,20
590490,20
590620,20
590760,20
590900,20
591030,20
591160,20
591300,20
591430,20
591570,20
591700,20
591830,20
591990,20
592120,20
592260,20
592390,20
592520,20
592650,20
592790,20
592920,20
593050,20
593180,20
593320,20
593450,20
593600,20
593730,20
593860,20
593990,20
594120,20
594250,20
594380,20
594510,20
594640,20
594770,20
594910,20
595050,20
595180,20
595320,20
595450,20
595610,20
595740,20
595870,20
596010,20
596140,20
596280,20
596410,20
596540,20
596670,20
596800,20
596930,20
597070,20
597200,20
597330,20
597460,20
597600,20
597730,20
597870,20
598000,20
598130,20
598260,20
598390,20
598520,20
598650,20
598780,20
598920,20
599050,20
599210,20
599340,20
599470,20
599600,20
599730,20
599860,20
599990,20
600180,20
600320,20
600450,20
600590,20
600730,20
600860,20
600990,20
601190,20
601320,20
601460,20
601590,20
601730,20
601860,20
601990,20
602190,20
602320,20
602450,20
602600,20
602730,20
602860,20
603010,20
603150,20
603280,20
603410,20
603540,20
603670,20
603800,20
603930,20
604070,20
604200,20
604330,20
604470,20
604600,20
604730,20
604870,20
605000,20
605130,20
605260,20
605390,20
605530,20
605670,20
605810,20
605940,20
606090,20
606220,20
606350,20
606480,20
606630,20
606760,20
606890,20
607020,20
607170,20
607300,20
607430,20
607570,20
607700,20
607840,26
607970,20
608100,20
608230,25
608360,20
608500,20
608630,20
608760,20
608890,20
609020,20
609160,20
609290,20
609420,20
609550,20
609680,20
609820,20
609950,20
610100,20
610250,20
610380,20
610510,20
610640,20
610770,20
610910,20
611040,20
611180,20
611310,20
611440,20
611590,20
611720,20
611850,20
611990,20
612120,20
612250,20
612380,20
612520,20
612650,20
612780,20
612910,20
613040,20
613170,20
613300,20
613430,20
613570,20
613700,20
613860,20
613990,20
614120,20
614250,20
614380,20
614510,20
614640,20
614780,20
614910,20
615040,20
615190,20
615320,20
615450,20
615590,20
615720,20
615850,20
615980,20
616140,20
617410,20
617570,20
617700,20
617830,20
617970,20
618100,20
618230,20
618360,20
618490,20
618620,20
618750,20
618880,20
619010,20
619140,20
619280,20
619420,20
619560,20
619690,20
619820,20
619950,20
620090,20
620220,20
620360,20
620500,20
620640,20
620780,20
620910,20
621040,20
621180,20
621310,20
621440,20
621590,20
621720,20
621850,20
621990,20
622120,20
622250,20
622380,20
622510,20
622640,20
622770,20
622900,20
623030,20
623160,20
623300,20
623430,20
623570,20
623700,20
623830,20
623960,20
624100,20
624230,20
624360,20
624490,20
624660,20
624790,20
624920,20
625050,20
625180,20
625320,20
625450,20
625590,20
625720,20
625850,20
625990,20
626120,20
626250,20
626380,20
626510,20
626640,20
626770,20
626900,20
627030,20
627170,20
627310,20
627440,20
627590,20
627720,20
627850,20
627980,20
628130,20
628280,20
628410,20
628540,20
628690,20
628830,20
628970,20
629100,20
629230,20
629360,20
629490,20
629620,20
629760,20
629900,20
630040,20
630170,20
630300,20
630430,20
630570,20
630700,20
630830,20
630960,20
631090,20
631220,20
631360,20
631490,20
631620,22
631770,20
631900,20
632030,24
632160,20
632290,20
632420,20
632550,20
632690,20
632820,20
632950,20
633100,20
633230,20
633370,20
633500,20
633630,20
633760,20
633890,20
634030,20
634160,20
634290,20
634430,20
634570,20
634700,20
634830,20
634970,20
635100,20
635230,20
635390,20
635520,20
635650,20
635780,20
635910,20
636040,20
636170,20
636300,20
636430,20
637290,20
637420,20
637560,20
637690,20
637820,20
637950,20
638110,20
638240,20
638380,20
638510,20
638640,20
638770,20
638900,20
639070,20
639200,20
639330,20
639470,20
639600,20
639730,20
639860,20
639990,20
640120,20
640250,20
640380,20
640510,20
640640,20
640780,20
640910,20
641040,20
641170,20
641300,20
641430,20
641580,20
641710,20
642060,20
642190,20
642330,20
642460,20
642590,20
642740,20
642880,20
643010,20
643140,20
643290,20
643420,20
643550,20
643700,20
643830,20
643960,20
644090,20
644220,20
644350,20
644480,20
644610,20
644740,20
644870,20
645010,20
645140,20
645290,20
645430,20
645560,20
645690,20
645830,20
645960,20
646090,20
646220,20
646360,20
646490,20
646620,20
646750,20
646880,20
647010,20
647140,20
647290,20
647420,20
647560,20
647700,20
647830,20
647970,20
648100,20
648240,20
648370,20
648500,20
648630,20
648770,20
648900,20
649040,20
649170,20
649300,20
649430,20
649560,20
649690,20
649840,20
649980,20
650110,20
650240,20
650380,20
650510,20
650640,20
650790,20
650920,20
651050,20
651180,20
651310,20
651450,20
651580,20
651720,20
651850,20
651980,20
652110,20
652250,20
652380,20
652510,20
652640,20
652790,20
652920,20
653060,20
653190,20
653340,20
653470,20
653600,20
653730,20
653860,20
653990,20
654120,20
654270,20
654410,20
654540,20
654670,20
654800,20
654930,20
655060,20
655190,20
655320,20
655450,20
655580,20
655720,20
655850,20
655980,20
656110,20
656240,20
656370,20
656510,20
656640,20
656790,20
656940,20
657080,20
657210,20
657340,20
657470,20
657600,20
657730,20
657860,20
657990,20
658120,20
658250,20
658400,20
658530,20
658660,20
658790,20
658920,20
659050,20
659180,20
659310,20
659440,20
659570,20
659710,20
659840,20
659980,20
660110,20
660240,20
660400,20
660530,20
660660,20
660790,20
660920,20
661060,20
661190,20
661320,20
661460,20
661590,20
661720,20
661850,20
661980,20
662110,20
662240,20
662410,20
662550,20
662680,20
662810,20
662940,20
663070,20
663200,20
663330,20
663460,20
663590,20
663730,20
663880,20
664010,20
664140,20
664290,20
664420,20
664550,20
664680,20
664810,20
664940,20
665080,20
665210,20
665340,20
665470,20
665600,20
665730,20
665860,20
665990,20
666130,20
666270,20
666410,20
666540,20
666670,20
666820,20
666950,20
667080,20
667210,20
667340,20
667500,20
667630,20
667780,20
667910,20
668040,20
668170,20
668300,20
668430,20
668570,20
668700,20
668830,20
668960,20
669100,20
669230,20
669360,20
669490,20
669620,20
669750,20
669880,20
670010,20
670140,20
670290,20
670430,20
670560,20
670690,20
670830,20
670990,20
671120,20
671250,20
671380,20
671510,20
671640,20
671800,20
671930,20
672060,20
672190,20
672320,20
672450,20
672580,20
672710,20
672840,20
672970,20
673110,20
673240,20
673370,20
673500,20
673630,20
673770,20
673900,20
674030,20
674160,20
674290,20
674460,20
674590,20
674720,20
674850,20
674980,20
675110,20
675250,20
675400,20
675530,20
675660,20
675800,20
675930,20
676060,20
676190,20
676320,20
676450,20
676580,20
676710,20
676840,20
676970,20
677110,20
677240,20
677370,20
677500,20
677630,20
677770,20
677900,20
678060,20
678190,20
678320,20
678460,20
678590,20
678720,20
678850,20
678980,20
679110,20
679240,20
679380,20
679510,20
679640,20
679800,20
679940,20
680080,20
680210,20
680340,20
680480,20
680610,20
680740,20
680870,20
681000,20
681140,20
681290,20
681420,20
681570,20
681700,20
681830,20
681960,20
682090,20
682220,20
682350,20
682490,20
682620,20
682750,20
682880,20
683010,20
683140,20
683290,20
683420,20
683550,20
683690,20
683830,20
683960,20
684090,20
684220,20
684350,20
684490,20
684620,20
684770,20
684900,20
685060,20
685200,20
685330,20
685460,20
685590,20
685720,20
685850,20
685980,20
686110,20
686240,20
686370,20
686510,20
686640,20
686790,20
686920,20
687050,20
687180,20
687310,20
687440,20
687570,20
687700,20
687850,20
687980,20
688110,20
688240,20
688370,20
688520,20
688650,20
688790,20
688920,20
689060,20
689200,20
689340,20
689470,20
689600,20
689730,20
689870,20
690000,20
690130,20
690270,20
690400,20
690540,20
690670,20
690800,20
690930,20
691060,20
691190,20
691320,20
691480,20
691610,20
691740,20
691880,20
692040,20
692170,20
692300,20
692430,20
692560,20
692690,20
692820,20
692950,20
693080,20
693220,20
693360,20
693490,20
693630,20
693770,20
693900,20
694040,20
694170,20
694300,20
694430,20
694570,20
694700,20
694830,20
694960,20
695090,20
695220,20
695350,20
695480,20
695630,20
695770,20
695910,20
696040,20
696170,20
696300,20
696430,20
696560,20
696690,20
697020,20
697150,20
697280,20
697420,20
697550,20
697680,20
697810,20
697940,20
698070,20
698200,20
698340,20
698490,20
698620,20
698770,20
698900,20
699030,20
699160,20
699320,20
699450,20
699590,20
699720,20
699850,20
699990,20
700130,20
700260,20
700400,20
700540,20
700670,20
700800,20
700930,20
701060,20
701190,20
701320,20
701460,20
701590,20
701720,20
701850,20
701990,20
702120,20
702250,20
703000,20
703130,20
703260,20
703390,20
703530,20
703660,20
703790,20
703920,20
704050,20
704190,20
704320,20
704450,20
704580,20
704720,20
704850,20
704990,20
705120,20
705250,20
705380,20
705520,20
705650,20
705780,20
705910,20
706040,20
706200,20
706330,20
706470,20
706600,20
706730,20
706870,20
707000,20
707130,20
707270,20
707400,20
707530,20
707660,20
707790,20
707920,20
708050,20
708200,20
708330,20
708470,20
708600,20
708730,20
708860,20
709000,20
709130,20
709260,20
709390,20
709550,20
709710,20
709840,20
709980,20
710110,20
710240,20
710370,20
710500,20
710630,20
710770,20
710910,20
711040,20
711170,20
711300,20
711430,20
711570,20
711700,20
711830,20
711970,20
712100,20
712240,20
712370,20
712500,20
712630,20
712760,20
712910,20
713040,20
713170,20
713340,20
713490,20
713630,20
713760,20
713890,20
714020,20
714160,20
714290,20
714420,20
714550,20
714680,20
714810,20
714950,20
715080,20
715210,20
715340,20
715490,20
715620,20
715750,20
715880,20
716010,20
716140,20
716280,20
716410,20
716550,20
716710,20
716840,20
716990,20
717120,20
717250,20
717380,20
717530,20
717670,20
717800,20
717930,20
718060,20
718190,20
718320,20
718450,20
718580,20
718710,20
718840,20
719000,20
719130,20
719260,20
719400,20
719530,20
719660,20
719790,20
719920,20
720050,20
720210,20
720350,20
720490,20
720620,20
720750,20
720880,20
721010,20
721150,20
721280,20
721410,20
721540,20
721690,20
721820,20
721960,20
722090,20
722230,20
722360,20
722490,20
722620,20
722750,20
722880,20
723020,20
723150,20
723280,20
723410,20
723540,20
723700,22
723830,20
723970,20
724100,20
724230,20
724370,20
724500,20
724630,20
724760,20
724890,20
725020,20
725150,20
725280,720
725420,20
725550,20
725700,20
725830,20
725980,20
726110,20
726240,20
726370,20
726500,20
726630,20
726760,20
726900,20
727070,20
727200,20
727330,20
727470,20
727600,23
727730,20
727860,20
727990,20
728120,20
728250,20
728390,20
728520,20
728650,20
728780,20
728910,22
729040,20
729170,20
729300,20
729430,20
729570,27
729710,20
729840,20
729990,20
730130,20
730270,20
730400,20
730560,20
730690,20
730820,20
730950,20
731090,20
731220,20
731360,20
731500,20
731630,20
731760,20
731890,20
732020,20
732150,20
732280,20
732420,20
732550,720
732680,720
732810,25
732940,720
733070,20
733200,720
733330,25
733470,720
733600,24
733740,622
733880,20
734040,20
734170,20
734310,20
734440,20
734570,24
734700,20
734840,20
734990,20
735130,21
735260,21
735390,22
735520,22
735650,22
735780,23
735910,23
736040,23
736180,23
736310,720
736450,720
736580,30
736710,32
736840,20
736990,20
737120,20
737250,20
737380,20
737540,20
737670,20
737810,20
737940,20
738080,20
738210,20
738340,21
738490,32
738630,32
738760,21
738890,28
739020,720
739160,720
739300,24
739430,24
739560,25
739690,24
739820,24
739960,720
740090,720
740220,720
740350,181
740500,720
740630,720
740770,720
740910,720
741040,720
741170,99
741300,22
741430,720
741570,720
741700,720
741840,720
741990,720
742120,720
742250,720
742380,151
742510,720
742640,20
742770,720
742910,351
743040,720
743180,720
743310,20
743440,20
743570,20
743700,23
743840,22
743990,720
744120,23
744250,23
744380,20
744520,25
744650,720
744780,720
744910,720
745040,20
745170,20
745300,720
745430,20
745560,20
745690,20
745830,720
745970,720
746100,720
746230,720
746360,508
746490,720
746620,720
746750,720
746880,720
747020,720
747160,720
747290,20
747420,261
747550,720
747680,720
747840,20
747990,20
748120,20
748250,20
748390,20
748530,20
748660,20
748790,21
748920,22
749050,20
749180,20
749310,20
749440,22
749570,22
749700,21
749840,20
749990,20
750130,27
750260,536
750390,20
750520,20
750650,20
750780,22
750910,22
751040,20
751180,20
751340,20
751490,23
751620,24
751750,20
752110,22
752240,20
752370,20
752500,20
752630,20
752770,24
752900,22
753030,20
753160,20
753290,20
753420,20
753550,20
753690,20
753820,20
753950,20
754100,20
754230,20
754360,20
754490,20
754620,20
754750,20
754880,20
755040,20
755170,20
755300,20
755440,20
755600,20
755730,20
755860,20
755990,20
756120,20
756250,20
756380,20
756510,20
756640,20
756780,20
756910,20
757040,20
757170,20
757300,20
757430,20
757570,20
757700,20
757830,20
757960,20
758100,20
758230,20
758390,20
758520,20
758650,20
758780,20
758910,20
759040,20
759170,20
759300,20
759440,20
759590,20
759720,20
759860,20
759990,20
760120,20
760250,20
760380,20
760510,20
760640,20
760780,20
760910,20
761040,20
761170,20
761300,20
761440,20
761590,20
761720,20
761880,20
762010,20
762160,20
762290,24
762420,20
762550,20
762680,20
762810,20
762940,20
763090,20
763220,20
763350,20
763490,20
763620,20
763750,20
763880,20
764020,20
764150,20
764290,20
764420,20
764550,20
764680,720
764820,720
764950,20
765090,20
765250,20
765380,20
765510,20
765640,20
765780,20
765910,20
766040,20
766180,20
766310,20
766440,20
766590,20
766730,20
766860,720
766990,720
767120,720
767250,720
767380,720
767520,720
767650,720
767780,720
767910,720
768040,20
768170,20
768310,20
768440,20
768610,20
768740,20
768890,20
769020,20
769150,20
769280,20
769410,20
769540,20
769670,20
769800,20
769930,20
770070,20
770210,20
770340,20
770470,20
770600,23
770730,23
770870,20
771000,20
771130,25
771270,20
771400,20
771540,20
771680,31
771810,20
771940,20
772110,20
772240,20
772370,20
772500,20
772630,20
772760,31
772900,32
773030,720
773160,720
773290,31
773420,720
773560,20
773690,22
773820,444
773950,720
774080,720
774220,20
774350,20
774480,32
774610,20
774740,32
774870,20
775000,22
775130,24
775260,22
775390,24
775560,20
775690,20
775830,20
775960,20
776090,20
776220,23
776350,23
776480,24
776610,20
776750,20
776890,20
777020,20
777150,20
777280,32
777410,31
777540,20
777680,20
777810,20
777940,20
778090,20
778240,20
778380,20
778510,20
778640,20
778770,333
778930,720
779070,20
779200,20
779330,720
779460,21
779600,20
779730,20
779860,20
779990,20
780120,20
780260,20
780400,20
780530,20
780660,20
780790,20
780940,20
781080,20
781210,20
781340,20
781470,20
781600,20
781730,20
781860,20
782000,20
782130,20
782300,20
782430,20
782570,20
782700,20
782840,20
782980,20
783110,20
783240,20
783370,20
783500,20
783640,20
783770,20
783900,20
784030,20
784160,20
784290,20
784420,20
784550,20
784680,20
784810,20
784960,20
785090,27
785230,720
785360,20
785490,20
785650,20
785780,20
785910,20
786040,20
786170,20
786310,20
786440,20
786590,31
786720,29
786850,21
786980,720
787120,23
787250,720
787380,22
787510,20
787650,20
787780,22
787910,24
788050,24
788180,23
788310,23
788440,24
788590,23
788720,23
788860,23
789000,23
789130,22
789260,22
789400,720
789540,24
789680,22
789810,22
789940,23
790090,20
790220,20
790360,20
790490,23
790620,23
790750,23
790880,23
791010,24
791140,24
791270,24
791410,24
791540,24
791680,20
791810,20
791940,20
792090,20
792230,720
792360,26
792520,639
792650,720
792780,20
792910,20
793050,20
793180,26
793310,20
793440,20
793600,21
793730,720
793860,25
793990,20
794120,20
794250,20
794390,20
794520,20
794650,25
794780,720
794920,22
795050,23
795180,23
795310,28
795440,20
795590,20
795760,20
795890,29
796150,518
796280,20
796410,20
796540,20
796670,30
796800,720
796940,720
797100,720
797230,720
797360,23
797490,23
797620,23
797750,23
797890,23
798020,23
798150,20
798280,720
798420,20
798550,720
798680,20
798810,20
798940,25
799080,20
799240,20
799370,20
799500,20
799630,20
799770,20
799900,20
800030,20
800160,720
800290,20
800420,20
800550,20
800680,20
800840,20
800970,20
801110,20
801240,20
801370,20
801500,20
801630,20
801760,20
801890,20
802020,20
802150,20
802280,20
802420,20
802580,20
802710,20
802840,20
802970,20
803110,20
803240,20
803370,20
803500,20
803630,20
803770,20
803900,20
804030,20
804160,20
804290,20
804420,20
804550,20
804680,20
804810,20
804940,720
805090,30
805220,20
805350,720
805480,107
805610,107
805740,20
805870,20
806030,20
806160,20
806310,20
806450,20
806590,20
806720,20
807090,20
807220,20
807350,20
807480,20
807610,20
807740,20
807870,20
808020,142
808150,21
808290,20
808420,20
808550,20
808680,546
808810,20
808940,23
809070,20
809200,23
809340,24
809470,24
809630,24
809770,25
809900,20
810030,20
810160,665
810290,25
810420,24
810550,24
810700,24
810830,20
810960,720
811100,23
811230,720
811360,24
811490,278
811620,23
811750,20
811880,720
812020,20
812150,23
812290,24
812430,20
812560,23
812690,23
812850,23
812980,23
813110,20
813240,23
813380,23
813510,24
813640,20
813790,20
813930,23
814060,23
814190,315
814320,24
814450,23
814580,720
814720,23
814850,27
814980,587
815110,720
815240,720
815370,24
815500,720
815630,720
815780,720
815910,720
816050,720
816210,377
816340,720
816480,720
816610,21
816740,21
816870,20
817010,446
817140,24
817280,24
817420,720
817550,28
817680,452
817810,720
817940,20
818070,20
818200,20
818330,20
818460,20
818590,720
818730,720
818860,720
819000,20
819130,20
819270,720
819400,20
819560,20
819690,20
819820,20
819950,20
820090,20
820220,20
820350,20
820490,20
820620,20
820760,20
820890,20
821020,20
821150,20
821290,20
821430,20
821570,20
821700,20
821830,720
821960,20
822090,20
822220,20
822350,20
822480,20
822610,20
822750,20
822910,20
823040,20
823170,20
823300,20
823430,20
823560,20
823690,20
823820,20
823950,20
824090,20
824220,20
824350,20
824480,20
824610,20
824740,20
824870,20
825000,20
825140,20
825290,20
825430,20
825560,20
825690,20
825820,20
825950,20
826090,20
826250,20
826380,20
826510,20
826640,20
826800,20
826930,20
827060,20
827190,20
827320,20
827460,20
827590,20
827720,20
827850,20
827980,20
828120,20
828250,20
828380,20
828510,20
828640,20
828790,20
828920,720
829050,20
829180,720
829310,20
829480,20
829610,20
829750,20
829880,720
830010,720
830140,20
830290,20
830420,20
830550,20
830690,20
830830,20
830970,20
831100,20
831230,20
831360,20
831490,20
831620,20
831770,20
831900,20
832030,20
832170,20
832300,20
832430,20
832560,20
832690,20
832850,20
832980,20
833110,20
833240,20
833370,20
833510,20
833640,20
833790,20
833920,20
834050,20
834180,20
834310,20
834450,20
834580,20
834710,20
834850,20
834980,20
835110,20
835250,20
835380,20
835510,20
835640,20
835790,20
835930,20
836060,20
836230,20
836360,20
836490,20
836620,20
836750,20
836880,20
837010,20
837140,20
837290,20
837420,20
837560,20
837690,20
837820,20
837950,20
838080,20
838210,20
838340,20
838470,20
838600,20
838730,20
838870,20
839010,20
839140,20
839290,20
839420,20
839580,20
839710,20
839840,20
839970,20
840110,20
840250,20
840380,720
840510,720
840640,720
840790,720
840960,720
841090,720
841220,148
841360,720
841490,720
841630,720
841770,720
841900,720
842030,720
842170,720
842300,720
842430,720
842560,720
842690,720
842850,720
842990,720
843120,720
843250,720
843380,720
843510,720
843640,720
843800,20
843970,720
844100,720
844230,20
844390,720
844520,20
844650,298
844790,720
844970,720
845100,720
845230,20
845360,20
845490,720
845620,720
845770,720
845980,720
846110,720
846240,720
846370,720
846500,720
846630,720
846770,720
846900,720
847030,20
847170,20
847300,20
847430,20
847560,720
847690,20
847820,20
847980,20
848110,720
848240,720
848370,20
848510,20
848650,720
848800,20
848990,20
849130,20
849270,20
849400,20
849530,20
849690,20
