time_boot_ms,q1,q2,q3,q4,rollspeed,pitchspeed,yawspeed
0,0.9447094202041626,0.03155557066202164,0.3262694180011749,-0.006327761337161064,0.0,0.0,0.0
0,0.9426722526550293,0.024545731022953987,0.32748302817344666,-0.012341486290097237,0.0,0.0,0.0
0,0.9291093349456787,0.006678641773760319,0.365123987197876,-0.005211800802499056,0.0,0.0,0.0
0,0.9181718826293945,-0.0023894363548606634,0.3918432295322418,-0.0067193713039159775,0.0,0.0,0.0
0,0.9155341386795044,-0.003456191159784794,0.3980129361152649,0.0016690725460648537,0.0,0.0,0.0
0,0.9157388806343079,0.00034599416540004313,0.39745745062828064,0.009047592990100384,0.0,0.0,0.0
0,0.9276613593101501,0.0028105697128921747,0.36882248520851135,0.006144711747765541,0.0,0.0,0.0
0,0.9463960528373718,-0.003142021829262376,0.31739991903305054,0.014354501850903034,0.0,0.0,0.0
0,0.9499520063400269,-0.003190988674759865,0.306294709444046,0.019720878452062607,0.0,0.0,0.0
0,0.9525226950645447,0.0001835451985243708,0.2985662817955017,0.013607289642095566,0.0,0.0,0.0
0,0.9480989575386047,-0.0073802657425403595,0.3122570514678955,0.0133506553247571,0.0,0.0,0.0
0,0.9549981355667114,-0.00538242980837822,0.2907160520553589,0.008057896979153156,0.0,0.0,0.0
0,0.9655510783195496,0.0003550850960891694,0.25349465012550354,0.008707599714398384,0.0,0.0,0.0
0,0.9651398062705994,0.002490338869392872,0.25488412380218506,0.0125565892085433,0.0,0.0,0.0
0,0.9568120837211609,0.0010557735804468393,0.28471043705940247,0.008999344892799854,0.0,0.0,0.0
0,0.9489811062812805,-0.006610732525587082,0.30944162607192993,0.01638033427298069,0.0,0.0,0.0
0,0.9367251396179199,-0.016520269215106964,0.34390994906425476,0.02511363849043846,0.0,0.0,0.0
0,0.9278072118759155,-0.01768917217850685,0.3670990467071533,0.027034295722842216,0.0,0.0,0.0
0,0.9042245745658875,-0.0034543462097644806,0.4217141270637512,0.033981870859861374,0.0,0.0,0.0
0,0.8794694542884827,0.020564289763569832,0.46969112753868103,0.0461871474981308,0.0,0.0,0.0
0,0.8657535314559937,0.005339327268302441,0.4949161112308502,0.046184029430150986,0.0,0.0,0.0
0,0.8341130614280701,0.003631307976320386,0.5471487641334534,0.038764894008636475,0.0,0.0,0.0
0,0.7642723917961121,-0.008384502492845058,0.6416333913803101,0.02750973403453827,0.0,0.0,0.0
0,0.7275296449661255,-0.026735931634902954,0.6827428936958313,0.021931126713752747,0.0,0.0,0.0
0,0.702457070350647,-0.0327841117978096,0.7079896926879883,0.029378779232501984,0.0,0.0,0.0
0,0.6660548448562622,-0.040718138217926025,0.7412779331207275,0.043046969920396805,0.0,0.0,0.0
0,0.6261671185493469,-0.07605200260877609,0.7723426818847656,0.04744183272123337,0.0,0.0,0.0
0,0.6566103100776672,-0.0712268203496933,0.7468897104263306,0.050777677446603775,0.0,0.0,0.0
0,0.7365124821662903,-0.13304594159126282,0.06088723987340927,0.6578496098518372,0.0,0.0,0.0
0,0.7310688495635986,-0.11026746034622192,-0.0010210264008492231,0.6708239316940308,0.0,0.0,0.0
0,0.6733195185661316,-0.12733621895313263,0.04006558656692505,0.7248772382736206,0.0,0.0,0.0
0,0.6541708707809448,-0.1734032928943634,0.047215528786182404,0.7323853373527527,0.0,0.0,0.0
0,0.6291263699531555,-0.21309888362884521,0.060199134051799774,0.7428282499313354,0.0,0.0,0.0
0,0.6291263699531555,-0.21309888362884521,0.060199134051799774,0.7428282499313354,0.0,0.0,0.0
0,0.6080319881439209,-0.22065100073814392,0.08639073371887207,0.755494236946106,0.0,0.0,0.0
0,0.4902283549308777,-0.17501546442508698,0.12287186086177826,0.8429553508758545,0.0,0.0,0.0
0,0.37905800342559814,-0.12986020743846893,0.25716114044189453,0.8774675130844116,0.0,0.0,0.0
0,0.3055143654346466,-0.10095570981502533,0.3416338562965393,0.8811278939247131,0.0,0.0,0.0
0,0.29581066966056824,-0.08603338897228241,0.37597164511680603,0.8719925284385681,0.0,0.0,0.0
0,0.3203558921813965,-0.07556959986686707,0.34398528933525085,0.8774772882461548,0.0,0.0,0.0
0,0.3360811173915863,-0.0043135578744113445,0.34641459584236145,0.8738757371902466,0.0,0.0,0.0
0,0.3414497375488281,0.03573603555560112,0.35694369673728943,0.8668086528778076,0.0,0.0,0.0
0,0.35616782307624817,0.04534212127327919,0.3724314570426941,0.8538231253623962,0.0,0.0,0.0
0,0.36659732460975647,0.07243797928094864,0.3567759096622467,0.8542258143424988,0.0,0.0,0.0
0,0.5472216010093689,0.12076359242200851,0.29108744859695435,0.7732166647911072,0.0,0.0,0.0
0,0.5318626165390015,0.006202417425811291,0.09080443531274796,0.8399204611778259,0.0,0.0,0.0
0,0.4917275905609131,0.032383665442466736,-0.017966927960515022,0.8680209517478943,0.0,0.0,0.0
0,0.8909872174263,0.4074934720993042,-0.1786234974861145,-0.0903356671333313,0.0,0.0,0.0
0,0.9521311521530151,-0.06721103191375732,-0.2714179754257202,0.10903550684452057,0.0,0.0,0.0
0,0.9526782035827637,-0.10133859515190125,-0.2579141855239868,0.11065293848514557,0.0,0.0,0.0
0,0.9450523853302002,-0.11416961997747421,-0.2859477400779724,0.09329952299594879,0.0,0.0,0.0
0,0.9385871887207031,-0.1288837045431137,-0.3070222735404968,0.06936002522706985,0.0,0.0,0.0
0,0.9316703081130981,-0.16053494811058044,-0.3138618767261505,0.06587968021631241,0.0,0.0,0.0
0,0.9240116477012634,-0.18450330197811127,-0.3212432265281677,0.07479649037122726,0.0,0.0,0.0
0,0.9193122386932373,-0.20457927882671356,-0.3196168839931488,0.0865340605378151,0.0,0.0,0.0
0,0.9013037085533142,-0.2651130259037018,-0.322184681892395,0.100969597697258,0.0,0.0,0.0
0,0.8826590776443481,-0.328917533159256,-0.3173999786376953,0.09281831234693527,0.0,0.0,0.0
0,0.8744075298309326,-0.34058791399002075,-0.34052956104278564,0.009117672219872475,0.0,0.0,0.0
0,0.860971987247467,-0.35678577423095703,-0.35562002658843994,-0.03997667878866196,0.0,0.0,0.0
0,0.8654990196228027,-0.351611852645874,-0.3429756164550781,-0.07925044000148773,0.0,0.0,0.0
0,0.8598433136940002,-0.36073511838912964,-0.3392399847507477,-0.10994642972946167,0.0,0.0,0.0
0,0.8475970029830933,-0.3803614675998688,-0.3399992287158966,-0.13393108546733856,0.0,0.0,0.0
0,0.852767288684845,-0.40743720531463623,-0.2806245982646942,-0.15705224871635437,0.0,0.0,0.0
0,0.8458821773529053,-0.4244879186153412,-0.2605119049549103,-0.18182283639907837,0.0,0.0,0.0
0,0.8321613669395447,-0.45096421241760254,-0.26281049847602844,-0.17805130779743195,0.0,0.0,0.0
0,0.7956417202949524,-0.49590566754341125,-0.29622262716293335,-0.17296366393566132,0.0,0.0,0.0
0,0.7303093075752258,-0.5453150272369385,-0.37021178007125854,-0.1698712706565857,0.0,0.0,0.0
0,0.13254468142986298,-0.4990822672843933,-0.8351001739501953,-0.18052582442760468,0.0,0.0,0.0
0,0.029275065287947655,-0.5029141902923584,-0.8615947961807251,0.022546907886862755,0.0,0.0,0.0
0,-0.07815109193325043,-0.6973099112510681,-0.7086560726165771,0.04571319743990898,0.0,0.0,0.0
0,-0.1654282957315445,-0.6780142188072205,-0.7135385274887085,0.020654402673244476,0.0,0.0,0.0
0,-0.25378379225730896,-0.6383824944496155,-0.7235300540924072,0.03462747484445572,0.0,0.0,0.0
0,-0.35780152678489685,-0.6399247050285339,-0.671789288520813,0.08835872262716293,0.0,0.0,0.0
0,-0.4767238199710846,-0.5522809624671936,-0.6710113286972046,0.11872982233762741,0.0,0.0,0.0
0,-0.4767238199710846,-0.5522809624671936,-0.6710113286972046,0.11872982233762741,0.0,0.0,0.0
0,-0.6575366258621216,-0.319710373878479,-0.6419261693954468,0.22358720004558563,0.0,0.0,0.0
0,-0.7553685903549194,0.17922301590442657,-0.5151960849761963,0.3584592938423157,0.0,0.0,0.0
0,-0.7315038442611694,0.5298792719841003,-0.22544103860855103,0.36046794056892395,0.0,0.0,0.0
0,-0.7390163540840149,0.6334149241447449,-0.08958438038825989,0.20309917628765106,0.0,0.0,0.0
0,-0.7153608798980713,0.6476776599884033,-0.1243346631526947,0.22348938882350922,0.0,0.0,0.0
0,-0.7153608798980713,0.6476776599884033,-0.1243346631526947,0.22348938882350922,0.0,0.0,0.0
0,-0.6651142239570618,0.6930039525032043,-0.1095777153968811,0.24898825585842133,0.0,0.0,0.0
0,-0.5884299874305725,0.7504514455795288,-0.03593311086297035,0.2931133508682251,0.0,0.0,0.0
0,-0.491115540266037,0.8303288817405701,0.030257930979132652,0.2551034092903137,0.0,0.0,0.0
0,-0.40992647409439087,0.8859387040138245,0.09487876296043396,0.18629154562950134,0.0,0.0,0.0
0,-0.3021921217441559,0.9410666823387146,0.11206136643886566,0.08455494791269302,0.0,0.0,0.0
0,-0.23481394350528717,0.9490028619766235,0.20074711740016937,0.024293698370456696,0.0,0.0,0.0
0,-0.17657476663589478,0.9252941012382507,0.32785603404045105,0.04238357022404671,0.0,0.0,0.0
0,-0.10734476149082184,0.9247235059738159,0.35721632838249207,0.04892788082361221,0.0,0.0,0.0
0,0.016216669231653214,0.9672250747680664,0.24617795646190643,0.015554563142359257,0.0,0.0,0.0
0,0.16105490922927856,0.9833744764328003,0.06046515330672264,-0.0035923521500080824,0.0,0.0,0.0
0,0.2771037518978119,0.9517282247543335,-0.09359271824359894,-0.07280470430850983,0.0,0.0,0.0
0,0.33547788858413696,0.9115339517593384,-0.20728188753128052,-0.1011357232928276,0.0,0.0,0.0
0,0.3433258533477783,0.9017201066017151,-0.23117923736572266,-0.11053595691919327,0.0,0.0,0.0
0,0.2950640320777893,0.919244110584259,-0.2005518525838852,-0.15601329505443573,0.0,0.0,0.0
0,0.26273831725120544,0.9384888410568237,-0.05264997482299805,-0.20992442965507507,0.0,0.0,0.0
0,0.26859772205352783,0.9245540499687195,0.13857120275497437,-0.22469033300876617,0.0,0.0,0.0
0,0.2677357792854309,0.881135880947113,0.2901449501514435,-0.2537052631378174,0.0,0.0,0.0
0,0.2871239185333252,0.8452842235565186,0.36329320073127747,-0.2602042257785797,0.0,0.0,0.0
0,0.3273373246192932,0.84886234998703,0.3324071168899536,-0.24170644581317902,0.0,0.0,0.0
0,0.42658624053001404,0.8500757217407227,0.2195214182138443,-0.20937608182430267,0.0,0.0,0.0
0,0.5719959735870361,0.8059180378913879,-0.07963970303535461,-0.11663178354501724,0.0,0.0,0.0
0,0.6297192573547363,0.6709727644920349,-0.38701337575912476,-0.01006823405623436,0.0,0.0,0.0
0,0.623146116733551,0.5257707238197327,-0.5743712186813354,0.0445496067404747,0.0,0.0,0.0
0,0.6169074177742004,0.47290828824043274,-0.6253408193588257,0.036952096968889236,0.0,0.0,0.0
0,0.6064886450767517,0.4527415633201599,-0.6509324312210083,0.010813165456056595,0.0,0.0,0.0
0,0.6045582294464111,0.4305626451969147,-0.6675859689712524,-0.009355380199849606,0.0,0.0,0.0
0,0.6045609712600708,0.42479607462882996,-0.6709889769554138,-0.02148282900452614,0.0,0.0,0.0
0,0.6074727773666382,0.43142828345298767,-0.6637405753135681,-0.030468402430415154,0.0,0.0,0.0
0,0.6305131912231445,0.4235750734806061,-0.6474910378456116,-0.02064249850809574,0.0,0.0,0.0
0,0.655462920665741,0.40606388449668884,-0.6339967250823975,0.012718561105430126,0.0,0.0,0.0
0,0.6867780685424805,0.3906629681587219,-0.6083128452301025,0.048029109835624695,0.0,0.0,0.0
0,0.6956078410148621,0.3351117968559265,-0.6292286515235901,0.0673341155052185,0.0,0.0,0.0
0,0.6885849833488464,0.2834514081478119,-0.6619182229042053,0.06327253580093384,0.0,0.0,0.0
0,0.6804265975952148,0.25267499685287476,-0.6818968057632446,0.069461390376091,0.0,0.0,0.0
0,0.7009592056274414,0.28706076741218567,-0.6477623581886292,0.05734973028302193,0.0,0.0,0.0
0,0.7190597653388977,0.3929827809333801,-0.5701552033424377,-0.008514201268553734,0.0,0.0,0.0
0,0.7179896831512451,0.5233738422393799,-0.4356330335140228,-0.13200663030147552,0.0,0.0,0.0
0,0.7158278822898865,0.5885614156723022,-0.28022468090057373,-0.2435000091791153,0.0,0.0,0.0
0,0.7474749088287354,0.5629284381866455,-0.21261999011039734,-0.27535125613212585,0.0,0.0,0.0
0,0.764559805393219,0.5356855988502502,-0.17250025272369385,-0.3088126480579376,0.0,0.0,0.0
0,0.73566734790802,0.526499330997467,-0.1615685671567917,-0.3900194764137268,0.0,0.0,0.0
0,0.630754292011261,0.5321115851402283,-0.14175184071063995,-0.5436353087425232,0.0,0.0,0.0
0,0.5230802893638611,0.5385939478874207,-0.08980003744363785,-0.6518188118934631,0.0,0.0,0.0
0,0.48273441195487976,0.5354013442993164,-0.05055670067667961,-0.6887558102607727,0.0,0.0,0.0
0,0.482023686170578,0.5306673049926758,-0.03553183376789093,-0.6938374638557434,0.0,0.0,0.0
0,0.5230266451835632,0.5201087594032288,-0.05236171931028366,-0.6706823706626892,0.0,0.0,0.0
0,0.5817971229553223,0.5065246224403381,-0.09721353650093079,-0.6261951923370361,0.0,0.0,0.0
0,0.534953773021698,0.43666109442710876,-0.10016866773366928,-0.7139606475830078,0.0,0.0,0.0
0,0.5414258241653442,0.29681140184402466,-0.22934193909168243,-0.7501913905143738,0.0,0.0,0.0
0,0.5719822645187378,0.34471362829208374,-0.18170087039470673,-0.7194556593894958,0.0,0.0,0.0
0,0.6430962085723877,0.43404924869537354,-0.015338459052145481,-0.6280245184898376,0.0,0.0,0.0
0,0.6765217781066895,0.4955403506755829,0.0831156000494957,-0.5352324843406677,0.0,0.0,0.0
0,0.7368811964988708,0.4674128592014313,0.0634741559624672,-0.48075881600379944,0.0,0.0,0.0
0,0.6559031009674072,0.4559363126754761,0.015802685171365738,-0.5985713005065918,0.0,0.0,0.0
0,0.5500286817550659,0.5568452477455139,0.05455685779452324,-0.61728435754776,0.0,0.0,0.0
0,0.4461935758590698,0.6848969459533691,0.048562757670879364,-0.5710462331771851,0.0,0.0,0.0
0,0.38798901438713074,0.8361866474151611,0.018512727692723274,-0.38280990719795227,0.0,0.0,0.0
0,0.35424092411994934,0.8721820116043091,-0.031207984313368797,-0.33086198568344116,0.0,0.0,0.0
0,0.4120868742465973,0.8500432372093201,-0.06769826263189316,-0.3156900405883789,0.0,0.0,0.0
0,0.45886310935020447,0.8098375201225281,-0.0969449132680893,-0.3476206958293915,0.0,0.0,0.0
0,0.5245165228843689,0.7485440373420715,-0.16109248995780945,-0.36775004863739014,0.0,0.0,0.0
0,0.5605943202972412,0.7126890420913696,-0.17498157918453217,-0.3792261481285095,0.0,0.0,0.0
0,0.5874078273773193,0.6886664628982544,-0.1879722625017166,-0.37680113315582275,0.0,0.0,0.0
0,0.601930558681488,0.6804105639457703,-0.19500085711479187,-0.3651278018951416,0.0,0.0,0.0
0,0.5999374389648438,0.6809458136558533,-0.18184363842010498,-0.37408965826034546,0.0,0.0,0.0
0,0.5685886144638062,0.706207275390625,-0.15140236914157867,-0.3894582986831665,0.0,0.0,0.0
0,0.5340656042098999,0.7298774719238281,-0.10338634252548218,-0.40986159443855286,0.0,0.0,0.0
0,0.5352020859718323,0.7276277542114258,-0.07946375012397766,-0.4176422655582428,0.0,0.0,0.0
0,0.5429577231407166,0.726798415184021,-0.04397185519337654,-0.4143068194389343,0.0,0.0,0.0
0,0.5421639680862427,0.7167068123817444,-0.019315917044878006,-0.4343266487121582,0.0,0.0,0.0
0,0.3775971829891205,0.7450844645500183,0.00904716458171606,-0.5466347932815552,0.0,0.0,0.0
0,0.19867239892482758,0.7256172299385071,0.08446530252695084,-0.6507667899131775,0.0,0.0,0.0
0,0.1557401716709137,0.7266021370887756,0.05634665489196777,-0.6642615795135498,0.0,0.0,0.0
0,0.14652976393699646,0.731235682964325,0.07406962662935257,-0.6595163345336914,0.0,0.0,0.0
0,0.14706550538539886,0.712016761302948,0.11605618894100189,-0.674210786819458,0.0,0.0,0.0
0,0.13680027425289154,0.7092985510826111,0.1733490228652954,-0.6669003367424011,0.0,0.0,0.0
0,0.12583015859127045,0.6991281509399414,0.2286428064107895,-0.6631248593330383,0.0,0.0,0.0
0,0.18338292837142944,0.7008863687515259,0.29476284980773926,-0.6203787326812744,0.0,0.0,0.0
0,0.21286261081695557,0.7044796943664551,0.3174576461315155,-0.5951834917068481,0.0,0.0,0.0
0,0.21520480513572693,0.7069664597511292,0.3688390552997589,-0.5607756972312927,0.0,0.0,0.0
0,0.1946273148059845,0.7388702630996704,0.38509026169776917,-0.5143168568611145,0.0,0.0,0.0
0,0.26760995388031006,0.6934680938720703,0.4953378140926361,-0.44581738114356995,0.0,0.0,0.0
0,0.3428032696247101,0.595552921295166,0.5824378132820129,-0.4303407073020935,0.0,0.0,0.0
0,0.5912978053092957,0.6276155710220337,0.4733799993991852,-0.17087867856025696,0.0,0.0,0.0
0,0.5220874547958374,0.15867894887924194,0.6511116027832031,0.5243250131607056,0.0,0.0,0.0
0,0.47494933009147644,0.29573124647140503,0.7511745691299438,0.3454793691635132,0.0,0.0,0.0
0,0.37965813279151917,0.4422498643398285,0.7972421050071716,-0.14595668017864227,0.0,0.0,0.0
0,0.3473438024520874,0.4403492212295532,0.7558175921440125,-0.33287787437438965,0.0,0.0,0.0
0,0.4040874242782593,0.34712135791778564,0.8368708491325378,-0.111775703728199,0.0,0.0,0.0
0,0.43459510803222656,0.29045984148979187,0.8412644863128662,0.1251365691423416,0.0,0.0,0.0
0,0.33474200963974,-0.1465255469083786,0.4461292624473572,0.8149310946464539,0.0,0.0,0.0
0,0.36533424258232117,-0.16233369708061218,0.17925480008125305,0.8970334529876709,0.0,0.0,0.0
0,0.5727667808532715,-0.39025014638900757,0.028935370966792107,0.7179348468780518,0.0,0.0,0.0
0,0.7389883995056152,-0.16513481736183167,0.21537743508815765,0.6138923168182373,0.0,0.0,0.0
0,0.7730659246444702,-0.1858944594860077,0.12253806740045547,0.5911191701889038,0.0,0.0,0.0
0,0.7292185425758362,-0.13754333555698395,0.03289664164185524,0.6669822931289673,0.0,0.0,0.0
0,0.693798303604126,-0.07871037721633911,-0.036119356751441956,0.7125805616378784,0.0,0.0,0.0
0,0.6498645544052124,-0.013693403452634811,-0.04174758493900299,0.7565536499023438,0.0,0.0,0.0
0,0.6574518084526062,0.020637590438127518,0.0035845921374857426,0.7509633898735046,0.0,0.0,0.0
0,0.6550194621086121,-0.058378349989652634,-0.0016871121479198337,0.7511096000671387,0.0,0.0,0.0
0,0.7087882161140442,-0.1730366051197052,-0.012179171666502953,0.6812893748283386,0.0,0.0,0.0
0,0.8447903990745544,-0.1906324028968811,-0.008067535236477852,0.4965362548828125,0.0,0.0,0.0
0,0.9087653160095215,-0.2233179658651352,-0.05271555855870247,0.3436882495880127,0.0,0.0,0.0
0,0.918117880821228,-0.26450666785240173,-0.12395074963569641,0.2614555358886719,0.0,0.0,0.0
0,0.9025174379348755,-0.2220127433538437,-0.1971139758825302,0.3065073490142822,0.0,0.0,0.0
0,0.8480342626571655,-0.12206008285284042,-0.302921861410141,0.41328832507133484,0.0,0.0,0.0
0,0.7188075184822083,-0.07987447082996368,-0.37806588411331177,0.5750071406364441,0.0,0.0,0.0
0,0.5050482153892517,-0.2067839652299881,-0.46310102939605713,0.6959368586540222,0.0,0.0,0.0
0,-0.4019008278846741,-0.5695061087608337,-0.21413052082061768,0.6820318102836609,0.0,0.0,0.0
0,-0.7627796530723572,-0.4439854025840759,-0.04317213594913483,0.46455472707748413,0.0,0.0,0.0
0,-0.7964810729026794,-0.38240307569503784,-0.020508646965026855,0.4643213450908661,0.0,0.0,0.0
0,-0.8350710272789001,-0.3481604754924774,0.037680260837078094,0.42029711604118347,0.0,0.0,0.0
0,-0.8397933840751648,-0.3627457022666931,0.009555530734360218,0.3996239900588989,0.0,0.0,0.0
0,-0.8157888054847717,-0.43460509181022644,-0.04632020369172096,0.3742876350879669,0.0,0.0,0.0
0,-0.7696653604507446,-0.5473730564117432,-0.05451545864343643,0.31883764266967773,0.0,0.0,0.0
0,-0.8200889229774475,-0.44758737087249756,-0.1027596965432167,0.3364376723766327,0.0,0.0,0.0
0,-0.7713940739631653,-0.3853096663951874,-0.22174479067325592,0.4516036808490753,0.0,0.0,0.0
0,-0.7392565608024597,-0.35101762413978577,-0.2764629125595093,0.5004849433898926,0.0,0.0,0.0
0,-0.7478460073471069,-0.3783813416957855,-0.22562143206596375,0.49323248863220215,0.0,0.0,0.0
0,-0.7778329253196716,-0.3847116529941559,-0.12316789478063583,0.47794297337532043,0.0,0.0,0.0
0,-0.7894311547279358,-0.29773208498954773,-0.08231792598962784,0.5272604823112488,0.0,0.0,0.0
0,-0.7952653765678406,-0.20199544727802277,-0.03402439504861832,0.5676434636116028,0.0,0.0,0.0
0,-0.8433564901351929,-0.10486558079719543,0.12304981797933578,0.5091519951820374,0.0,0.0,0.0
0,-0.8652660846710205,0.05232641473412514,0.197394460439682,0.4541356861591339,0.0,0.0,0.0
0,-0.8684139847755432,0.1625010371208191,0.2566022276878357,0.38760271668434143,0.0,0.0,0.0
0,-0.8521804213523865,0.18516218662261963,0.2725200355052948,0.4023266136646271,0.0,0.0,0.0
0,-0.8455605506896973,0.14831537008285522,0.26082438230514526,0.4377562701702118,0.0,0.0,0.0
0,-0.8599296808242798,0.06988126039505005,0.24364641308784485,0.4392068684101105,0.0,0.0,0.0
0,-0.8725997805595398,0.023690205067396164,0.24033351242542267,0.42056629061698914,0.0,0.0,0.0
0,-0.8800355792045593,0.05132967606186867,0.245858296751976,0.3988530933856964,0.0,0.0,0.0
0,-0.8880069255828857,0.350481241941452,0.24920545518398285,0.15205718576908112,0.0,0.0,0.0
0,-0.8880069255828857,0.350481241941452,0.24920545518398285,0.15205718576908112,0.0,0.0,0.0
0,-0.08955499529838562,0.5680546760559082,0.6387944221496582,-0.5078058838844299,0.0,0.0,0.0
0,0.14067265391349792,0.6284338235855103,0.6666251420974731,-0.37084105610847473,0.0,0.0,0.0
0,0.29764798283576965,0.7114970684051514,0.6293352246284485,-0.07578663527965546,0.0,0.0,0.0
0,0.2980469763278961,0.8773849606513977,0.23940488696098328,0.284037321805954,0.0,0.0,0.0
0,0.18978630006313324,0.9013471603393555,0.10428763180971146,0.37055665254592896,0.0,0.0,0.0
0,0.13514520227909088,0.9100117683410645,0.1151447743177414,0.3701208829879761,0.0,0.0,0.0
0,0.13597290217876434,0.9291657209396362,-0.0039942627772688866,0.3387922942638397,0.0,0.0,0.0
0,0.016066795215010643,0.9340816140174866,-0.10615690797567368,0.33555638790130615,0.0,0.0,0.0
0,0.06464800238609314,0.893887460231781,-0.1624576598405838,0.40868914127349854,0.0,0.0,0.0
0,0.2004455029964447,0.834120512008667,-0.1815243512392044,0.4772280156612396,0.0,0.0,0.0
0,0.20637717843055725,0.8042293190956116,-0.20440569519996643,0.5152431130409241,0.0,0.0,0.0
0,0.3023150563240051,0.8112940192222595,-0.2500407099723816,0.4295581877231598,0.0,0.0,0.0
0,0.3611558973789215,0.8287710547447205,-0.207522451877594,0.3691518008708954,0.0,0.0,0.0
0,0.3355558216571808,0.8362593650817871,-0.20814380049705505,0.3760088086128235,0.0,0.0,0.0
0,0.2786835730075836,0.863839864730835,-0.21746104955673218,0.3542039692401886,0.0,0.0,0.0
0,0.22249038517475128,0.9158070087432861,-0.2244366705417633,0.24095064401626587,0.0,0.0,0.0
0,0.20774751901626587,0.942775309085846,-0.2280464768409729,0.11244746297597885,0.0,0.0,0.0
0,0.19016537070274353,0.937192440032959,-0.286591500043869,0.0025054404977709055,0.0,0.0,0.0
0,0.17895540595054626,0.9129349589347839,-0.3494229316711426,-0.09519699215888977,0.0,0.0,0.0
0,0.2560514211654663,0.8795360326766968,-0.3846770226955414,-0.09752864390611649,0.0,0.0,0.0
0,0.28846991062164307,0.85747230052948,-0.4135504961013794,-0.0844782367348671,0.0,0.0,0.0
0,0.31395700573921204,0.8668029308319092,-0.3814566731452942,-0.034764911979436874,0.0,0.0,0.0
0,0.3109496831893921,0.8806341886520386,-0.351699560880661,-0.02711886167526245,0.0,0.0,0.0
0,0.3407000005245209,0.8548192977905273,-0.3834235966205597,-0.05317862331867218,0.0,0.0,0.0
0,0.37993764877319336,0.8261026740074158,-0.4109344184398651,-0.031124917790293694,0.0,0.0,0.0
0,0.4082249701023102,0.7936194539070129,-0.4313278794288635,-0.11879034340381622,0.0,0.0,0.0
0,0.4274294972419739,0.7582587599754333,-0.44693174958229065,-0.19807635247707367,0.0,0.0,0.0
0,0.4628377854824066,0.7252909541130066,-0.4554521441459656,-0.22120583057403564,0.0,0.0,0.0
0,0.5007758140563965,0.6985340714454651,-0.45761290192604065,-0.22022385895252228,0.0,0.0,0.0
0,0.5344212055206299,0.6839919686317444,-0.46124890446662903,-0.1744493842124939,0.0,0.0,0.0
0,0.5430164337158203,0.6803394556045532,-0.46503207087516785,-0.1505027711391449,0.0,0.0,0.0
0,0.5583556890487671,0.6679033041000366,-0.4682009816169739,-0.13988012075424194,0.0,0.0,0.0
0,0.5816507935523987,0.6561485528945923,-0.46324339509010315,-0.1148555800318718,0.0,0.0,0.0
0,0.6090723276138306,0.6383041739463806,-0.4523684084415436,-0.11660169064998627,0.0,0.0,0.0
0,0.7857086658477783,0.4292840361595154,-0.4287203848361969,-0.10587890446186066,0.0,0.0,0.0
0,0.7857086658477783,0.4292840361595154,-0.4287203848361969,-0.10587890446186066,0.0,0.0,0.0
0,0.7804524898529053,-0.5849407911300659,-0.20798979699611664,0.045844193547964096,0.0,0.0,0.0
0,0.7597171664237976,-0.6128999590873718,-0.20215868949890137,0.05421791225671768,0.0,0.0,0.0
0,0.7417536377906799,-0.6364733576774597,-0.19948667287826538,0.039127860218286514,0.0,0.0,0.0
0,0.7030879855155945,-0.6745350360870361,-0.21485312283039093,0.033640794456005096,0.0,0.0,0.0
0,0.6443217992782593,-0.7260041236877441,-0.19407916069030762,0.12932626903057098,0.0,0.0,0.0
0,0.6168404221534729,-0.7452431917190552,-0.1759043037891388,0.1726340353488922,0.0,0.0,0.0
0,0.5944681167602539,-0.7604889273643494,-0.14743149280548096,0.2077275812625885,0.0,0.0,0.0
0,0.5824050903320312,-0.7764450311660767,-0.12486689537763596,0.19742782413959503,0.0,0.0,0.0
0,0.5786275267601013,-0.7874068021774292,-0.1268003284931183,0.16042044758796692,0.0,0.0,0.0
0,0.5628247857093811,-0.8045215010643005,-0.12729963660240173,0.12806545197963715,0.0,0.0,0.0
0,0.544227123260498,-0.8166852593421936,-0.1357542872428894,0.12266023457050323,0.0,0.0,0.0
0,0.5130348801612854,-0.8305038809776306,-0.1533539593219757,0.14203335344791412,0.0,0.0,0.0
0,0.46121716499328613,-0.8463349938392639,-0.1892639845609665,0.17834678292274475,0.0,0.0,0.0
0,0.43902158737182617,-0.8496857285499573,-0.2107972651720047,0.1936270296573639,0.0,0.0,0.0
0,0.43830153346061707,-0.8485780954360962,-0.2239796370267868,0.18512895703315735,0.0,0.0,0.0
0,0.4459448456764221,-0.8430772423744202,-0.22694487869739532,0.18836911022663116,0.0,0.0,0.0
0,0.4524587392807007,-0.8348591923713684,-0.23485952615737915,0.19941215217113495,0.0,0.0,0.0
0,0.4554506838321686,-0.8308281302452087,-0.2520732581615448,0.188099205493927,0.0,0.0,0.0
0,0.4459666311740875,-0.8397845029830933,-0.25515419244766235,0.16554413735866547,0.0,0.0,0.0
0,0.44043341279029846,-0.8368557691574097,-0.2740126848220825,0.16504831612110138,0.0,0.0,0.0
0,0.41658103466033936,-0.814192533493042,-0.35163718461990356,0.19114063680171967,0.0,0.0,0.0
0,0.3857565224170685,-0.7929562926292419,-0.4208090305328369,0.2048535943031311,0.0,0.0,0.0
0,0.3634280562400818,-0.7945586442947388,-0.44495171308517456,0.18774369359016418,0.0,0.0,0.0
0,0.3369519114494324,-0.7865687608718872,-0.47318944334983826,0.20124037563800812,0.0,0.0,0.0
0,0.3088379204273224,-0.7762995958328247,-0.5032185316085815,0.21303071081638336,0.0,0.0,0.0
0,0.2946177124977112,-0.7821539640426636,-0.5048277378082275,0.2078883796930313,0.0,0.0,0.0
0,0.26702696084976196,-0.7919791340827942,-0.5023830533027649,0.2137993425130844,0.0,0.0,0.0
0,0.22268705070018768,-0.802448570728302,-0.5058695673942566,0.21729201078414917,0.0,0.0,0.0
0,0.1700558066368103,-0.8331397771835327,-0.49495193362236023,0.16915863752365112,0.0,0.0,0.0
0,0.15654823184013367,-0.8591430187225342,-0.4780721068382263,0.07379791140556335,0.0,0.0,0.0
0,0.16668374836444855,-0.9064217209815979,-0.38361093401908875,-0.009521787986159325,0.0,0.0,0.0
0,0.15891645848751068,-0.9369170069694519,-0.29183074831962585,-0.09165126830339432,0.0,0.0,0.0
0,0.1711065024137497,-0.9174853563308716,-0.24096621572971344,-0.2598280608654022,0.0,0.0,0.0
0,0.2193915694952011,-0.8700786232948303,-0.23004993796348572,-0.3722081482410431,0.0,0.0,0.0
0,0.3325888216495514,-0.8151616454124451,-0.1661931425333023,-0.4403488337993622,0.0,0.0,0.0
0,0.37433379888534546,-0.7821617722511292,-0.10543786734342575,-0.4833318293094635,0.0,0.0,0.0
0,0.3821971118450165,-0.7976560592651367,-0.06612597405910492,-0.45817992091178894,0.0,0.0,0.0
0,0.3641720116138458,-0.8189280033111572,-0.03577551990747452,-0.4382765591144562,0.0,0.0,0.0
0,0.3510604202747345,-0.8380324244499207,-0.012084812857210636,-0.413453072309494,0.0,0.0,0.0
0,0.3421894311904907,-0.8525647521018982,0.010424036532640457,-0.39059194922447205,0.0,0.0,0.0
0,0.3510255813598633,-0.8564867973327637,0.01357932761311531,-0.3737093210220337,0.0,0.0,0.0
0,0.36266830563545227,-0.8500826358795166,0.026744946837425232,-0.3764941096305847,0.0,0.0,0.0
0,0.337273508310318,-0.8623510003089905,0.05546051636338234,-0.3689890205860138,0.0,0.0,0.0
0,0.32717472314834595,-0.8710697293281555,0.07153380662202835,-0.35455554723739624,0.0,0.0,0.0
0,0.30666667222976685,-0.8766993880271912,0.10261522978544235,-0.35136252641677856,0.0,0.0,0.0
0,0.28413161635398865,-0.8815135955810547,0.12902165949344635,-0.3495534658432007,0.0,0.0,0.0
0,0.27779147028923035,-0.888282299041748,0.1149425208568573,-0.3423544764518738,0.0,0.0,0.0
0,0.27449288964271545,-0.8937857151031494,0.13058774173259735,-0.3246232271194458,0.0,0.0,0.0
0,0.24311552941799164,-0.9037571549415588,0.13812953233718872,-0.31885719299316406,0.0,0.0,0.0
0,0.23051482439041138,-0.9051606059074402,0.1273369938135147,-0.32857999205589294,0.0,0.0,0.0
0,0.2344297617673874,-0.9042521119117737,0.1308111995458603,-0.326943576335907,0.0,0.0,0.0
0,0.22630001604557037,-0.8984766006469727,0.17381499707698822,-0.32855460047721863,0.0,0.0,0.0
0,0.20185506343841553,-0.9028005003929138,0.20224526524543762,-0.31612539291381836,0.0,0.0,0.0
0,0.17203430831432343,-0.9112560749053955,0.17422054708003998,-0.32603123784065247,0.0,0.0,0.0
0,0.16735431551933289,-0.9131245613098145,0.17375032603740692,-0.32348018884658813,0.0,0.0,0.0
0,0.21118056774139404,-0.9046182036399841,0.18973781168460846,-0.31257155537605286,0.0,0.0,0.0
0,0.2685600519180298,-0.893996000289917,0.20355653762817383,-0.2895594835281372,0.0,0.0,0.0
0,0.23553235828876495,-0.9089089632034302,0.20032359659671783,-0.2737015187740326,0.0,0.0,0.0
0,0.17963702976703644,-0.9334943294525146,0.17706426978111267,-0.24819371104240417,0.0,0.0,0.0
0,0.17921389639377594,-0.9347440004348755,0.1978902667760849,-0.22717492282390594,0.0,0.0,0.0
0,0.2096814513206482,-0.946398138999939,0.20624034106731415,-0.12025991827249527,0.0,0.0,0.0
0,0.19505876302719116,-0.9562357068061829,0.1821516901254654,-0.10497346520423889,0.0,0.0,0.0
0,0.18248362839221954,-0.961410641670227,0.1706145852804184,-0.09956563264131546,0.0,0.0,0.0
0,0.1765943169593811,-0.9609995484352112,0.17696413397789001,-0.10301114618778229,0.0,0.0,0.0
0,0.15898416936397552,-0.9630917310714722,0.18840669095516205,-0.09118321537971497,0.0,0.0,0.0
0,0.14483466744422913,-0.9666051864624023,0.18371738493442535,-0.08705485612154007,0.0,0.0,0.0
0,0.1365625560283661,-0.9682651162147522,0.18624620139598846,-0.07588846981525421,0.0,0.0,0.0
0,0.12282649427652359,-0.9694766402244568,0.1984102576971054,-0.04790894687175751,0.0,0.0,0.0
0,0.10852675884962082,-0.9691748023033142,0.21262109279632568,-0.0186527818441391,0.0,0.0,0.0
0,0.09835606813430786,-0.9697853326797485,0.21552017331123352,-0.005204510875046253,0.0,0.0,0.0
0,0.08786720037460327,-0.9697652459144592,0.2201538234949112,0.0007491559372283518,0.0,0.0,0.0
0,0.07950052618980408,-0.9745660424232483,0.20133091509342194,-0.00024120669695548713,0.0,0.0,0.0
0,0.05204273760318756,-0.9790055751800537,0.18813633918762207,0.00881968718022108,0.0,0.0,0.0
0,0.020025847479701042,-0.9780234694480896,0.17948967218399048,0.08652134984731674,0.0,0.0,0.0
0,0.011168345808982849,-0.9770611524581909,0.1723102480173111,0.11031587421894073,0.0,0.0,0.0
0,-0.002752685220912099,-0.9613125324249268,0.2303011566400528,0.1395191103219986,0.0,0.0,0.0
0,-0.019128935411572456,-0.9590333104133606,0.2308371216058731,0.15243686735630035,0.0,0.0,0.0
0,-0.06745781749486923,-0.954820454120636,0.23279032111167908,0.16189409792423248,0.0,0.0,0.0
0,-0.09977056086063385,-0.949870228767395,0.2311708629131317,0.17602850496768951,0.0,0.0,0.0
0,-0.10684867948293686,-0.9574723243713379,0.19056294858455658,0.17930348217487335,0.0,0.0,0.0
0,-0.057861000299453735,-0.9543806910514832,0.21311220526695251,0.1924215406179428,0.0,0.0,0.0
0,-0.05618632584810257,-0.9317978024482727,0.27288898825645447,0.2253023386001587,0.0,0.0,0.0
0,-0.11564753204584122,-0.9076346755027771,0.28941917419433594,0.27512457966804504,0.0,0.0,0.0
0,-0.19266843795776367,-0.7742854356765747,0.4784631133079529,0.3620310127735138,0.0,0.0,0.0
0,-0.176238015294075,-0.5129157900810242,0.7462551593780518,0.3815629184246063,0.0,0.0,0.0
0,-0.09305097907781601,-0.22485148906707764,0.9354652762413025,0.24963973462581635,0.0,0.0,0.0
0,-0.06341080367565155,-0.17360305786132812,0.9660436511039734,0.17098185420036316,0.0,0.0,0.0
0,-0.04055354744195938,-0.37849730253219604,0.9214608669281006,0.05137160047888756,0.0,0.0,0.0
0,-0.09815385192632675,-0.38000622391700745,0.9179155230522156,0.005119603127241135,0.0,0.0,0.0
0,-0.07686292380094528,-0.3832271993160248,0.9134244918823242,-0.0975629985332489,0.0,0.0,0.0
0,-0.0745164155960083,-0.40480101108551025,0.8843831419944763,-0.21232931315898895,0.0,0.0,0.0
0,-0.14553871750831604,-0.16425403952598572,0.9351709485054016,-0.27188006043434143,0.0,0.0,0.0
0,-0.23093000054359436,0.27711838483810425,0.9282371997833252,0.06988988071680069,0.0,0.0,0.0
0,-0.12741203606128693,0.2663811445236206,0.9451044201850891,0.12735392153263092,0.0,0.0,0.0
0,-0.19242611527442932,0.27959132194519043,0.9249066710472107,0.16119110584259033,0.0,0.0,0.0
0,-0.1809864342212677,0.3341016471385956,0.9032894968986511,0.19058407843112946,0.0,0.0,0.0
0,-0.14649225771427155,0.35926225781440735,0.8911177515983582,0.22806556522846222,0.0,0.0,0.0
0,-0.13289225101470947,0.3754745423793793,0.8835676312446594,0.23937639594078064,0.0,0.0,0.0
0,-0.10892762988805771,0.3862043619155884,0.8791297674179077,0.2504914104938507,0.0,0.0,0.0
0,-0.05547858774662018,0.3341505825519562,0.9073619842529297,0.24206113815307617,0.0,0.0,0.0
0,-0.04691222682595253,0.32113897800445557,0.9081249237060547,0.2580936849117279,0.0,0.0,0.0
0,-0.03232712671160698,0.29900866746902466,0.8900418877601624,0.33765116333961487,0.0,0.0,0.0
0,-0.03232712671160698,0.29900866746902466,0.8900418877601624,0.33765116333961487,0.0,0.0,0.0
0,-0.07060715556144714,0.32647082209587097,0.8697322607040405,0.3586519956588745,0.0,0.0,0.0
0,-0.03969191759824753,0.3639809489250183,0.8177201151847839,0.44035181403160095,0.0,0.0,0.0
0,-0.030686214566230774,0.455739825963974,0.73781418800354,0.49358227849006653,0.0,0.0,0.0
0,-0.030686214566230774,0.455739825963974,0.73781418800354,0.49358227849006653,0.0,0.0,0.0
0,-0.05605267733335495,0.6350208520889282,0.4837457835674286,0.5968495011329651,0.0,0.0,0.0
0,-0.544050931930542,-0.158694326877594,-0.6616817712783813,0.487476646900177,0.0,0.0,0.0
0,-0.5812199711799622,0.3559849262237549,-0.48512643575668335,0.5447301864624023,0.0,0.0,0.0
0,-0.29846927523612976,0.8733128309249878,-0.026045221835374832,0.379741907119751,0.0,0.0,0.0
0,0.3745763301849365,0.7609614133834839,0.5264463424682617,-0.010868024080991745,0.0,0.0,0.0
0,0.4681253433227539,0.8029401898384094,0.34439533948898315,0.11903972178697586,0.0,0.0,0.0
0,0.4837792217731476,0.736330509185791,0.36920973658561707,0.2899819016456604,0.0,0.0,0.0
0,0.6308795213699341,0.41915014386177063,0.5372551083564758,0.3664599657058716,0.0,0.0,0.0
0,0.6388635635375977,0.4055525064468384,0.5236937999725342,0.3869859278202057,0.0,0.0,0.0
0,0.6493522524833679,0.3833577334880829,0.5186207890510559,0.3988027572631836,0.0,0.0,0.0
0,0.6650556921958923,0.36315324902534485,0.5077225565910339,0.40579652786254883,0.0,0.0,0.0
0,0.6801771521568298,0.34233707189559937,0.496621310710907,0.412509560585022,0.0,0.0,0.0
0,0.6945980787277222,0.32097887992858887,0.4853551685810089,0.4190087616443634,0.0,0.0,0.0
0,0.7084561586380005,0.29881179332733154,0.47400492429733276,0.4251501262187958,0.0,0.0,0.0
0,0.7216302156448364,0.2759503126144409,0.46256256103515625,0.431008905172348,0.0,0.0,0.0
0,0.7340691089630127,0.2523701786994934,0.45110976696014404,0.43655818700790405,0.0,0.0,0.0
0,0.7457179427146912,0.22801995277404785,0.4397035837173462,0.44181832671165466,0.0,0.0,0.0
0,0.7564924955368042,0.20301952958106995,0.42835158109664917,0.44681912660598755,0.0,0.0,0.0
0,0.7663761377334595,0.17744852602481842,0.4170393943786621,0.4515394866466522,0.0,0.0,0.0
0,0.775295078754425,0.15131306648254395,0.4058869481086731,0.4559681713581085,0.0,0.0,0.0
0,0.7831626534461975,0.12476849555969238,0.3948777914047241,0.46020597219467163,0.0,0.0,0.0
0,0.7899550199508667,0.09794293344020844,0.3840601444244385,0.4642243981361389,0.0,0.0,0.0
0,0.795627772808075,0.07087717950344086,0.37343159317970276,0.46811261773109436,0.0,0.0,0.0
0,0.8001400828361511,0.04367312416434288,0.3630313277244568,0.471915066242218,0.0,0.0,0.0
0,0.8034850358963013,0.016499340534210205,0.352895051240921,0.475637823343277,0.0,0.0,0.0
0,0.8056573271751404,-0.01048885378986597,0.34301653504371643,0.47934553027153015,0.0,0.0,0.0
0,0.8066484332084656,-0.03725157678127289,0.3334430754184723,0.48308587074279785,0.0,0.0,0.0
0,0.8065113425254822,-0.06366226077079773,0.32408416271209717,0.48690977692604065,0.0,0.0,0.0
0,0.8052474856376648,-0.08964481949806213,0.3150242567062378,0.4908410310745239,0.0,0.0,0.0
0,0.8028926253318787,-0.11513019353151321,0.3062351942062378,0.49492722749710083,0.0,0.0,0.0
0,0.7995052933692932,-0.1399567723274231,0.2977449893951416,0.4991748034954071,0.0,0.0,0.0
0,0.7951428890228271,-0.16419009864330292,0.28953713178634644,0.5035688281059265,0.0,0.0,0.0
0,0.7897670269012451,-0.18772734701633453,0.2816922068595886,0.5082319378852844,0.0,0.0,0.0
0,0.7834833860397339,-0.21044683456420898,0.274148553609848,0.5131589770317078,0.0,0.0,0.0
0,0.7763288617134094,-0.2323753535747528,0.26691970229148865,0.5183557868003845,0.0,0.0,0.0
0,0.7763288617134094,-0.2323753535747528,0.26691970229148865,0.5183557868003845,0.0,0.0,0.0
0,0.768317461013794,-0.25355902314186096,0.25997066497802734,0.5238654613494873,0.0,0.0,0.0
0,0.7396805286407471,-0.311801940202713,0.24100258946418762,0.5423961281776428,0.0,0.0,0.0
0,0.7287529110908508,-0.3293611407279968,0.23524022102355957,0.5492963194847107,0.0,0.0,0.0
0,0.7172148823738098,-0.3459516763687134,0.22971610724925995,0.5565742254257202,0.0,0.0,0.0
0,0.7051175832748413,-0.36155813932418823,0.2244013547897339,0.5642279982566833,0.0,0.0,0.0
0,0.6924745440483093,-0.37624651193618774,0.21919529139995575,0.5722723603248596,0.0,0.0,0.0
0,0.6793845891952515,-0.3899281919002533,0.21413159370422363,0.5806592106819153,0.0,0.0,0.0
0,0.6658868193626404,-0.4026145339012146,0.20911243557929993,0.5894008278846741,0.0,0.0,0.0
0,0.6505998373031616,-0.4155445992946625,0.203532874584198,0.5993683338165283,0.0,0.0,0.0
0,0.6363816857337952,-0.42636585235595703,0.19839899241924286,0.6086824536323547,0.0,0.0,0.0
0,0.6218767762184143,-0.43630149960517883,0.1931810975074768,0.6182376146316528,0.0,0.0,0.0
0,0.6070873737335205,-0.44543758034706116,0.18774692714214325,0.6280190348625183,0.0,0.0,0.0
0,0.5920805335044861,-0.4538258910179138,0.18217141926288605,0.6379054188728333,0.0,0.0,0.0
0,0.5768924355506897,-0.4614006578922272,0.17631426453590393,0.6479545831680298,0.0,0.0,0.0
0,0.5615603923797607,-0.4682667851448059,0.17026926577091217,0.6580363512039185,0.0,0.0,0.0
0,0.5460126996040344,-0.47459450364112854,0.16395233571529388,0.6681147813796997,0.0,0.0,0.0
0,0.5303304195404053,-0.48031020164489746,0.15739840269088745,0.6781632304191589,0.0,0.0,0.0
0,0.5144985914230347,-0.48544636368751526,0.15060244500637054,0.6881715655326843,0.0,0.0,0.0
0,0.4985169768333435,-0.49010926485061646,0.14363738894462585,0.698047399520874,0.0,0.0,0.0
0,0.48239922523498535,-0.4942420423030853,0.13642622530460358,0.7078362107276917,0.0,0.0,0.0
0,0.46614864468574524,-0.4978879690170288,0.12900026142597198,0.7174959182739258,0.0,0.0,0.0
0,0.4497165381908417,-0.5011951327323914,0.12143663316965103,0.7269389629364014,0.0,0.0,0.0
0,0.4331792891025543,-0.5040507912635803,0.113725945353508,0.7361953854560852,0.0,0.0,0.0
0,0.41650673747062683,-0.5065119862556458,0.10585922002792358,0.7452449798583984,0.0,0.0,0.0
0,0.3996495008468628,-0.5086635947227478,0.0978425070643425,0.7540538311004639,0.0,0.0,0.0
0,0.3800358176231384,-0.5097873210906982,0.09204059094190598,0.7640987634658813,0.0,0.0,0.0
0,0.18131692707538605,-0.5097832679748535,-0.004165926016867161,0.8389616012573242,0.0,0.0,0.0
0,0.1331121176481247,-0.5171819925308228,-0.029648708179593086,0.842943549156189,0.0,0.0,0.0
0,0.019271213561296463,-0.5059687495231628,-0.1042422503232956,0.8540409207344055,0.0,0.0,0.0
0,0.010983338579535484,-0.5194525718688965,-0.11019092053174973,0.8453022837638855,0.0,0.0,0.0
0,0.004785568453371525,-0.5148899555206299,-0.1101546660065651,0.8481500744819641,0.0,0.0,0.0
0,-0.037415992468595505,-0.49840161204338074,-0.10986033827066422,0.857177197933197,0.0,0.0,0.0
0,-0.05431148409843445,-0.49672141671180725,-0.11997834593057632,0.855890691280365,0.0,0.0,0.0
0,-0.0706656277179718,-0.494113564491272,-0.13080067932605743,0.8546202182769775,0.0,0.0,0.0
0,-0.08819811791181564,-0.4913374185562134,-0.1409534066915512,0.8529757261276245,0.0,0.0,0.0
0,-0.10937286913394928,-0.48884451389312744,-0.1476603001356125,0.8508188724517822,0.0,0.0,0.0
0,-0.12951253354549408,-0.48991504311561584,-0.15600043535232544,0.8458739519119263,0.0,0.0,0.0
0,-0.14545951783657074,-0.48879238963127136,-0.1658126264810562,0.8420562148094177,0.0,0.0,0.0
0,-0.15822651982307434,-0.4917198121547699,-0.17948156595230103,0.835219144821167,0.0,0.0,0.0
0,-0.17730358242988586,-0.4883968234062195,-0.18734829127788544,0.8316025733947754,0.0,0.0,0.0
0,-0.19896157085895538,-0.4828329384326935,-0.19261683523654938,0.8287411332130432,0.0,0.0,0.0
0,-0.21583309769630432,-0.48208126425743103,-0.20444072782993317,0.8221002221107483,0.0,0.0,0.0
0,-0.2364257574081421,-0.4763621389865875,-0.21245624125003815,0.8177253007888794,0.0,0.0,0.0
0,-0.253744900226593,-0.45575955510139465,-0.21217815577983856,0.8243176937103271,0.0,0.0,0.0
0,-0.27516287565231323,-0.4539133906364441,-0.22478385269641876,0.815077006816864,0.0,0.0,0.0
0,-0.28977730870246887,-0.4571729600429535,-0.24207766354084015,0.8031489849090576,0.0,0.0,0.0
0,-0.3157021105289459,-0.4432232975959778,-0.24899190664291382,0.7990722060203552,0.0,0.0,0.0
0,-0.3336220383644104,-0.42309048771858215,-0.2569884657859802,0.8001726269721985,0.0,0.0,0.0
0,-0.3398893177509308,-0.4130374789237976,-0.2722241282463074,0.7977429032325745,0.0,0.0,0.0
0,-0.351003497838974,-0.40399616956710815,-0.2817220091819763,0.794256329536438,0.0,0.0,0.0
0,-0.3633629381656647,-0.39282193779945374,-0.29399722814559937,0.7898422479629517,0.0,0.0,0.0
0,-0.3731801509857178,-0.3918454647064209,-0.30581411719322205,0.7812156081199646,0.0,0.0,0.0
0,-0.3844914436340332,-0.39118969440460205,-0.31326279044151306,0.7730662822723389,0.0,0.0,0.0
0,-0.39726346731185913,-0.3834248185157776,-0.3227980434894562,0.7665486335754395,0.0,0.0,0.0
0,-0.4083123803138733,-0.37718120217323303,-0.33470046520233154,0.7586959004402161,0.0,0.0,0.0
0,-0.41607579588890076,-0.3817964196205139,-0.34619322419166565,0.7469215989112854,0.0,0.0,0.0
0,-0.43174466490745544,-0.38052797317504883,-0.34936660528182983,0.7371349334716797,0.0,0.0,0.0
0,-0.4592292904853821,-0.3803704082965851,-0.34367460012435913,0.7231478691101074,0.0,0.0,0.0
0,-0.47920387983322144,-0.3717217743396759,-0.364490807056427,0.7042421698570251,0.0,0.0,0.0
0,-0.5072627663612366,-0.3560105264186859,-0.3634365499019623,0.6931661367416382,0.0,0.0,0.0
0,-0.5204320549964905,-0.3376661241054535,-0.3556388020515442,0.6966191530227661,0.0,0.0,0.0
0,-0.5323837995529175,-0.325941801071167,-0.3553016781806946,0.6933357119560242,0.0,0.0,0.0
0,-0.5395563840866089,-0.32531049847602844,-0.37119293212890625,0.6796274185180664,0.0,0.0,0.0
0,-0.549326479434967,-0.31949955224990845,-0.3814650774002075,0.668784499168396,0.0,0.0,0.0
0,-0.5515545010566711,-0.3079560697078705,-0.3906185030937195,0.667079508304596,0.0,0.0,0.0
0,-0.5677711367607117,-0.31196296215057373,-0.4004770517349243,0.6454159617424011,0.0,0.0,0.0
0,-0.5677544474601746,-0.3070453703403473,-0.410237193107605,0.6416497826576233,0.0,0.0,0.0
0,-0.5662181973457336,-0.30487683415412903,-0.42458078265190125,0.6346718072891235,0.0,0.0,0.0
0,-0.5830644369125366,-0.30441367626190186,-0.44213196635246277,0.6070510149002075,0.0,0.0,0.0
0,-0.6105892062187195,-0.2875373661518097,-0.41192713379859924,0.6094624400138855,0.0,0.0,0.0
0,-0.6186519265174866,-0.27412378787994385,-0.41000354290008545,0.608812153339386,0.0,0.0,0.0
0,-0.6208527088165283,-0.27657848596572876,-0.43162116408348083,0.5902332067489624,0.0,0.0,0.0
0,-0.6711664795875549,-0.24791812896728516,-0.474621057510376,0.5093502998352051,0.0,0.0,0.0
0,-0.695502519607544,-0.22817009687423706,-0.4735501706600189,0.48640432953834534,0.0,0.0,0.0
0,-0.7159481048583984,-0.21390821039676666,-0.4664040207862854,0.4698447287082672,0.0,0.0,0.0
0,-0.7258448004722595,-0.1987692415714264,-0.46623578667640686,0.461398184299469,0.0,0.0,0.0
0,-0.7348743677139282,-0.1926976591348648,-0.46982526779174805,0.4457757771015167,0.0,0.0,0.0
0,-0.7369253039360046,-0.18336012959480286,-0.4763423502445221,0.43936794996261597,0.0,0.0,0.0
0,-0.7476108074188232,-0.17756742238998413,-0.47298771142959595,0.4271527826786041,0.0,0.0,0.0
0,-0.7526218891143799,-0.17292773723602295,-0.4781177341938019,0.4143478274345398,0.0,0.0,0.0
0,-0.7585614919662476,-0.16412124037742615,-0.48098573088645935,0.4036391079425812,0.0,0.0,0.0
0,-0.7638742923736572,-0.15486197173595428,-0.48704004287719727,0.3897799551486969,0.0,0.0,0.0
0,-0.7743847966194153,-0.14772257208824158,-0.48869359493255615,0.3692045509815216,0.0,0.0,0.0
0,-0.7801567316055298,-0.13750264048576355,-0.49820247292518616,0.3476615250110626,0.0,0.0,0.0
0,-0.7883118987083435,-0.1273316890001297,-0.5005537271499634,0.3292842507362366,0.0,0.0,0.0
0,-0.7985022664070129,-0.11117638647556305,-0.5056269764900208,0.3016599416732788,0.0,0.0,0.0
0,-0.8113306760787964,-0.09877482801675797,-0.5030508637428284,0.27486497163772583,0.0,0.0,0.0
0,-0.8122749328613281,-0.08706708997488022,-0.5145391225814819,0.2539810240268707,0.0,0.0,0.0
0,-0.8215919137001038,-0.08313202112913132,-0.5120890736579895,0.22904916107654572,0.0,0.0,0.0
0,-0.8323882222175598,-0.06713370978832245,-0.5001479387283325,0.22158139944076538,0.0,0.0,0.0
0,-0.8406301140785217,-0.056455474346876144,-0.49357298016548157,0.20775790512561798,0.0,0.0,0.0
0,-0.8426015973091125,-0.04440518468618393,-0.4984002709388733,0.1904696673154831,0.0,0.0,0.0
0,-0.8413515686988831,-0.03911343589425087,-0.5088951587677002,0.1680784523487091,0.0,0.0,0.0
0,-0.8471206426620483,-0.02148265391588211,-0.5041868090629578,0.156034454703331,0.0,0.0,0.0
0,-0.8471121788024902,-0.0062779816798865795,-0.5076497197151184,0.1458839774131775,0.0,0.0,0.0
0,-0.8390825390815735,0.016216091811656952,-0.5221213698387146,0.14033612608909607,0.0,0.0,0.0
0,-0.8307580947875977,0.03813548386096954,-0.535150408744812,0.1364971548318863,0.0,0.0,0.0
0,-0.8244026899337769,0.06111699342727661,-0.5455886721611023,0.12485763430595398,0.0,0.0,0.0
0,-0.8202316761016846,0.06892108917236328,-0.5565755367279053,0.09656766057014465,0.0,0.0,0.0
0,-0.8192737102508545,0.08132945001125336,-0.5581492185592651,0.08530322462320328,0.0,0.0,0.0
0,-0.810400664806366,0.09931089729070663,-0.5685281157493591,0.08243148028850555,0.0,0.0,0.0
0,-0.8110358119010925,0.1104801595211029,-0.5645232796669006,0.0892210379242897,0.0,0.0,0.0
0,-0.8217121958732605,0.1118059828877449,-0.5507041811943054,0.07512184232473373,0.0,0.0,0.0
0,-0.8313065767288208,0.1074090376496315,-0.5397045016288757,0.052349306643009186,0.0,0.0,0.0
0,-0.8383815884590149,0.1170462965965271,-0.5269402265548706,0.048780281096696854,0.0,0.0,0.0
0,-0.8372650146484375,0.1160338893532753,-0.530747652053833,0.021402928978204727,0.0,0.0,0.0
0,-0.836783230304718,0.12867966294288635,-0.5288242697715759,0.01451491005718708,0.0,0.0,0.0
0,-0.8358848094940186,0.1399383693933487,-0.5275079607963562,0.008883960545063019,0.0,0.0,0.0
0,-0.8321099877357483,0.1464870125055313,-0.5317330956459045,-0.0047887349501252174,0.0,0.0,0.0
0,-0.8265624046325684,0.1516604721546173,-0.5379810929298401,-0.03165259212255478,0.0,0.0,0.0
0,-0.8275981545448303,0.15394842624664307,-0.5331992506980896,-0.06092595309019089,0.0,0.0,0.0
0,-0.8317082524299622,0.1638919711112976,-0.5222848653793335,-0.07243479043245316,0.0,0.0,0.0
0,-0.8295421600341797,0.17973804473876953,-0.5208389759063721,-0.07003533095121384,0.0,0.0,0.0
0,-0.8189253211021423,0.18639157712459564,-0.5321427583694458,-0.08984702825546265,0.0,0.0,0.0
0,-0.8191850185394287,0.1992570161819458,-0.5235482454299927,-0.10845231264829636,0.0,0.0,0.0
0,-0.8167481422424316,0.20244421064853668,-0.5204720497131348,-0.1329430788755417,0.0,0.0,0.0
0,-0.8151878714561462,0.2219240814447403,-0.5123602151870728,-0.14259953796863556,0.0,0.0,0.0
0,-0.808131217956543,0.2410467267036438,-0.5121318101882935,-0.15221300721168518,0.0,0.0,0.0
0,-0.7983426451683044,0.25807633996009827,-0.5131363868713379,-0.1713738888502121,0.0,0.0,0.0
0,-0.7774103879928589,0.25800371170043945,-0.5214203596115112,-0.2319842427968979,0.0,0.0,0.0
0,-0.7813438177108765,0.24801240861415863,-0.494685560464859,-0.28266799449920654,0.0,0.0,0.0
0,-0.7804376482963562,0.26466381549835205,-0.47878578305244446,-0.297080397605896,0.0,0.0,0.0
0,-0.7779772877693176,0.2849254906177521,-0.46407637000083923,-0.3079369068145752,0.0,0.0,0.0
0,-0.7760801315307617,0.3044185936450958,-0.4548317492008209,-0.3078649342060089,0.0,0.0,0.0
0,-0.7679577469825745,0.31398525834083557,-0.4513060450553894,-0.32342636585235596,0.0,0.0,0.0
0,-0.7512808442115784,0.3223820924758911,-0.45604994893074036,-0.34682440757751465,0.0,0.0,0.0
0,-0.743327796459198,0.31638312339782715,-0.4419350326061249,-0.3855918347835541,0.0,0.0,0.0
0,-0.7247438430786133,0.3358067572116852,-0.4394227862358093,-0.4068290889263153,0.0,0.0,0.0
0,-0.7108358144760132,0.3454890549182892,-0.43092870712280273,-0.4316030740737915,0.0,0.0,0.0
0,-0.7073844075202942,0.36989089846611023,-0.41711631417274475,-0.43061915040016174,0.0,0.0,0.0
0,-0.6986483931541443,0.37570419907569885,-0.4114106297492981,-0.44508859515190125,0.0,0.0,0.0
0,-0.6952111124992371,0.3736409544944763,-0.39514586329460144,-0.466429740190506,0.0,0.0,0.0
0,-0.6838774681091309,0.372873455286026,-0.3856445848941803,-0.491102933883667,0.0,0.0,0.0
0,-0.665840744972229,0.38685691356658936,-0.3824221193790436,-0.5073279142379761,0.0,0.0,0.0
0,-0.6516535878181458,0.40798836946487427,-0.3763975203037262,-0.5136610269546509,0.0,0.0,0.0
0,-0.6394644379615784,0.41606393456459045,-0.36717766523361206,-0.5289491415023804,0.0,0.0,0.0
0,-0.6260411143302917,0.42645254731178284,-0.35819798707962036,-0.542712390422821,0.0,0.0,0.0
0,-0.6156240105628967,0.43748846650123596,-0.3471481502056122,-0.5529254078865051,0.0,0.0,0.0
0,-0.6159692406654358,0.44021594524383545,-0.3291281759738922,-0.5613320469856262,0.0,0.0,0.0
0,-0.6077966094017029,0.4507919251918793,-0.3198748230934143,-0.5671637058258057,0.0,0.0,0.0
0,-0.5937656760215759,0.4533369541168213,-0.3153362572193146,-0.5823372602462769,0.0,0.0,0.0
0,-0.5819386839866638,0.4524371027946472,-0.3039790093898773,-0.6007249355316162,0.0,0.0,0.0
0,-0.560502290725708,0.46952104568481445,-0.29745927453041077,-0.6111711263656616,0.0,0.0,0.0
0,-0.5496950745582581,0.459036260843277,-0.28241807222366333,-0.6356008648872375,0.0,0.0,0.0
0,-0.5367635488510132,0.46329131722450256,-0.27241018414497375,-0.647813618183136,0.0,0.0,0.0
0,-0.5232223868370056,0.47197869420051575,-0.2637164294719696,-0.6561669707298279,0.0,0.0,0.0
0,-0.5247058272361755,0.46557334065437317,-0.24390369653701782,-0.6671274900436401,0.0,0.0,0.0
0,-0.5220728516578674,0.46312859654426575,-0.23102037608623505,-0.6754304766654968,0.0,0.0,0.0
0,-0.5170850157737732,0.4814389646053314,-0.22473882138729095,-0.6685515642166138,0.0,0.0,0.0
0,-0.49797603487968445,0.4962466359138489,-0.2188866287469864,-0.6741487383842468,0.0,0.0,0.0
0,-0.4905945658683777,0.48921525478363037,-0.21375882625579834,-0.686235249042511,0.0,0.0,0.0
0,-0.4986320734024048,0.4971388280391693,-0.19886033236980438,-0.679192841053009,0.0,0.0,0.0
0,-0.48174354434013367,0.5123113989830017,-0.19665159285068512,-0.680748462677002,0.0,0.0,0.0
0,-0.4631960988044739,0.5015774369239807,-0.19096150994300842,-0.7028709650039673,0.0,0.0,0.0
0,-0.42857760190963745,0.5151873230934143,-0.18913663923740387,-0.7153733968734741,0.0,0.0,0.0
0,-0.4040323793888092,0.5164253115653992,-0.1781596541404724,-0.7314025163650513,0.0,0.0,0.0
0,-0.3801828920841217,0.5046141147613525,-0.16547738015651703,-0.7550274729728699,0.0,0.0,0.0
0,-0.37570253014564514,0.5124254822731018,-0.14342735707759857,-0.7565209269523621,0.0,0.0,0.0
0,-0.3529815971851349,0.5384370684623718,-0.13452176749706268,-0.751014232635498,0.0,0.0,0.0
0,-0.32898372411727905,0.5138378143310547,-0.12717829644680023,-0.7798692584037781,0.0,0.0,0.0
0,-0.30472415685653687,0.5204862356185913,-0.11367741972208023,-0.7873607873916626,0.0,0.0,0.0
0,-0.27726858854293823,0.5280972719192505,-0.10066933929920197,-0.7941820025444031,0.0,0.0,0.0
0,-0.23628968000411987,0.5416194796562195,-0.08286859095096588,-0.8003621101379395,0.0,0.0,0.0
0,-0.20376773178577423,0.53814697265625,-0.06488814204931259,-0.8132010102272034,0.0,0.0,0.0
0,-0.1900201290845871,0.5273725986480713,-0.05207877978682518,-0.8244282007217407,0.0,0.0,0.0
0,-0.19566471874713898,0.512977659702301,-0.031831592321395874,-0.8331741094589233,0.0,0.0,0.0
0,-0.22374799847602844,0.5396974086761475,-0.019672784954309464,-0.809264063835144,0.0,0.0,0.0
0,-0.2106344997882843,0.5504991412162781,-0.014575029723346233,-0.805606484413147,0.0,0.0,0.0
0,-0.1832924783229828,0.547423779964447,-0.012235209345817566,-0.8143773674964905,0.0,0.0,0.0
0,-0.15963375568389893,0.5324835181236267,-0.0077201551757752895,-0.8291828036308289,0.0,0.0,0.0
0,-0.14255820214748383,0.5312716364860535,0.002555788028985262,-0.8330947160720825,0.0,0.0,0.0
0,-0.12347164005041122,0.5319105982780457,0.011060401797294617,-0.8356618285179138,0.0,0.0,0.0
0,-0.10383553802967072,0.5317363739013672,0.019060282036662102,-0.8382946252822876,0.0,0.0,0.0
0,-0.08626153320074081,0.5310543775558472,0.0293140672147274,-0.840422511100769,0.0,0.0,0.0
0,-0.06760882586240768,0.5312965512275696,0.03951013833284378,-0.8415582180023193,0.0,0.0,0.0
0,-0.048331744968891144,0.5297601819038391,0.049250148236751556,-0.8433380126953125,0.0,0.0,0.0
0,-0.030485849827528,0.528961181640625,0.06095074862241745,-0.8439106941223145,0.0,0.0,0.0
0,-0.013252859935164452,0.528550386428833,0.07297740131616592,-0.8436613082885742,0.0,0.0,0.0
0,0.006969030946493149,0.5261721611022949,0.08185045421123505,-0.8444057106971741,0.0,0.0,0.0
0,0.02531382068991661,0.5245120525360107,0.09353598207235336,-0.8438761234283447,0.0,0.0,0.0
0,0.04215633124113083,0.5238053798675537,0.10557488352060318,-0.8422156572341919,0.0,0.0,0.0
0,0.05719805508852005,0.5168678760528564,0.1178584098815918,-0.8439850807189941,0.0,0.0,0.0
0,0.07602632790803909,0.5155936479568481,0.1267504096031189,-0.8419873118400574,0.0,0.0,0.0
0,0.0935571938753128,0.5132741332054138,0.1375734955072403,-0.839938759803772,0.0,0.0,0.0
0,0.11121386289596558,0.509688138961792,0.14783243834972382,-0.8382236361503601,0.0,0.0,0.0
0,0.12833744287490845,0.5070123672485352,0.15902884304523468,-0.8353446125984192,0.0,0.0,0.0
0,0.14592696726322174,0.5030986070632935,0.16904951632022858,-0.8328530788421631,0.0,0.0,0.0
0,0.1543261557817459,0.48923441767692566,0.17902496457099915,-0.8374995589256287,0.0,0.0,0.0
0,0.15778233110904694,0.4750787019729614,0.18262805044651031,-0.844200611114502,0.0,0.0,0.0
0,0.17688237130641937,0.488313764333725,0.19777357578277588,-0.8293230533599854,0.0,0.0,0.0
0,0.20704089105129242,0.4861266016960144,0.20452670753002167,-0.8219583034515381,0.0,0.0,0.0
0,0.2256070375442505,0.4803198277950287,0.21485546231269836,-0.817837655544281,0.0,0.0,0.0
0,0.24387849867343903,0.47524139285087585,0.2222146838903427,-0.8135824799537659,0.0,0.0,0.0
0,0.25945016741752625,0.46913501620292664,0.23305217921733856,-0.8092671036720276,0.0,0.0,0.0
0,0.27310892939567566,0.4620699882507324,0.2454567551612854,-0.8051614165306091,0.0,0.0,0.0
0,0.2905864715576172,0.45972782373428345,0.25552934408187866,-0.797211766242981,0.0,0.0,0.0
0,0.31079545617103577,0.45303627848625183,0.26053905487060547,-0.791774332523346,0.0,0.0,0.0
0,0.3290775418281555,0.4482918381690979,0.2677745223045349,-0.7846466302871704,0.0,0.0,0.0
0,0.345553457736969,0.44223517179489136,0.277030348777771,-0.7777553200721741,0.0,0.0,0.0
0,0.36647677421569824,0.43805447220802307,0.28695058822631836,-0.7668700814247131,0.0,0.0,0.0
0,0.3818860650062561,0.43303850293159485,0.2998099625110626,-0.7572174668312073,0.0,0.0,0.0
0,0.401014506816864,0.4257444739341736,0.30651527643203735,-0.7487324476242065,0.0,0.0,0.0
0,0.4232645630836487,0.4209529161453247,0.3124024271965027,-0.7366645932197571,0.0,0.0,0.0
0,0.45182764530181885,0.40703168511390686,0.31947872042655945,-0.7243891954421997,0.0,0.0,0.0
0,0.4891059696674347,0.3983481526374817,0.3201882541179657,-0.7044140696525574,0.0,0.0,0.0
0,0.5026429295539856,0.3909923732280731,0.3350221514701843,-0.6920009255409241,0.0,0.0,0.0
0,0.5107616186141968,0.38227856159210205,0.3535783290863037,-0.6816113591194153,0.0,0.0,0.0
0,0.5186607837677002,0.36513856053352356,0.3641340732574463,-0.6794835329055786,0.0,0.0,0.0
0,0.5299137830734253,0.35405227541923523,0.37151625752449036,-0.672637939453125,0.0,0.0,0.0
0,0.543100893497467,0.34797611832618713,0.37874311208724976,-0.6611616015434265,0.0,0.0,0.0
0,0.5545215010643005,0.34295645356178284,0.38772523403167725,-0.64898681640625,0.0,0.0,0.0
0,0.5684571266174316,0.3365161716938019,0.39325711131095886,-0.6368587017059326,0.0,0.0,0.0
0,0.5824236869812012,0.3298763930797577,0.3984200656414032,-0.6243818998336792,0.0,0.0,0.0
0,0.5955833792686462,0.323573499917984,0.40445196628570557,-0.6112492680549622,0.0,0.0,0.0
0,0.6083618998527527,0.3170855641365051,0.4105699062347412,-0.5978371500968933,0.0,0.0,0.0
0,0.6207886338233948,0.3077845871448517,0.4163018763065338,-0.5858434438705444,0.0,0.0,0.0
0,0.6324037909507751,0.29970479011535645,0.42297378182411194,-0.5726783871650696,0.0,0.0,0.0
0,0.6445497274398804,0.2908005118370056,0.42812782526016235,-0.5597532987594604,0.0,0.0,0.0
0,0.6551341414451599,0.2821262776851654,0.4352242350578308,-0.5462667346000671,0.0,0.0,0.0
0,0.666174590587616,0.27362510561943054,0.44106441736221313,-0.5323800444602966,0.0,0.0,0.0
0,0.6775035858154297,0.26445725560188293,0.44570106267929077,-0.5186779499053955,0.0,0.0,0.0
0,0.6875261068344116,0.2544586658477783,0.4517759680747986,-0.5050539374351501,0.0,0.0,0.0
0,0.6982914805412292,0.24559389054775238,0.45603683590888977,-0.4906439185142517,0.0,0.0,0.0
0,0.7078450918197632,0.23642529547214508,0.46164920926094055,-0.4759856164455414,0.0,0.0,0.0
0,0.7175155282020569,0.22702334821224213,0.46637383103370667,-0.4612523317337036,0.0,0.0,0.0
0,0.7271471619606018,0.2172643095254898,0.47041136026382446,-0.4465334713459015,0.0,0.0,0.0
0,0.7361136078834534,0.2068636566400528,0.4748227298259735,-0.4318721294403076,0.0,0.0,0.0
0,0.7445232272148132,0.19667311012744904,0.47945183515548706,-0.41683897376060486,0.0,0.0,0.0
0,0.7533604502677917,0.1875019371509552,0.48275628685951233,-0.401082843542099,0.0,0.0,0.0
0,0.7612789869308472,0.17682930827140808,0.4866858422756195,-0.38593611121177673,0.0,0.0,0.0
0,0.7689487338066101,0.16686992347240448,0.4903816878795624,-0.37017524242401123,0.0,0.0,0.0
0,0.7758608460426331,0.15706764161586761,0.49460235238075256,-0.3540627062320709,0.0,0.0,0.0
0,0.7832648158073425,0.14698652923107147,0.4972519874572754,-0.3380192816257477,0.0,0.0,0.0
0,0.7900972962379456,0.13607259094715118,0.5000025629997253,-0.32226479053497314,0.0,0.0,0.0
0,0.7973910570144653,0.12523967027664185,0.5026700496673584,-0.30403104424476624,0.0,0.0,0.0
0,0.8029223680496216,0.11614858359098434,0.5048331618309021,-0.28912654519081116,0.0,0.0,0.0
0,0.8085625767707825,0.10592732578516006,0.507375955581665,-0.27240005135536194,0.0,0.0,0.0
0,0.8139179348945618,0.0947682112455368,0.5094882249832153,-0.2561301290988922,0.0,0.0,0.0
0,0.8191671371459961,0.08429647237062454,0.5110793709754944,-0.2393377274274826,0.0,0.0,0.0
0,0.8238696455955505,0.07358362525701523,0.5127602815628052,-0.22254568338394165,0.0,0.0,0.0
0,0.8287584185600281,0.06279563903808594,0.5142949223518372,-0.20333483815193176,0.0,0.0,0.0
0,0.8327909111976624,0.052045293152332306,0.5154248476028442,-0.18631622195243835,0.0,0.0,0.0
0,0.8360207676887512,0.040674950927495956,0.5169970393180847,-0.1695643812417984,0.0,0.0,0.0
