time_boot_ms,press_abs,press_diff,temperature
200,1007.9293212890625,-1.066796037779996e+31,2958
390,1007.934814453125,-1.066796037779996e+31,2957
1370,1007.8665161132812,-1.066796037779996e+31,2957
1380,1007.8665161132812,-1.066796037779996e+31,2957
1390,1007.8665161132812,-1.066796037779996e+31,2957
1400,1007.8771362304688,-1.066796037779996e+31,2957
1410,1007.8771362304688,-1.066796037779996e+31,2957
1420,1007.8771362304688,-1.066796037779996e+31,2957
1450,1007.8546142578125,-1.066796037779996e+31,2958
1490,1007.8695068359375,-1.066796037779996e+31,2957
1510,1007.88134765625,-1.066796037779996e+31,2958
2390,1007.9220581054688,-1.066796037779996e+31,2958
2420,1007.9220581054688,-1.066796037779996e+31,2958
2450,1007.8923950195312,-1.066796037779996e+31,2958
2500,1007.8948974609375,-1.066796037779996e+31,2958
2520,1007.8974609375,-1.066796037779996e+31,2957
3400,1007.9161376953125,-1.066796037779996e+31,2958
3420,1007.876708984375,-1.066796037779996e+31,2957
3450,1007.8970947265625,-1.066796037779996e+31,2957
3500,1007.9229125976562,-1.066796037779996e+31,2958
3520,1007.9080810546875,-1.066796037779996e+31,2958
4400,1007.8694458007812,-1.066796037779996e+31,2959
4420,1007.8829956054688,-1.066796037779996e+31,2959
4460,1007.8511962890625,-1.066796037779996e+31,2958
4500,1007.9177856445312,-1.066796037779996e+31,2959
4520,1007.8864135742188,-1.066796037779996e+31,2959
5400,1007.9021606445312,-1.066796037779996e+31,2958
5420,1007.9004516601562,-1.066796037779996e+31,2957
5460,1007.8788452148438,-1.066796037779996e+31,2956
5500,1007.8958129882812,-1.066796037779996e+31,2956
5530,1007.8623046875,-1.066796037779996e+31,2957
6410,1007.894287109375,-1.066796037779996e+31,2951
6430,1007.8905029296875,-1.066796037779996e+31,2951
6460,1007.9100341796875,-1.066796037779996e+31,2951
6510,1007.8824462890625,-1.066796037779996e+31,2950
6530,1007.9031982421875,-1.066796037779996e+31,2951
7410,1007.8991088867188,-1.066796037779996e+31,2946
7430,1007.8991088867188,-1.066796037779996e+31,2946
7460,1007.895263671875,-1.066796037779996e+31,2946
7510,1007.9135131835938,-1.066796037779996e+31,2947
7530,1007.9135131835938,-1.066796037779996e+31,2947
8410,1007.8968505859375,-1.066796037779996e+31,2951
8430,1007.8994140625,-1.066796037779996e+31,2950
8470,1007.8756713867188,-1.066796037779996e+31,2950
8510,1007.8688354492188,-1.066796037779996e+31,2950
8540,1007.8858032226562,-1.066796037779996e+31,2950
9410,1007.8636474609375,-1.066796037779996e+31,2953
10450,1007.9281005859375,-1.066796037779996e+31,2955
10470,1007.9281005859375,-1.066796037779996e+31,2955
10480,1007.9315185546875,-1.066796037779996e+31,2955
10490,1007.9315185546875,-1.066796037779996e+31,2955
10500,1007.9073486328125,-1.066796037779996e+31,2955
10510,1007.9073486328125,-1.066796037779996e+31,2955
10530,1007.9306640625,-1.066796037779996e+31,2955
10540,1007.9650268554688,-1.066796037779996e+31,2955
10550,1007.9650268554688,-1.066796037779996e+31,2955
11420,1007.8954467773438,-1.066796037779996e+31,2954
11440,1007.9086303710938,-1.066796037779996e+31,2954
11480,1007.9052124023438,-1.066796037779996e+31,2954
11520,1007.912841796875,-1.066796037779996e+31,2954
11550,1007.912841796875,-1.066796037779996e+31,2954
12420,1007.9229736328125,-1.066796037779996e+31,2956
12450,1007.928955078125,-1.066796037779996e+31,2956
12480,1007.8983764648438,-1.066796037779996e+31,2956
12620,1007.9004516601562,-1.066796037779996e+31,2957
12630,1007.9365844726562,-1.066796037779996e+31,2956
80,1007.8911743164062,-1.066796037779996e+31,2956
650,1007.944580078125,-1.066796037779996e+31,2957
670,1007.9454345703125,-1.066796037779996e+31,2958
710,1007.9170532226562,-1.066796037779996e+31,2957
750,1007.8936767578125,-1.066796037779996e+31,2957
770,1007.9140625,-1.066796037779996e+31,2957
1650,1007.9203491210938,-1.066796037779996e+31,2959
1680,1007.9356079101562,-1.066796037779996e+31,2960
1710,1007.908447265625,-1.066796037779996e+31,2960
1760,1007.908447265625,-1.066796037779996e+31,2960
1780,1007.9321899414062,-1.066796037779996e+31,2960
2660,1007.8986206054688,-1.066796037779996e+31,2962
2680,1007.8922119140625,-1.066796037779996e+31,2962
2710,1007.8854370117188,-1.066796037779996e+31,2962
2760,1007.9262084960938,-1.066796037779996e+31,2962
2780,1007.8990478515625,-1.066796037779996e+31,2962
3660,1007.9262084960938,-1.066796037779996e+31,2962
3680,1007.9202270507812,-1.066796037779996e+31,2963
3710,1007.9282836914062,-1.066796037779996e+31,2964
3760,1007.9308471679688,-1.066796037779996e+31,2963
3780,1007.9104614257812,-1.066796037779996e+31,2963
4660,1007.8976440429688,-1.066796037779996e+31,2966
5650,1007.9060668945312,-1.066796037779996e+31,2967
5660,1007.8988647460938,-1.066796037779996e+31,2967
5660,1007.8988647460938,-1.066796037779996e+31,2967
5670,1007.8988647460938,-1.066796037779996e+31,2967
5680,1007.8976440429688,-1.066796037779996e+31,2966
5690,1007.8976440429688,-1.066796037779996e+31,2966
5720,1007.8751220703125,-1.066796037779996e+31,2967
5770,1007.9056396484375,-1.066796037779996e+31,2967
5790,1007.8844604492188,-1.066796037779996e+31,2966
6670,1007.9074096679688,-1.066796037779996e+31,2966
6690,1007.91796875,-1.066796037779996e+31,2966
6730,1007.9039916992188,-1.066796037779996e+31,2966
6770,1007.9111938476562,-1.066796037779996e+31,2966
6800,1007.9209594726562,-1.066796037779996e+31,2966
7670,1007.9282836914062,-1.066796037779996e+31,2964
7700,1007.8964233398438,-1.066796037779996e+31,2963
7730,1007.9112548828125,-1.066796037779996e+31,2964
7770,1007.9342041015625,-1.066796037779996e+31,2963
7800,1007.9202270507812,-1.066796037779996e+31,2963
8800,1007.913330078125,-1.066796037779996e+31,2965
9660,1007.893798828125,-1.066796037779996e+31,2966
9680,1007.8692016601562,-1.066796037779996e+31,2965
9690,1007.8692016601562,-1.066796037779996e+31,2965
9700,1007.892578125,-1.066796037779996e+31,2965
9720,1007.8861694335938,-1.066796037779996e+31,2965
9730,1007.8870239257812,-1.066796037779996e+31,2966
9790,1007.874755859375,-1.066796037779996e+31,2964
9800,1007.884521484375,-1.066796037779996e+31,2964
10790,1007.8829956054688,-1.066796037779996e+31,2959
10810,1007.9042358398438,-1.066796037779996e+31,2959
11690,1007.904052734375,-1.066796037779996e+31,2963
11710,1007.8765258789062,-1.066796037779996e+31,2963
11740,1007.901123046875,-1.066796037779996e+31,2964
11790,1007.9014892578125,-1.066796037779996e+31,2964
11810,1007.8883666992188,-1.066796037779996e+31,2964
12690,1007.9044189453125,-1.066796037779996e+31,2966
12710,1007.9052734375,-1.066796037779996e+31,2966
12740,1007.9150390625,-1.066796037779996e+31,2966
12790,1007.8904418945312,-1.066796037779996e+31,2966
12810,1007.8738403320312,-1.066796037779996e+31,2966
13690,1007.8992919921875,-1.066796037779996e+31,2967
13710,1007.9132690429688,-1.066796037779996e+31,2967
13750,1007.9102783203125,-1.066796037779996e+31,2967
13790,1007.9290161132812,-1.066796037779996e+31,2966
13810,1007.9429931640625,-1.066796037779996e+31,2967
14690,1007.9217529296875,-1.066796037779996e+31,2968
14720,1007.8941650390625,-1.066796037779996e+31,2968
14750,1007.9425048828125,-1.066796037779996e+31,2968
14800,1007.9412841796875,-1.066796037779996e+31,2968
14820,1007.91748046875,-1.066796037779996e+31,2968
15700,1007.8726196289062,-1.066796037779996e+31,2965
15720,1007.9154052734375,-1.066796037779996e+31,2966
15750,1007.9146118164062,-1.066796037779996e+31,2966
15800,1007.9362182617188,-1.066796037779996e+31,2967
15820,1007.9252319335938,-1.066796037779996e+31,2966
16700,1007.8903198242188,-1.066796037779996e+31,2968
16720,1007.9183349609375,-1.066796037779996e+31,2968
16760,1007.8907470703125,-1.066796037779996e+31,2968
16800,1007.95654296875,-1.066796037779996e+31,2969
16820,1007.9217529296875,-1.066796037779996e+31,2968
17700,1007.9730224609375,-1.066796037779996e+31,2970
17730,1007.9310302734375,-1.066796037779996e+31,2970
17760,1007.9140625,-1.066796037779996e+31,2970
17810,1007.9436645507812,-1.066796037779996e+31,2971
17830,1007.918701171875,-1.066796037779996e+31,2970
18710,1007.9127197265625,-1.066796037779996e+31,2971
18730,1007.91064453125,-1.066796037779996e+31,2970
18760,1007.9157104492188,-1.066796037779996e+31,2971
18810,1007.9292602539062,-1.066796037779996e+31,2971
18830,1007.8869018554688,-1.066796037779996e+31,2970
19710,1007.9254760742188,-1.066796037779996e+31,2958
19730,1007.9080810546875,-1.066796037779996e+31,2958
19770,1007.906005859375,-1.066796037779996e+31,2956
20180,1007.8920288085938,-1.066796037779996e+31,2956
20190,1007.8670043945312,-1.066796037779996e+31,2955
20710,1007.86279296875,-1.066796037779996e+31,2955
21700,1007.829345703125,-1.066796037779996e+31,2951
21700,1007.8387451171875,-1.066796037779996e+31,2951
21720,1007.8387451171875,-1.066796037779996e+31,2951
21720,1007.82177734375,-1.066796037779996e+31,2951
21730,1007.82177734375,-1.066796037779996e+31,2951
21740,1007.82177734375,-1.066796037779996e+31,2951
21770,1007.858642578125,-1.066796037779996e+31,2950
21820,1007.8599243164062,-1.066796037779996e+31,2951
21840,1007.845947265625,-1.066796037779996e+31,2951
22720,1007.843017578125,-1.066796037779996e+31,2949
22760,1007.8807373046875,-1.066796037779996e+31,2949
22780,1007.885009765625,-1.066796037779996e+31,2950
22820,1007.88037109375,-1.066796037779996e+31,2949
22840,1007.8621215820312,-1.066796037779996e+31,2948
25740,1007.8680419921875,-1.066796037779996e+31,2950
25780,1007.84130859375,-1.066796037779996e+31,2950
25780,1007.84130859375,-1.066796037779996e+31,2950
25800,1007.8594970703125,-1.066796037779996e+31,2951
25810,1007.8594970703125,-1.066796037779996e+31,2951
25820,1007.8590698242188,-1.066796037779996e+31,2951
25830,1007.8590698242188,-1.066796037779996e+31,2951
25840,1007.8590698242188,-1.066796037779996e+31,2951
25850,1007.865478515625,-1.066796037779996e+31,2950
25860,1007.865478515625,-1.066796037779996e+31,2950
25860,1007.8383178710938,-1.066796037779996e+31,2950
25870,1007.8383178710938,-1.066796037779996e+31,2950
25880,1007.8383178710938,-1.066796037779996e+31,2950
25880,1007.8383178710938,-1.066796037779996e+31,2950
26730,1007.8741455078125,-1.066796037779996e+31,2943
26750,1007.8970947265625,-1.066796037779996e+31,2943
26790,1007.8546752929688,-1.066796037779996e+31,2942
26830,1007.8733520507812,-1.066796037779996e+31,2941
26860,1007.8635864257812,-1.066796037779996e+31,2941
27740,1007.8826293945312,-1.066796037779996e+31,2944
27760,1007.9080810546875,-1.066796037779996e+31,2943
27790,1007.9033813476562,-1.066796037779996e+31,2945
27840,1007.86181640625,-1.066796037779996e+31,2944
27860,1007.869873046875,-1.066796037779996e+31,2945
28740,1007.9096069335938,-1.066796037779996e+31,2950
28760,1007.9027709960938,-1.066796037779996e+31,2950
28790,1007.9210205078125,-1.066796037779996e+31,2951
28840,1007.8905029296875,-1.066796037779996e+31,2951
28860,1007.8590698242188,-1.066796037779996e+31,2951
29740,1007.8666381835938,-1.066796037779996e+31,2953
29760,1007.8462524414062,-1.066796037779996e+31,2953
29800,1007.877685546875,-1.066796037779996e+31,2954
29850,1007.864501953125,-1.066796037779996e+31,2954
29870,1007.867919921875,-1.066796037779996e+31,2954
30750,1007.8726196289062,-1.066796037779996e+31,2953
30770,1007.9141845703125,-1.066796037779996e+31,2953
30800,1007.8492431640625,-1.066796037779996e+31,2953
30850,1007.8772583007812,-1.066796037779996e+31,2953
30870,1007.8726196289062,-1.066796037779996e+31,2953
31750,1007.8692016601562,-1.066796037779996e+31,2953
31770,1007.8726196289062,-1.066796037779996e+31,2953
31800,1007.8823852539062,-1.066796037779996e+31,2952
31850,1007.881103515625,-1.066796037779996e+31,2952
31870,1007.9031372070312,-1.066796037779996e+31,2953
32930,1007.892578125,-1.066796037779996e+31,2952
33150,1007.897216796875,-1.066796037779996e+31,2953
33380,1007.8921508789062,-1.066796037779996e+31,2952
33410,1007.9260864257812,-1.066796037779996e+31,2952
33430,1007.90869140625,-1.066796037779996e+31,2952
33750,1007.9384155273438,-1.066796037779996e+31,2951
33780,1007.884521484375,-1.066796037779996e+31,2952
33810,1007.8968505859375,-1.066796037779996e+31,2951
33860,1007.9244384765625,-1.066796037779996e+31,2951
33890,1007.8807373046875,-1.066796037779996e+31,2951
34820,1007.862060546875,-1.066796037779996e+31,2950
34870,1007.8947143554688,-1.066796037779996e+31,2952
34890,1007.8807373046875,-1.066796037779996e+31,2951
37790,1007.8904418945312,-1.066796037779996e+31,2953
39870,1007.9022827148438,-1.066796037779996e+31,2954
39890,1007.887451171875,-1.066796037779996e+31,2953
39890,1007.8712768554688,-1.066796037779996e+31,2954
39900,1007.8712768554688,-1.066796037779996e+31,2954
39910,1007.8992919921875,-1.066796037779996e+31,2954
39920,1007.8992919921875,-1.066796037779996e+31,2954
39930,1007.8992919921875,-1.066796037779996e+31,2954
39940,1007.909912109375,-1.066796037779996e+31,2955
39950,1007.909912109375,-1.066796037779996e+31,2955
40780,1007.896728515625,-1.066796037779996e+31,2955
40800,1007.896728515625,-1.066796037779996e+31,2955
40830,1007.8543090820312,-1.066796037779996e+31,2954
40890,1007.8665771484375,-1.066796037779996e+31,2955
40900,1007.8937377929688,-1.066796037779996e+31,2955
41790,1007.954833984375,-1.066796037779996e+31,2955
41800,1007.9192504882812,-1.066796037779996e+31,2954
41840,1007.9192504882812,-1.066796037779996e+31,2954
41890,1007.9060668945312,-1.066796037779996e+31,2954
41910,1007.9060668945312,-1.066796037779996e+31,2954
42790,1007.91455078125,-1.066796037779996e+31,2955
42810,1007.8963012695312,-1.066796037779996e+31,2955
42840,1007.8551635742188,-1.066796037779996e+31,2954
42890,1007.9115600585938,-1.066796037779996e+31,2956
42910,1007.9115600585938,-1.066796037779996e+31,2956
43790,1007.9213256835938,-1.066796037779996e+31,2955
43810,1007.9115600585938,-1.066796037779996e+31,2956
43840,1007.8776245117188,-1.066796037779996e+31,2956
43840,1007.8776245117188,-1.066796037779996e+31,2956
43890,1007.8809814453125,-1.066796037779996e+31,2956
43910,1007.8779907226562,-1.066796037779996e+31,2956
44790,1007.8572387695312,-1.066796037779996e+31,2956
44810,1007.864013671875,-1.066796037779996e+31,2956
44850,1007.8983764648438,-1.066796037779996e+31,2956
44890,1007.8809814453125,-1.066796037779996e+31,2956
44920,1007.8712158203125,-1.066796037779996e+31,2956
45800,1007.9089965820312,-1.066796037779996e+31,2956
45820,1007.9119873046875,-1.066796037779996e+31,2956
45850,1007.9022216796875,-1.066796037779996e+31,2956
45900,1007.8712158203125,-1.066796037779996e+31,2956
45920,1007.8886108398438,-1.066796037779996e+31,2956
46800,1007.8712158203125,-1.066796037779996e+31,2956
46820,1007.8992309570312,-1.066796037779996e+31,2956
46850,1007.902587890625,-1.066796037779996e+31,2956
46900,1007.84912109375,-1.066796037779996e+31,2957
46920,1007.8546752929688,-1.066796037779996e+31,2956
47800,1007.904296875,-1.066796037779996e+31,2957
47820,1007.8834838867188,-1.066796037779996e+31,2957
47860,1007.89453125,-1.066796037779996e+31,2958
47900,1007.9050903320312,-1.066796037779996e+31,2958
47920,1007.9110717773438,-1.066796037779996e+31,2957
48800,1007.8546142578125,-1.066796037779996e+31,2958
48830,1007.8966064453125,-1.066796037779996e+31,2959
48860,1007.8524780273438,-1.066796037779996e+31,2959
48910,1007.8753662109375,-1.066796037779996e+31,2958
48930,1007.895751953125,-1.066796037779996e+31,2958
49990,1007.8668823242188,-1.066796037779996e+31,2959
50240,1007.908447265625,-1.066796037779996e+31,2960
50250,1007.908447265625,-1.066796037779996e+31,2960
50810,1007.8969116210938,-1.066796037779996e+31,2961
50830,1007.8969116210938,-1.066796037779996e+31,2961
50870,1007.8859252929688,-1.066796037779996e+31,2961
50910,1007.8939819335938,-1.066796037779996e+31,2961
50930,1007.9121704101562,-1.066796037779996e+31,2962
51810,1007.8634033203125,-1.066796037779996e+31,2961
51840,1007.857421875,-1.066796037779996e+31,2962
51870,1007.8468627929688,-1.066796037779996e+31,2962
52820,1007.8633422851562,-1.066796037779996e+31,2963
52840,1007.85693359375,-1.066796037779996e+31,2964
52870,1007.8739624023438,-1.066796037779996e+31,2964
52870,1007.8739624023438,-1.066796037779996e+31,2964
52920,1007.8510131835938,-1.066796037779996e+31,2964
52940,1007.8535766601562,-1.066796037779996e+31,2964
53820,1007.939697265625,-1.066796037779996e+31,2964
53840,1007.9443359375,-1.066796037779996e+31,2965
53880,1007.9176025390625,-1.066796037779996e+31,2966
53920,1007.9197387695312,-1.066796037779996e+31,2965
53940,1007.9260864257812,-1.066796037779996e+31,2964
54820,1007.9107666015625,-1.066796037779996e+31,2966
54850,1007.9176025390625,-1.066796037779996e+31,2966
54890,1007.9519653320312,-1.066796037779996e+31,2966
54930,1007.9129638671875,-1.066796037779996e+31,2965
54950,1007.8933715820312,-1.066796037779996e+31,2965
55830,1007.8946533203125,-1.066796037779996e+31,2966
55850,1007.9222412109375,-1.066796037779996e+31,2966
55890,1007.9052734375,-1.066796037779996e+31,2966
55930,1007.8950805664062,-1.066796037779996e+31,2966
55950,1007.9396362304688,-1.066796037779996e+31,2967
56830,1007.8865356445312,-1.066796037779996e+31,2967
56850,1007.8937377929688,-1.066796037779996e+31,2968
56890,1007.8941650390625,-1.066796037779996e+31,2968
56930,1007.906494140625,-1.066796037779996e+31,2967
56950,1007.8963012695312,-1.066796037779996e+31,2967
57860,1007.915771484375,-1.066796037779996e+31,2969
57890,1007.912353515625,-1.066796037779996e+31,2969
57940,1007.9463500976562,-1.066796037779996e+31,2969
57960,1007.9183349609375,-1.066796037779996e+31,2968
58840,1007.8856201171875,-1.066796037779996e+31,2969
58860,1007.9000244140625,-1.066796037779996e+31,2969
58900,1007.9038696289062,-1.066796037779996e+31,2970
58940,1007.9234008789062,-1.066796037779996e+31,2969
58960,1007.9276123046875,-1.066796037779996e+31,2970
59840,1007.882568359375,-1.066796037779996e+31,2971
60830,1007.8931884765625,-1.066796037779996e+31,2971
60840,1007.9415283203125,-1.066796037779996e+31,2972
60850,1007.8889770507812,-1.066796037779996e+31,2971
60860,1007.8889770507812,-1.066796037779996e+31,2971
60870,1007.8889770507812,-1.066796037779996e+31,2971
60880,1007.9139404296875,-1.066796037779996e+31,2972
60900,1007.9313354492188,-1.066796037779996e+31,2972
60950,1007.9139404296875,-1.066796037779996e+31,2972
60970,1007.9453735351562,-1.066796037779996e+31,2972
61850,1007.8948364257812,-1.066796037779996e+31,2972
61870,1007.8888549804688,-1.066796037779996e+31,2973
61900,1007.8944091796875,-1.066796037779996e+31,2972
61950,1007.8990478515625,-1.066796037779996e+31,2973
61970,1007.8888549804688,-1.066796037779996e+31,2973
62850,1007.9622802734375,-1.066796037779996e+31,2974
62870,1007.9482421875,-1.066796037779996e+31,2974
62910,1007.9359130859375,-1.066796037779996e+31,2975
62950,1007.9210815429688,-1.066796037779996e+31,2974
62970,1007.9380493164062,-1.066796037779996e+31,2974
63850,1007.920166015625,-1.066796037779996e+31,2975
63870,1007.943115234375,-1.066796037779996e+31,2975
63910,1007.9461059570312,-1.066796037779996e+31,2975
63960,1007.9401245117188,-1.066796037779996e+31,2975
63980,1007.946533203125,-1.066796037779996e+31,2975
64860,1007.9345703125,-1.066796037779996e+31,2976
64880,1007.9421997070312,-1.066796037779996e+31,2976
64910,1007.9312133789062,-1.066796037779996e+31,2976
64960,1007.9146118164062,-1.066796037779996e+31,2976
64980,1007.9443359375,-1.066796037779996e+31,2976
65860,1007.9286499023438,-1.066796037779996e+31,2976
65890,1007.9595947265625,-1.066796037779996e+31,2977
65920,1007.9502563476562,-1.066796037779996e+31,2977
65960,1007.9468383789062,-1.066796037779996e+31,2977
65990,1007.9362182617188,-1.066796037779996e+31,2977
66860,1007.9544677734375,-1.066796037779996e+31,2978
66890,1007.9510498046875,-1.066796037779996e+31,2978
66920,1007.9349365234375,-1.066796037779996e+31,2978
66970,1007.95654296875,-1.066796037779996e+31,2979
66990,1007.9213256835938,-1.066796037779996e+31,2978
67870,1007.906005859375,-1.066796037779996e+31,2979
67890,1007.9509887695312,-1.066796037779996e+31,2980
67920,1007.922607421875,-1.066796037779996e+31,2979
67970,1007.9263916015625,-1.066796037779996e+31,2979
67990,1007.9229736328125,-1.066796037779996e+31,2979
68870,1007.9076538085938,-1.066796037779996e+31,2980
68890,1007.9340209960938,-1.066796037779996e+31,2980
68930,1007.9068603515625,-1.066796037779996e+31,2980
68970,1007.8728637695312,-1.066796037779996e+31,2980
69000,1007.9004516601562,-1.066796037779996e+31,2980
69870,1007.9496459960938,-1.066796037779996e+31,2981
69900,1007.9050903320312,-1.066796037779996e+31,2981
69930,1007.9182739257812,-1.066796037779996e+31,2980
69980,1007.905517578125,-1.066796037779996e+31,2981
70000,1007.9263305664062,-1.066796037779996e+31,2981
70880,1007.9203491210938,-1.066796037779996e+31,2982
70900,1007.9229125976562,-1.066796037779996e+31,2981
70930,1007.960693359375,-1.066796037779996e+31,2981
70990,1007.9033813476562,-1.066796037779996e+31,2982
71000,1007.9033813476562,-1.066796037779996e+31,2982
71890,1007.9321899414062,-1.066796037779996e+31,2983
71900,1007.9321899414062,-1.066796037779996e+31,2983
71940,1007.8642578125,-1.066796037779996e+31,2983
71990,1007.9491577148438,-1.066796037779996e+31,2983
72000,1007.9249877929688,-1.066796037779996e+31,2982
72890,1007.8897094726562,-1.066796037779996e+31,2984
72900,1007.8888549804688,-1.066796037779996e+31,2983
72940,1007.9058227539062,-1.066796037779996e+31,2983
72990,1007.9138793945312,-1.066796037779996e+31,2984
73010,1007.9236450195312,-1.066796037779996e+31,2984
73890,1007.8939208984375,-1.066796037779996e+31,2984
73910,1007.8561401367188,-1.066796037779996e+31,2984
73940,1007.8807373046875,-1.066796037779996e+31,2984
73990,1007.9078979492188,-1.066796037779996e+31,2984
74010,1007.8972778320312,-1.066796037779996e+31,2984
74890,1007.86376953125,-1.066796037779996e+31,2984
74910,1007.9189453125,-1.066796037779996e+31,2985
74950,1007.9197387695312,-1.066796037779996e+31,2985
74990,1007.8947143554688,-1.066796037779996e+31,2985
75010,1007.892578125,-1.066796037779996e+31,2985
75890,1007.8900146484375,-1.066796037779996e+31,2986
75920,1007.8662109375,-1.066796037779996e+31,2986
75950,1007.8895874023438,-1.066796037779996e+31,2986
76000,1007.87939453125,-1.066796037779996e+31,2986
76020,1007.845458984375,-1.066796037779996e+31,2986
76900,1007.9120483398438,-1.066796037779996e+31,2987
76920,1007.8916625976562,-1.066796037779996e+31,2987
76950,1007.9158325195312,-1.066796037779996e+31,2987
77000,1007.877685546875,-1.066796037779996e+31,2987
77900,1007.8882446289062,-1.066796037779996e+31,2987
77920,1007.8687133789062,-1.066796037779996e+31,2987
77950,1007.8648681640625,-1.066796037779996e+31,2987
78000,1007.9132690429688,-1.066796037779996e+31,2988
78030,1007.8844604492188,-1.066796037779996e+31,2987
78050,1007.8890991210938,-1.066796037779996e+31,2987
78900,1007.8793334960938,-1.066796037779996e+31,2988
78920,1007.8988647460938,-1.066796037779996e+31,2987
78960,1007.8793334960938,-1.066796037779996e+31,2988
79010,1007.9144897460938,-1.066796037779996e+31,2988
79030,1007.9102783203125,-1.066796037779996e+31,2988
79050,1007.9102783203125,-1.066796037779996e+31,2988
79910,1007.8851928710938,-1.066796037779996e+31,2989
79930,1007.853759765625,-1.066796037779996e+31,2989
79960,1007.8851928710938,-1.066796037779996e+31,2989
80010,1007.8635864257812,-1.066796037779996e+31,2988
80040,1007.889404296875,-1.066796037779996e+31,2990
80060,1007.8639526367188,-1.066796037779996e+31,2989
80910,1007.8834228515625,-1.066796037779996e+31,2990
80930,1007.8978271484375,-1.066796037779996e+31,2991
80970,1007.8728637695312,-1.066796037779996e+31,2990
81010,1007.8966064453125,-1.066796037779996e+31,2990
81030,1007.9102172851562,-1.066796037779996e+31,2990
81910,1007.8834228515625,-1.066796037779996e+31,2990
81930,1007.9220581054688,-1.066796037779996e+31,2991
81970,1007.908447265625,-1.066796037779996e+31,2991
82020,1007.9008178710938,-1.066796037779996e+31,2990
82040,1007.8718872070312,-1.066796037779996e+31,2991
82920,1007.87109375,-1.066796037779996e+31,2991
82940,1007.8549194335938,-1.066796037779996e+31,2991
82970,1007.8740844726562,-1.066796037779996e+31,2991
83020,1007.8956909179688,-1.066796037779996e+31,2991
83040,1007.9093017578125,-1.066796037779996e+31,2991
83920,1007.8884887695312,-1.066796037779996e+31,2991
83940,1007.9066772460938,-1.066796037779996e+31,2992
83980,1007.9135131835938,-1.066796037779996e+31,2992
84020,1007.89990234375,-1.066796037779996e+31,2992
84040,1007.917724609375,-1.066796037779996e+31,2993
84920,1007.9083251953125,-1.066796037779996e+31,2993
84940,1007.9027709960938,-1.066796037779996e+31,2994
84980,1007.8829345703125,-1.066796037779996e+31,2992
85030,1007.8751831054688,-1.066796037779996e+31,2994
85050,1007.8569946289062,-1.066796037779996e+31,2993
85930,1007.9185180664062,-1.066796037779996e+31,2993
85950,1007.9019775390625,-1.066796037779996e+31,2993
87930,1007.8840942382812,-1.066796037779996e+31,2995
87950,1007.8772583007812,-1.066796037779996e+31,2995
87990,1007.8900146484375,-1.066796037779996e+31,2994
88040,1007.90869140625,-1.066796037779996e+31,2995
88060,1007.9010620117188,-1.066796037779996e+31,2995
88930,1007.8721313476562,-1.066796037779996e+31,2996
88960,1007.9027099609375,-1.066796037779996e+31,2996
88990,1007.89208984375,-1.066796037779996e+31,2996
89040,1007.9132690429688,-1.066796037779996e+31,2996
89060,1007.8848876953125,-1.066796037779996e+31,2995
89940,1007.9166870117188,-1.066796037779996e+31,2996
89960,1007.9027099609375,-1.066796037779996e+31,2996
89990,1007.851318359375,-1.066796037779996e+31,2996
90040,1007.8814697265625,-1.066796037779996e+31,2995
90060,1007.8585205078125,-1.066796037779996e+31,2996
90940,1007.8797607421875,-1.066796037779996e+31,2996
90960,1007.8699340820312,-1.066796037779996e+31,2997
91000,1007.8729248046875,-1.066796037779996e+31,2996
91050,1007.8601684570312,-1.066796037779996e+31,2997
91070,1007.8809814453125,-1.066796037779996e+31,2997
91950,1007.8525390625,-1.066796037779996e+31,2996
91970,1007.860595703125,-1.066796037779996e+31,2997
92000,1007.8402099609375,-1.066796037779996e+31,2997
92050,1007.8568115234375,-1.066796037779996e+31,2997
92070,1007.8665771484375,-1.066796037779996e+31,2997
92950,1007.9089965820312,-1.066796037779996e+31,2998
92970,1007.9089965820312,-1.066796037779996e+31,2998
93000,1007.8988037109375,-1.066796037779996e+31,2998
93050,1007.8610229492188,-1.066796037779996e+31,2997
93070,1007.8877563476562,-1.066796037779996e+31,2997
93950,1007.892822265625,-1.066796037779996e+31,2998
93970,1007.86865234375,-1.066796037779996e+31,2998
94010,1007.8596801757812,-1.066796037779996e+31,2999
94060,1007.8788452148438,-1.066796037779996e+31,2998
94080,1007.8919677734375,-1.066796037779996e+31,2998
94950,1007.8728637695312,-1.066796037779996e+31,2998
94980,1007.8856201171875,-1.066796037779996e+31,2998
95010,1007.8826293945312,-1.066796037779996e+31,2998
95060,1007.8690185546875,-1.066796037779996e+31,2998
95080,1007.876220703125,-1.066796037779996e+31,2998
95960,1007.8775024414062,-1.066796037779996e+31,2999
95990,1007.87451171875,-1.066796037779996e+31,2999
96010,1007.8876953125,-1.066796037779996e+31,2999
96060,1007.9088745117188,-1.066796037779996e+31,3000
96080,1007.8910522460938,-1.066796037779996e+31,2999
96960,1007.8087158203125,-1.066796037779996e+31,2999
96980,1007.8036499023438,-1.066796037779996e+31,2998
97020,1007.827880859375,-1.066796037779996e+31,2998
97060,1007.8274536132812,-1.066796037779996e+31,2998
97090,1007.8138427734375,-1.066796037779996e+31,2998
97960,1007.8291015625,-1.066796037779996e+31,2999
97990,1007.8427124023438,-1.066796037779996e+31,2999
98020,1007.863037109375,-1.066796037779996e+31,2999
98070,1007.8528442382812,-1.066796037779996e+31,2999
98090,1007.8486328125,-1.066796037779996e+31,2998
98970,1007.8507080078125,-1.066796037779996e+31,2999
98990,1007.8507080078125,-1.066796037779996e+31,2999
99020,1007.8125,-1.066796037779996e+31,2999
99020,1007.8125,-1.066796037779996e+31,2999
99070,1007.8231201171875,-1.066796037779996e+31,2999
99090,1007.8291015625,-1.066796037779996e+31,2999
99970,1007.830322265625,-1.066796037779996e+31,2999
100000,1007.8197021484375,-1.066796037779996e+31,2999
100030,1007.8333129882812,-1.066796037779996e+31,2999
100070,1007.8502807617188,-1.066796037779996e+31,2999
100100,1007.8019409179688,-1.066796037779996e+31,2999
100970,1007.843505859375,-1.066796037779996e+31,2999
101000,1007.8295288085938,-1.066796037779996e+31,2999
101030,1007.83837890625,-1.066796037779996e+31,3000
102220,1007.84228515625,-1.066796037779996e+31,2998
102230,1007.84228515625,-1.066796037779996e+31,2998
102240,1007.84228515625,-1.066796037779996e+31,2998
102250,1007.8333129882812,-1.066796037779996e+31,2999
102990,1007.8648071289062,-1.066796037779996e+31,2998
103010,1007.8656616210938,-1.066796037779996e+31,2998
103040,1007.8546142578125,-1.066796037779996e+31,2998
103090,1007.8512573242188,-1.066796037779996e+31,2998
103110,1007.8202514648438,-1.066796037779996e+31,2997
103990,1007.8504028320312,-1.066796037779996e+31,2997
104010,1007.8432006835938,-1.066796037779996e+31,2997
104040,1007.873779296875,-1.066796037779996e+31,2997
104090,1007.870361328125,-1.066796037779996e+31,2997
104110,1007.8712158203125,-1.066796037779996e+31,2997
104990,1007.865234375,-1.066796037779996e+31,2998
105980,1007.890625,-1.066796037779996e+31,2999
105990,1007.890625,-1.066796037779996e+31,2999
106000,1007.8868408203125,-1.066796037779996e+31,2999
106020,1007.8782958984375,-1.066796037779996e+31,3000
106030,1007.8782958984375,-1.066796037779996e+31,3000
106030,1007.8782958984375,-1.066796037779996e+31,3000
106050,1007.8694458007812,-1.066796037779996e+31,2998
106090,1007.8838500976562,-1.066796037779996e+31,2999
106120,1007.8834228515625,-1.066796037779996e+31,2999
106990,1007.9135131835938,-1.066796037779996e+31,3000
107020,1007.9003295898438,-1.066796037779996e+31,3001
107050,1007.84814453125,-1.066796037779996e+31,3000
107100,1007.9266967773438,-1.066796037779996e+31,3000
107120,1007.8825073242188,-1.066796037779996e+31,3000
108000,1007.879150390625,-1.066796037779996e+31,3000
108020,1007.8807373046875,-1.066796037779996e+31,3001
108050,1007.8905639648438,-1.066796037779996e+31,3001
108100,1007.8871459960938,-1.066796037779996e+31,3001
108120,1007.8595581054688,-1.066796037779996e+31,3001
109000,1007.8739624023438,-1.066796037779996e+31,3001
109020,1007.8557739257812,-1.066796037779996e+31,3000
109060,1007.9109497070312,-1.066796037779996e+31,3001
109100,1007.8727416992188,-1.066796037779996e+31,3000
109130,1007.8880004882812,-1.066796037779996e+31,3001
110000,1007.8778076171875,-1.066796037779996e+31,3001
110030,1007.8807373046875,-1.066796037779996e+31,3001
110060,1007.8641967773438,-1.066796037779996e+31,3001
110110,1007.9091796875,-1.066796037779996e+31,3002
110130,1007.9019775390625,-1.066796037779996e+31,3002
111010,1007.88623046875,-1.066796037779996e+31,3002
111030,1007.9015502929688,-1.066796037779996e+31,3001
111060,1007.8997802734375,-1.066796037779996e+31,3002
111110,1007.8985595703125,-1.066796037779996e+31,3002
111130,1007.868408203125,-1.066796037779996e+31,3002
112010,1007.858642578125,-1.066796037779996e+31,3002
112030,1007.8823852539062,-1.066796037779996e+31,3002
112070,1007.8713989257812,-1.066796037779996e+31,3002
112110,1007.8858032226562,-1.066796037779996e+31,3002
112140,1007.881591796875,-1.066796037779996e+31,3002
112160,1007.88623046875,-1.066796037779996e+31,3002
113010,1007.8904418945312,-1.066796037779996e+31,3003
113040,1007.917236328125,-1.066796037779996e+31,3003
113070,1007.897216796875,-1.066796037779996e+31,3003
113120,1007.8794555664062,-1.066796037779996e+31,3002
113120,1007.8794555664062,-1.066796037779996e+31,3002
113140,1007.8866577148438,-1.066796037779996e+31,3003
114020,1007.8794555664062,-1.066796037779996e+31,3002
114040,1007.8772583007812,-1.066796037779996e+31,3003
114070,1007.86328125,-1.066796037779996e+31,3003
114120,1007.85009765625,-1.066796037779996e+31,3003
114140,1007.8436889648438,-1.066796037779996e+31,3003
115020,1007.8534545898438,-1.066796037779996e+31,3003
115040,1007.8674926757812,-1.066796037779996e+31,3003
115080,1007.8436889648438,-1.066796037779996e+31,3003
115120,1007.8471069335938,-1.066796037779996e+31,3003
115140,1007.8255004882812,-1.066796037779996e+31,3003
116030,1007.8712768554688,-1.066796037779996e+31,3004
116050,1007.854736328125,-1.066796037779996e+31,3004
116090,1007.8441162109375,-1.066796037779996e+31,3004
116130,1007.8538818359375,-1.066796037779996e+31,3003
116150,1007.8161010742188,-1.066796037779996e+31,3003
117030,1007.8674926757812,-1.066796037779996e+31,3003
117050,1007.8309326171875,-1.066796037779996e+31,3004
117090,1007.8377075195312,-1.066796037779996e+31,3004
117130,1007.8301391601562,-1.066796037779996e+31,3003
117150,1007.8377075195312,-1.066796037779996e+31,3004
118030,1007.8355712890625,-1.066796037779996e+31,3005
118060,1007.8529663085938,-1.066796037779996e+31,3005
118090,1007.84619140625,-1.066796037779996e+31,3005
118140,1007.8555297851562,-1.066796037779996e+31,3004
118160,1007.8687133789062,-1.066796037779996e+31,3004
119030,1007.8593139648438,-1.066796037779996e+31,3005
119060,1007.8432006835938,-1.066796037779996e+31,3005
119090,1007.8601684570312,-1.066796037779996e+31,3005
119140,1007.8525390625,-1.066796037779996e+31,3005
119160,1007.8563842773438,-1.066796037779996e+31,3005
120040,1007.8465576171875,-1.066796037779996e+31,3005
120060,1007.8363647460938,-1.066796037779996e+31,3005
120090,1007.8665771484375,-1.066796037779996e+31,3005
120140,1007.8419189453125,-1.066796037779996e+31,3004
120160,1007.8402099609375,-1.066796037779996e+31,3005
121040,1007.840576171875,-1.066796037779996e+31,3006
121060,1007.8418579101562,-1.066796037779996e+31,3006
121140,1007.840576171875,-1.066796037779996e+31,3006
121160,1007.8482055664062,-1.066796037779996e+31,3006
122040,1007.83544921875,-1.066796037779996e+31,3007
122070,1007.8218383789062,-1.066796037779996e+31,3007
122100,1007.8312377929688,-1.066796037779996e+31,3006
122150,1007.83544921875,-1.066796037779996e+31,3007
122170,1007.8282470703125,-1.066796037779996e+31,3006
123050,1007.8248291015625,-1.066796037779996e+31,3006
123070,1007.83203125,-1.066796037779996e+31,3007
123100,1007.8426513671875,-1.066796037779996e+31,3007
123150,1007.846435546875,-1.066796037779996e+31,3007
123170,1007.8328857421875,-1.066796037779996e+31,3007
124050,1007.8375244140625,-1.066796037779996e+31,3008
124070,1007.8405151367188,-1.066796037779996e+31,3008
124110,1007.8311157226562,-1.066796037779996e+31,3008
124150,1007.8120727539062,-1.066796037779996e+31,3007
124170,1007.843505859375,-1.066796037779996e+31,3007
125050,1007.810302734375,-1.066796037779996e+31,3008
125070,1007.85791015625,-1.066796037779996e+31,3008
125110,1007.859130859375,-1.066796037779996e+31,3009
125160,1007.8489379882812,-1.066796037779996e+31,3009
125180,1007.87353515625,-1.066796037779996e+31,3009
126060,1007.8191528320312,-1.066796037779996e+31,3009
126090,1007.8365478515625,-1.066796037779996e+31,3009
126120,1007.8513793945312,-1.066796037779996e+31,3010
126160,1007.8302001953125,-1.066796037779996e+31,3010
126180,1007.8335571289062,-1.066796037779996e+31,3010
127060,1007.8654174804688,-1.066796037779996e+31,3010
127090,1007.8369750976562,-1.066796037779996e+31,3010
127120,1007.8853759765625,-1.066796037779996e+31,3010
127170,1007.864990234375,-1.066796037779996e+31,3010
127190,1007.8377685546875,-1.066796037779996e+31,3010
128070,1007.8657836914062,-1.066796037779996e+31,3011
128090,1007.8446044921875,-1.066796037779996e+31,3010
128120,1007.8453979492188,-1.066796037779996e+31,3011
128170,1007.838623046875,-1.066796037779996e+31,3011
128190,1007.8526000976562,-1.066796037779996e+31,3011
129070,1007.815673828125,-1.066796037779996e+31,3011
129100,1007.8304443359375,-1.066796037779996e+31,3012
129130,1007.8160400390625,-1.066796037779996e+31,3011
129170,1007.877197265625,-1.066796037779996e+31,3011
129200,1007.8699951171875,-1.066796037779996e+31,3011
130070,1007.8614501953125,-1.066796037779996e+31,3012
130100,1007.8440551757812,-1.066796037779996e+31,3012
130130,1007.8402709960938,-1.066796037779996e+31,3012
130170,1007.8377075195312,-1.066796037779996e+31,3012
130200,1007.8452758789062,-1.066796037779996e+31,3013
130220,1007.8275146484375,-1.066796037779996e+31,3012
131070,1007.8512573242188,-1.066796037779996e+31,3012
131100,1007.8652954101562,-1.066796037779996e+31,3012
131130,1007.8593139648438,-1.066796037779996e+31,3013
131180,1007.8593139648438,-1.066796037779996e+31,3013
131200,1007.8389282226562,-1.066796037779996e+31,3013
132080,1007.845703125,-1.066796037779996e+31,3013
132100,1007.8248901367188,-1.066796037779996e+31,3013
132130,1007.814697265625,-1.066796037779996e+31,3013
132190,1007.856689453125,-1.066796037779996e+31,3013
132200,1007.856689453125,-1.066796037779996e+31,3013
133090,1007.856689453125,-1.066796037779996e+31,3013
133100,1007.856689453125,-1.066796037779996e+31,3013
133140,1007.8367309570312,-1.066796037779996e+31,3014
133190,1007.8129272460938,-1.066796037779996e+31,3014
133200,1007.8375854492188,-1.066796037779996e+31,3014
134090,1007.841796875,-1.066796037779996e+31,3015
134110,1007.8735961914062,-1.066796037779996e+31,3015
134140,1007.8078002929688,-1.066796037779996e+31,3015
134190,1007.8179931640625,-1.066796037779996e+31,3015
134210,1007.79296875,-1.066796037779996e+31,3014
135090,1007.8800048828125,-1.066796037779996e+31,3015
135110,1007.8668212890625,-1.066796037779996e+31,3015
135150,1007.8566284179688,-1.066796037779996e+31,3015
135190,1007.8641967773438,-1.066796037779996e+31,3016
135210,1007.8641967773438,-1.066796037779996e+31,3016
136100,1007.8187866210938,-1.066796037779996e+31,3015
136110,1007.8187866210938,-1.066796037779996e+31,3015
136110,1007.8187866210938,-1.066796037779996e+31,3015
136150,1007.7860717773438,-1.066796037779996e+31,3016
136200,1007.8340454101562,-1.066796037779996e+31,3016
136220,1007.820068359375,-1.066796037779996e+31,3016
137100,1007.803466796875,-1.066796037779996e+31,3016
137120,1007.8378295898438,-1.066796037779996e+31,3016
137150,1007.84423828125,-1.066796037779996e+31,3016
137200,1007.8174438476562,-1.066796037779996e+31,3016
137220,1007.7932739257812,-1.066796037779996e+31,3016
138100,1007.8208618164062,-1.066796037779996e+31,3016
138120,1007.8258666992188,-1.066796037779996e+31,3017
138160,1007.8102416992188,-1.066796037779996e+31,3016
138200,1007.8051147460938,-1.066796037779996e+31,3017
138220,1007.80810546875,-1.066796037779996e+31,3017
139100,1007.8126831054688,-1.066796037779996e+31,3018
139120,1007.7835083007812,-1.066796037779996e+31,3016
139160,1007.8153076171875,-1.066796037779996e+31,3017
139210,1007.8220825195312,-1.066796037779996e+31,3017
139230,1007.8262939453125,-1.066796037779996e+31,3018
140110,1007.720947265625,-1.066796037779996e+31,3018
140130,1007.762939453125,-1.066796037779996e+31,3019
140160,1007.7489624023438,-1.066796037779996e+31,3018
140210,1007.7523803710938,-1.066796037779996e+31,3018
140230,1007.7867431640625,-1.066796037779996e+31,3019
141110,1007.7672119140625,-1.066796037779996e+31,3019
141130,1007.739990234375,-1.066796037779996e+31,3019
141160,1007.7680053710938,-1.066796037779996e+31,3020
141210,1007.7536010742188,-1.066796037779996e+31,3019
141230,1007.7672119140625,-1.066796037779996e+31,3019
142110,1007.700439453125,-1.066796037779996e+31,3020
142130,1007.7080688476562,-1.066796037779996e+31,3020
142170,1007.70849609375,-1.066796037779996e+31,3021
142220,1007.690673828125,-1.066796037779996e+31,3020
142240,1007.690673828125,-1.066796037779996e+31,3020
143140,1007.709716796875,-1.066796037779996e+31,3021
143240,1007.7301025390625,-1.066796037779996e+31,3021
144120,1007.6867065429688,-1.066796037779996e+31,3022
144140,1007.735107421875,-1.066796037779996e+31,3022
144170,1007.71728515625,-1.066796037779996e+31,3022
144220,1007.7346801757812,-1.066796037779996e+31,3022
144240,1007.72412109375,-1.066796037779996e+31,3022
145140,1007.7283325195312,-1.066796037779996e+31,3022
145180,1007.735107421875,-1.066796037779996e+31,3022
145230,1007.7325439453125,-1.066796037779996e+31,3023
145250,1007.7491455078125,-1.066796037779996e+31,3023
147130,1007.7234497070312,-1.066796037779996e+31,3026
147150,1007.7357788085938,-1.066796037779996e+31,3025
147190,1007.733642578125,-1.066796037779996e+31,3026
147230,1007.69921875,-1.066796037779996e+31,3025
147250,1007.7196044921875,-1.066796037779996e+31,3025
148130,1007.7306518554688,-1.066796037779996e+31,3026
148150,1007.717041015625,-1.066796037779996e+31,3026
148190,1007.694091796875,-1.066796037779996e+31,3026
148250,1007.703857421875,-1.066796037779996e+31,3026
149130,1007.7560424804688,-1.066796037779996e+31,3027
149150,1007.720458984375,-1.066796037779996e+31,3026
149190,1007.7140502929688,-1.066796037779996e+31,3026
149240,1007.7114868164062,-1.066796037779996e+31,3027
149260,1007.7114868164062,-1.066796037779996e+31,3027
150140,1007.7352294921875,-1.066796037779996e+31,3027
150160,1007.7322387695312,-1.066796037779996e+31,3027
150190,1007.7352294921875,-1.066796037779996e+31,3027
150240,1007.7356567382812,-1.066796037779996e+31,3027
150260,1007.7416381835938,-1.066796037779996e+31,3026
151140,1007.7211303710938,-1.066796037779996e+31,3028
151160,1007.7380981445312,-1.066796037779996e+31,3028
151200,1007.7449340820312,-1.066796037779996e+31,3028
151240,1007.7321166992188,-1.066796037779996e+31,3029
151260,1007.7461547851562,-1.066796037779996e+31,3029
152140,1007.7447509765625,-1.066796037779996e+31,3030
152160,1007.757568359375,-1.066796037779996e+31,3030
152200,1007.7579345703125,-1.066796037779996e+31,3030
152250,1007.7741088867188,-1.066796037779996e+31,3030
152270,1007.7737426757812,-1.066796037779996e+31,3029
153150,1007.7868041992188,-1.066796037779996e+31,3031
153170,1007.7761840820312,-1.066796037779996e+31,3031
153200,1007.7723999023438,-1.066796037779996e+31,3031
153250,1007.7736206054688,-1.066796037779996e+31,3031
153270,1007.796142578125,-1.066796037779996e+31,3031
154150,1007.7625732421875,-1.066796037779996e+31,3031
154170,1007.7990112304688,-1.066796037779996e+31,3032
154210,1007.7344360351562,-1.066796037779996e+31,3032
154250,1007.7672119140625,-1.066796037779996e+31,3032
154280,1007.75439453125,-1.066796037779996e+31,3032
155150,1007.7810668945312,-1.066796037779996e+31,3034
155170,1007.8002319335938,-1.066796037779996e+31,3033
155210,1007.801025390625,-1.066796037779996e+31,3034
155260,1007.7696533203125,-1.066796037779996e+31,3033
155280,1007.7530517578125,-1.066796037779996e+31,3033
156160,1007.8272705078125,-1.066796037779996e+31,3035
156190,1007.7894897460938,-1.066796037779996e+31,3035
156210,1007.8167114257812,-1.066796037779996e+31,3035
156260,1007.793701171875,-1.066796037779996e+31,3035
156290,1007.7623291015625,-1.066796037779996e+31,3035
157160,1007.7257080078125,-1.066796037779996e+31,3035
157190,1007.7041015625,-1.066796037779996e+31,3035
157220,1007.7083129882812,-1.066796037779996e+31,3035
157260,1007.718505859375,-1.066796037779996e+31,3035
157290,1007.7597045898438,-1.066796037779996e+31,3035
158160,1007.7166137695312,-1.066796037779996e+31,3038
158180,1007.73779296875,-1.066796037779996e+31,3039
158220,1007.7284545898438,-1.066796037779996e+31,3039
158270,1007.7314453125,-1.066796037779996e+31,3039
158290,1007.73779296875,-1.066796037779996e+31,3039
159170,1007.7554931640625,-1.066796037779996e+31,3041
159190,1007.7423095703125,-1.066796037779996e+31,3041
159220,1007.7308959960938,-1.066796037779996e+31,3041
159270,1007.73388671875,-1.066796037779996e+31,3040
159300,1007.715087890625,-1.066796037779996e+31,3041
160170,1007.7634887695312,-1.066796037779996e+31,3042
160190,1007.72607421875,-1.066796037779996e+31,3042
160230,1007.7371215820312,-1.066796037779996e+31,3042
160270,1007.7218627929688,-1.066796037779996e+31,3041
160290,1007.743896484375,-1.066796037779996e+31,3042
161170,1007.7299194335938,-1.066796037779996e+31,3042
161200,1007.7421264648438,-1.066796037779996e+31,3043
161230,1007.734130859375,-1.066796037779996e+31,3043
161280,1007.7735595703125,-1.066796037779996e+31,3044
161300,1007.7549438476562,-1.066796037779996e+31,3043
162180,1007.67333984375,-1.066796037779996e+31,3043
162200,1007.7081298828125,-1.066796037779996e+31,3043
162230,1007.6661376953125,-1.066796037779996e+31,3043
162280,1007.67333984375,-1.066796037779996e+31,3043
162300,1007.6835327148438,-1.066796037779996e+31,3043
163180,1007.7017211914062,-1.066796037779996e+31,3044
163200,1007.6719360351562,-1.066796037779996e+31,3044
163230,1007.7115478515625,-1.066796037779996e+31,3043
163290,1007.677978515625,-1.066796037779996e+31,3044
163300,1007.6571655273438,-1.066796037779996e+31,3043
164190,1007.6893920898438,-1.066796037779996e+31,3044
164200,1007.6791381835938,-1.066796037779996e+31,3044
164240,1007.6719360351562,-1.066796037779996e+31,3044
164290,1007.7003784179688,-1.066796037779996e+31,3045
164310,1007.6991577148438,-1.066796037779996e+31,3044
165240,1007.765380859375,-1.066796037779996e+31,3045
165290,1007.7607421875,-1.066796037779996e+31,3044
165310,1007.7603759765625,-1.066796037779996e+31,3044
166250,1007.8885498046875,-1.066796037779996e+31,3046
166290,1007.8771362304688,-1.066796037779996e+31,3045
166310,1007.8299560546875,-1.066796037779996e+31,3045
167190,1007.8201904296875,-1.066796037779996e+31,3046
167210,1007.8035888671875,-1.066796037779996e+31,3046
167250,1007.8413696289062,-1.066796037779996e+31,3046
167300,1007.85498046875,-1.066796037779996e+31,3046
167320,1007.8345947265625,-1.066796037779996e+31,3046
168190,1007.8157958984375,-1.066796037779996e+31,3047
168250,1007.8082275390625,-1.066796037779996e+31,3047
168300,1007.8040161132812,-1.066796037779996e+31,3046
168320,1007.8099975585938,-1.066796037779996e+31,3046
169200,1007.8056030273438,-1.066796037779996e+31,3047
169220,1007.7936401367188,-1.066796037779996e+31,3048
169260,1007.7962036132812,-1.066796037779996e+31,3048
169300,1007.8060302734375,-1.066796037779996e+31,3047
169320,1007.7728271484375,-1.066796037779996e+31,3048
170200,1007.8058471679688,-1.066796037779996e+31,3049
170220,1007.79443359375,-1.066796037779996e+31,3049
170260,1007.815673828125,-1.066796037779996e+31,3049
170310,1007.8424682617188,-1.066796037779996e+31,3049
170330,1007.8258666992188,-1.066796037779996e+31,3049
171200,1007.7752685546875,-1.066796037779996e+31,3049
171230,1007.7820434570312,-1.066796037779996e+31,3049
171260,1007.7756958007812,-1.066796037779996e+31,3050
171310,1007.7832641601562,-1.066796037779996e+31,3050
171330,1007.8062744140625,-1.066796037779996e+31,3050
172210,1007.7913208007812,-1.066796037779996e+31,3051
172230,1007.7828979492188,-1.066796037779996e+31,3050
172270,1007.8079223632812,-1.066796037779996e+31,3051
172310,1007.788330078125,-1.066796037779996e+31,3051
172340,1007.798095703125,-1.066796037779996e+31,3051
172360,1007.8052978515625,-1.066796037779996e+31,3051
173210,1007.7725219726562,-1.066796037779996e+31,3052
173230,1007.7627563476562,-1.066796037779996e+31,3052
173270,1007.7449340820312,-1.066796037779996e+31,3052
173320,1007.768310546875,-1.066796037779996e+31,3051
173340,1007.7479248046875,-1.066796037779996e+31,3051
174210,1007.787353515625,-1.066796037779996e+31,3053
174240,1007.725341796875,-1.066796037779996e+31,3052
174270,1007.7733154296875,-1.066796037779996e+31,3052
174270,1007.7733154296875,-1.066796037779996e+31,3052
174320,1007.7767333984375,-1.066796037779996e+31,3052
174340,1007.780517578125,-1.066796037779996e+31,3053
175220,1007.8033447265625,-1.066796037779996e+31,3054
175240,1007.7749633789062,-1.066796037779996e+31,3053
175270,1007.7485961914062,-1.066796037779996e+31,3054
175270,1007.7485961914062,-1.066796037779996e+31,3054
175320,1007.796142578125,-1.066796037779996e+31,3054
175340,1007.774169921875,-1.066796037779996e+31,3053
176220,1007.8143920898438,-1.066796037779996e+31,3055
176240,1007.7871704101562,-1.066796037779996e+31,3055
176280,1007.786376953125,-1.066796037779996e+31,3054
176320,1007.80419921875,-1.066796037779996e+31,3055
176340,1007.8045654296875,-1.066796037779996e+31,3055
177220,1007.7586059570312,-1.066796037779996e+31,3056
