time_boot_ms,q1,q2,q3,q4,rollspeed,pitchspeed,yawspeed
0,0.30988726019859314,-0.5444108843803406,-0.18109695613384247,0.7559236884117126,0.0,0.0,0.0
0,0.2438594251871109,-0.5638087391853333,0.057476889342069626,0.7848435640335083,0.0,0.0,0.0
0,0.20616911351680756,-0.575362503528595,0.18177559971809387,0.7681416869163513,0.0,0.0,0.0
0,0.1649019569158554,-0.5978872179985046,0.2670728266239166,0.7352842092514038,0.0,0.0,0.0
0,0.1302385777235031,-0.6097136735916138,0.307845801115036,0.7163457870483398,0.0,0.0,0.0
0,0.11315939575433731,-0.6551751494407654,0.1838119626045227,0.7216540575027466,0.0,0.0,0.0
0,0.18814925849437714,-0.6448652744293213,-0.2018233984708786,0.7103822827339172,0.0,0.0,0.0
0,0.19759757816791534,-0.5927026867866516,-0.49404004216194153,0.6018415689468384,0.0,0.0,0.0
0,0.16397033631801605,-0.5865670442581177,-0.6425543427467346,0.4613109529018402,0.0,0.0,0.0
0,0.1198950782418251,-0.6090063452720642,-0.7106538414955139,0.32609793543815613,0.0,0.0,0.0
0,0.11377549171447754,-0.6293771266937256,-0.7084317207336426,0.2927405536174774,0.0,0.0,0.0
0,0.13884010910987854,-0.6331636905670166,-0.6923425197601318,0.3116433918476105,0.0,0.0,0.0
0,0.2197134643793106,-0.6355658769607544,-0.637821614742279,0.3709423840045929,0.0,0.0,0.0
0,0.2769377529621124,-0.6578284502029419,-0.5626259446144104,0.4131002724170685,0.0,0.0,0.0
0,0.33727455139160156,-0.6664257645606995,-0.5099353194236755,0.4227539598941803,0.0,0.0,0.0
0,0.27216899394989014,-0.12723180651664734,0.29810988903045654,0.9041557312011719,0.0,0.0,0.0
0,0.28189533948898315,-0.04225095734000206,0.2790243327617645,0.915164589881897,0.0,0.0,0.0
0,0.29938745498657227,-0.02339332550764084,0.2530231177806854,0.9178398847579956,0.0,0.0,0.0
0,0.3125869035720825,-0.046032167971134186,0.23290801048278809,0.9179078340530396,0.0,0.0,0.0
0,0.3263374865055084,-0.10431045293807983,0.1922457218170166,0.9177659749984741,0.0,0.0,0.0
0,0.32812124490737915,-0.08320920914411545,0.17695342004299164,0.9223501086235046,0.0,0.0,0.0
0,0.31645438075065613,-0.057015351951122284,0.21539096534252167,0.9202403426170349,0.0,0.0,0.0
0,0.14833931624889374,-0.13928759098052979,0.45494261384010315,0.8650120496749878,0.0,0.0,0.0
0,-0.18051961064338684,-0.3520622253417969,0.7267259955406189,0.5585364699363708,0.0,0.0,0.0
0,-0.33065471053123474,-0.32410258054733276,0.814115047454834,0.34565111994743347,0.0,0.0,0.0
0,-0.3768168091773987,-0.24886393547058105,0.8596454858779907,0.23177416622638702,0.0,0.0,0.0
0,-0.34740927815437317,-0.18786685168743134,0.8823128938674927,0.2493407279253006,0.0,0.0,0.0
0,-0.35160911083221436,-0.11907672137022018,0.9109635949134827,0.17020845413208008,0.0,0.0,0.0
0,-0.3360540568828583,0.010214602574706078,0.9383007287979126,0.05646056309342384,0.0,0.0,0.0
0,-0.26905176043510437,0.25688374042510986,0.9147002100944519,-0.1468983292579651,0.0,0.0,0.0
0,-0.2456354945898056,0.2956467866897583,0.9049434661865234,-0.17311304807662964,0.0,0.0,0.0
0,-0.24044270813465118,0.3120725154876709,0.9032007455825806,-0.16019058227539062,0.0,0.0,0.0
0,-0.2261928915977478,0.3221026360988617,0.9096994400024414,-0.1190296858549118,0.0,0.0,0.0
0,-0.22181665897369385,0.32743293046951294,0.9147522449493408,-0.05871883034706116,0.0,0.0,0.0
0,-0.19474495947360992,0.34713315963745117,0.9140576720237732,0.05201374366879463,0.0,0.0,0.0
0,-0.17309200763702393,0.3668106496334076,0.9013013243675232,0.14063945412635803,0.0,0.0,0.0
0,-0.19730356335639954,0.3854179382324219,0.8873884677886963,0.14731086790561676,0.0,0.0,0.0
0,-0.22732391953468323,0.39329656958580017,0.879705548286438,0.1280398964881897,0.0,0.0,0.0
0,-0.22957932949066162,0.39746084809303284,0.8714030981063843,0.16312310099601746,0.0,0.0,0.0
0,-0.16722357273101807,0.37825652956962585,0.8552338480949402,0.3068663477897644,0.0,0.0,0.0
0,-0.11950307339429855,0.2990252375602722,0.8367921710014343,0.43899351358413696,0.0,0.0,0.0
0,-0.19454890489578247,0.15764282643795013,0.7548273801803589,0.6034637093544006,0.0,0.0,0.0
0,1.0,0.0,0.0,0.0,0.0,0.0,0.0
0,1.0,0.0,0.0,0.0,0.0,0.0,0.0
0,1.0,0.0,0.0,0.0,0.0,0.0,0.0
0,1.0,0.0,0.0,0.0,0.0,0.0,0.0
0,1.0,0.0,0.0,0.0,0.0,0.0,0.0
0,1.0,0.0,0.0,0.0,0.0,0.0,0.0
0,1.0,0.0,0.0,0.0,0.0,0.0,0.0
0,0.7213752269744873,-0.40961480140686035,-0.5552890300750732,-0.010523338802158833,0.0,0.0,0.0
0,0.7829327583312988,-0.2626826763153076,-0.559073269367218,-0.045542240142822266,0.0,0.0,0.0
0,0.8003746271133423,-0.14921391010284424,-0.574985146522522,0.05613400414586067,0.0,0.0,0.0
0,0.7855017781257629,-0.027726082131266594,-0.5947710871696472,0.15839584171772003,0.0,0.0,0.0
0,0.7534496784210205,0.04237132519483566,-0.62117600440979,0.20318348705768585,0.0,0.0,0.0
0,0.7416307330131531,0.09574495255947113,-0.6321744918823242,0.19441579282283783,0.0,0.0,0.0
0,0.9355196356773376,-0.07097706198692322,-0.3206946551799774,0.11637449264526367,0.0,0.0,0.0
0,0.9680123329162598,-0.23267653584480286,-0.06718115508556366,-0.03042484261095524,0.0,0.0,0.0
0,0.9680123329162598,-0.23267653584480286,-0.06718115508556366,-0.03042484261095524,0.0,0.0,0.0
0,0.9563996195793152,-0.2677830159664154,0.03437145799398422,-0.09506417065858841,0.0,0.0,0.0
0,0.9166199564933777,-0.36603277921676636,0.05452616512775421,-0.1395832896232605,0.0,0.0,0.0
0,0.9470829963684082,-0.2792978584766388,0.08940313756465912,-0.11688090860843658,0.0,0.0,0.0
0,0.9561059474945068,-0.25296398997306824,0.11832169443368912,-0.06707502156496048,0.0,0.0,0.0
0,0.9292624592781067,-0.26932933926582336,0.2301807850599289,-0.08706073462963104,0.0,0.0,0.0
0,0.9292624592781067,-0.26932933926582336,0.2301807850599289,-0.08706073462963104,0.0,0.0,0.0
0,0.9114816188812256,-0.22416412830352783,0.31545141339302063,-0.12677496671676636,0.0,0.0,0.0
0,0.8704771995544434,-0.1135585829615593,0.4280047118663788,-0.20692625641822815,0.0,0.0,0.0
0,0.8048526048660278,-0.056816279888153076,0.5130022168159485,-0.2871335744857788,0.0,0.0,0.0
0,0.7198360562324524,-0.033635884523391724,0.5986014008522034,-0.34498539566993713,0.0,0.0,0.0
0,0.6454617381095886,-0.012440606020390987,0.6567613482475281,-0.385386198759079,0.0,0.0,0.0
0,0.561654269695282,0.011585261672735214,0.7250801920890808,-0.39408478140830994,0.0,0.0,0.0
0,0.46553635597229004,-0.004279245622456074,0.7846783399581909,-0.4051806330680847,0.0,0.0,0.0
0,0.4534890353679657,0.025599617511034012,0.7806922197341919,-0.4252600371837616,0.0,0.0,0.0
0,0.4534890353679657,0.025599617511034012,0.7806922197341919,-0.4252600371837616,0.0,0.0,0.0
0,0.45972099900245667,0.06951703876256943,0.7738102674484253,-0.4262344241142273,0.0,0.0,0.0
0,0.506841778755188,0.12404762208461761,0.7095045447349548,-0.47006461024284363,0.0,0.0,0.0
0,0.5544446110725403,0.15781354904174805,0.6322635412216187,-0.5143564343452454,0.0,0.0,0.0
0,0.6152715086936951,0.21812249720096588,0.5243157744407654,-0.5436815023422241,0.0,0.0,0.0
0,0.6380626559257507,0.27489033341407776,0.43911707401275635,-0.5666757822036743,0.0,0.0,0.0
0,0.6597154140472412,0.28671637177467346,0.4496987760066986,-0.5262829661369324,0.0,0.0,0.0
0,0.630539059638977,0.24218066036701202,0.5529031753540039,-0.4844589829444885,0.0,0.0,0.0
0,0.6153798699378967,0.2120661437511444,0.6175824403762817,-0.4376773238182068,0.0,0.0,0.0
0,0.4797828495502472,0.2786152958869934,0.7417395114898682,-0.3723407983779907,0.0,0.0,0.0
0,0.48705920577049255,0.2649809718132019,0.7796931266784668,-0.28508028388023376,0.0,0.0,0.0
0,0.47438856959342957,0.25861287117004395,0.8247690200805664,-0.15641048550605774,0.0,0.0,0.0
0,0.36805665493011475,0.3528820872306824,0.8565289974212646,-0.05477829650044441,0.0,0.0,0.0
0,0.318599134683609,0.38723981380462646,0.8631830215454102,-0.009430577047169209,0.0,0.0,0.0
0,0.3275057077407837,0.40301796793937683,0.8525102138519287,-0.013306751847267151,0.0,0.0,0.0
0,0.28607967495918274,0.39044737815856934,0.873101532459259,-0.006046933121979237,0.0,0.0,0.0
0,0.1820463240146637,0.3785187005996704,0.9056459665298462,0.004660244099795818,0.0,0.0,0.0
0,0.10236264020204544,0.37372729182243347,0.9199827313423157,0.01074028480798006,0.0,0.0,0.0
0,0.015978826209902763,0.3655930459499359,0.9286202788352966,0.019609296694397926,0.0,0.0,0.0
0,-0.02853371575474739,0.38140198588371277,0.9221010208129883,0.009029833599925041,0.0,0.0,0.0
0,-0.13049495220184326,0.37925824522972107,0.9141947031021118,-0.004005847033113241,0.0,0.0,0.0
0,-0.16656498610973358,0.3798653781414032,0.9064275026321411,-0.05459776893258095,0.0,0.0,0.0
0,-0.2198314517736435,0.36603397130966187,0.8984310030937195,-0.08454801142215729,0.0,0.0,0.0
0,-0.22694654762744904,0.35963907837867737,0.8927473425865173,-0.1370777189731598,0.0,0.0,0.0
0,-0.1628420352935791,0.3392527103424072,0.8949745297431946,-0.23247064650058746,0.0,0.0,0.0
0,-0.004229649435728788,0.2305307686328888,0.8744795322418213,-0.4227931499481201,0.0,0.0,0.0
0,0.060814861208200455,0.13516740500926971,0.8138012886047363,-0.5589175820350647,0.0,0.0,0.0
0,0.07159862667322159,0.15881597995758057,0.7773882746696472,-0.6016208529472351,0.0,0.0,0.0
0,0.10246044397354126,0.1667374074459076,0.761829137802124,-0.6147724390029907,0.0,0.0,0.0
0,0.09020494669675827,0.19841650128364563,0.7843602895736694,-0.5778419375419617,0.0,0.0,0.0
0,0.014947023242712021,0.2514916658401489,0.7837710380554199,-0.5646775960922241,0.0,0.0,0.0
0,-0.054555539041757584,0.28070032596588135,0.7739154696464539,-0.562062680721283,0.0,0.0,0.0
0,-0.12152586132287979,0.2998819947242737,0.7487079501152039,-0.5756444334983826,0.0,0.0,0.0
0,-0.20310460031032562,0.3210289180278778,0.7232670187950134,-0.5737609267234802,0.0,0.0,0.0
0,-0.2706829011440277,0.3339300751686096,0.701758861541748,-0.5651397705078125,0.0,0.0,0.0
0,-0.32984939217567444,0.34114304184913635,0.6814249157905579,-0.5541728138923645,0.0,0.0,0.0
0,-0.37607163190841675,0.3385586738586426,0.6562861800193787,-0.5566527843475342,0.0,0.0,0.0
0,-0.41719794273376465,0.33038008213043213,0.631725013256073,-0.5606638193130493,0.0,0.0,0.0
0,-0.45228904485702515,0.3280298709869385,0.6091645359992981,-0.5597988963127136,0.0,0.0,0.0
0,-0.4845955967903137,0.32517674565315247,0.5823776721954346,-0.5629284977912903,0.0,0.0,0.0
0,-0.49237972497940063,0.29840222001075745,0.5723246335983276,-0.5810225009918213,0.0,0.0,0.0
0,-0.5286160707473755,0.25024473667144775,0.5566625595092773,-0.5871062874794006,0.0,0.0,0.0
0,-0.5902732014656067,0.23639778792858124,0.5157185196876526,-0.5712723731994629,0.0,0.0,0.0
0,-0.6377878189086914,0.21493668854236603,0.48505881428718567,-0.5553116202354431,0.0,0.0,0.0
0,-0.6458491086959839,0.18747085332870483,0.4794813096523285,-0.5607631206512451,0.0,0.0,0.0
0,-0.6992807388305664,0.2119573950767517,0.42502450942993164,-0.5310924053192139,0.0,0.0,0.0
0,-0.750048816204071,0.2666442394256592,0.35902827978134155,-0.4837872087955475,0.0,0.0,0.0
0,-0.8045727014541626,0.2858203053474426,0.2871416509151459,-0.430283784866333,0.0,0.0,0.0
0,-0.8384199142456055,0.30182144045829773,0.2144092619419098,-0.3957391679286957,0.0,0.0,0.0
0,-0.8936159610748291,0.3502325713634491,0.06748446822166443,-0.2661952078342438,0.0,0.0,0.0
0,-0.9093348979949951,0.40967682003974915,0.04015476256608963,-0.017013005912303925,0.0,0.0,0.0
0,-0.11522334069013596,0.379377156496048,-0.3804014027118683,-0.8335019946098328,0.0,0.0,0.0
0,-0.12475865334272385,0.413479745388031,-0.4228322207927704,-0.794554591178894,0.0,0.0,0.0
0,-0.13818642497062683,0.4839576184749603,-0.4768074154853821,-0.7183161377906799,0.0,0.0,0.0
0,-0.11976718157529831,0.6001064777374268,-0.515985906124115,-0.5965904593467712,0.0,0.0,0.0
0,-0.02980975992977619,0.7023136019706726,-0.5479456186294556,-0.44972819089889526,0.0,0.0,0.0
0,0.1665407121181488,0.7757028341293335,-0.5799487233161926,-0.17560939490795135,0.0,0.0,0.0
0,0.34278741478919983,0.7290976047515869,-0.5742068290710449,0.13353873789310455,0.0,0.0,0.0
0,0.3735756278038025,0.6748777627944946,-0.5921265482902527,0.2258344292640686,0.0,0.0,0.0
0,0.35538119077682495,0.6657620668411255,-0.5982303619384766,0.2630949914455414,0.0,0.0,0.0
0,0.424863338470459,0.6322622895240784,-0.5520368814468384,0.3341016471385956,0.0,0.0,0.0
0,0.4872474670410156,0.5961100459098816,-0.509975254535675,0.3792109787464142,0.0,0.0,0.0
0,0.4680921137332916,0.6157194375991821,-0.4270859658718109,0.4647684693336487,0.0,0.0,0.0
0,0.31007614731788635,0.7002813816070557,-0.37178048491477966,0.5214109420776367,0.0,0.0,0.0
0,0.063538558781147,0.7980263829231262,-0.17781126499176025,0.5693247318267822,0.0,0.0,0.0
0,-0.099565289914608,0.7902288436889648,0.04095805063843727,0.600483238697052,0.0,0.0,0.0
0,-0.18649032711982727,0.7624549269676208,0.1011517122387886,0.6085109710693359,0.0,0.0,0.0
0,-0.23522555828094482,0.7323294281959534,0.09232096374034882,0.6296607255935669,0.0,0.0,0.0
0,-0.243932843208313,0.7077155113220215,0.04425102472305298,0.6590222120285034,0.0,0.0,0.0
0,-0.2880171537399292,0.6781262755393982,-0.007956193760037422,0.673617422580719,0.0,0.0,0.0
0,-0.35401785373687744,0.630307674407959,-0.05483006685972214,0.6863015294075012,0.0,0.0,0.0
0,-0.4687573313713074,0.6328055262565613,-0.07275165617465973,0.609231173992157,0.0,0.0,0.0
0,-0.5905493497848511,0.6152815818786621,-0.015957864001393318,0.5187064409255981,0.0,0.0,0.0
0,-0.6628623008728027,0.567885160446167,0.022806843742728233,0.4839707911014557,0.0,0.0,0.0
0,-0.7400838136672974,0.48954322934150696,0.08227702230215073,0.4499773681163788,0.0,0.0,0.0
0,-0.7981452941894531,0.421902060508728,0.1512315273284912,0.3983919620513916,0.0,0.0,0.0
0,-0.8400302529335022,0.3395838737487793,0.2375640720129013,0.3452810049057007,0.0,0.0,0.0
0,-0.8707478642463684,0.264611154794693,0.2639021873474121,0.31425800919532776,0.0,0.0,0.0
0,-0.8827383518218994,0.2053346037864685,0.2928179204463959,0.29915159940719604,0.0,0.0,0.0
0,-0.883186399936676,0.148687481880188,0.32366564869880676,0.29956308007240295,0.0,0.0,0.0
0,-0.8766929507255554,0.09281919151544571,0.3633750379085541,0.2955954670906067,0.0,0.0,0.0
0,-0.8827064037322998,0.043494947254657745,0.35135021805763245,0.30350494384765625,0.0,0.0,0.0
0,-0.897411584854126,0.028125690296292305,0.3296833634376526,0.28599852323532104,0.0,0.0,0.0
0,-0.9097104668617249,0.021826185286045074,0.3176087439060211,0.26019287109375,0.0,0.0,0.0
0,-0.9104191064834595,-0.006444385275244713,0.31632277369499207,0.26011669635772705,0.0,0.0,0.0
0,-0.9066439270973206,-0.04071100801229477,0.3239969313144684,0.2607506215572357,0.0,0.0,0.0
0,-0.9018703103065491,-0.053145408630371094,0.3423250913619995,0.2514854967594147,0.0,0.0,0.0
0,-0.8818116188049316,-0.01984143815934658,0.40064677596092224,0.24108555912971497,0.0,0.0,0.0
0,-0.8467361927032471,0.05819956213235855,0.45524293184280396,0.2627321779727936,0.0,0.0,0.0
0,-0.8077864050865173,0.18054790794849396,0.4684392511844635,0.3034333288669586,0.0,0.0,0.0
0,-0.808876097202301,0.21299757063388824,0.446878045797348,0.31188932061195374,0.0,0.0,0.0
0,-0.8262419104576111,0.19626028835773468,0.45016583800315857,0.26977887749671936,0.0,0.0,0.0
0,-0.8727235794067383,0.1372961848974228,0.34673574566841125,0.30967697501182556,0.0,0.0,0.0
0,-0.9175688624382019,0.0525188148021698,0.13491998612880707,0.36569055914878845,0.0,0.0,0.0
0,-0.9328192472457886,-0.03341858834028244,-0.07657133042812347,0.34568116068840027,0.0,0.0,0.0
0,-0.9252104759216309,-0.11239912360906601,-0.23636366426944733,0.2685406804084778,0.0,0.0,0.0
0,-0.8812359571456909,-0.18331323564052582,-0.38390281796455383,0.19766366481781006,0.0,0.0,0.0
0,-0.8319114446640015,-0.20480582118034363,-0.47970205545425415,0.1802678406238556,0.0,0.0,0.0
0,-0.5503100752830505,-0.389550119638443,-0.7361289262771606,-0.01255947258323431,0.0,0.0,0.0
0,-0.36316928267478943,-0.38482338190078735,-0.8439943790435791,-0.06577824801206589,0.0,0.0,0.0
0,-0.2902984917163849,-0.38350483775138855,-0.873153567314148,-0.053743328899145126,0.0,0.0,0.0
0,-0.2525028884410858,-0.3897364139556885,-0.8817688822746277,-0.05887454375624657,0.0,0.0,0.0
0,-0.22482189536094666,-0.39573949575424194,-0.8849613070487976,-0.07951993495225906,0.0,0.0,0.0
0,-0.1556559056043625,-0.3856392800807953,-0.9024655818939209,-0.09614496678113937,0.0,0.0,0.0
0,-0.07673460245132446,-0.37177345156669617,-0.9180206656455994,-0.09883729368448257,0.0,0.0,0.0
0,-0.008388425223529339,-0.35653889179229736,-0.9283660054206848,-0.08706686645746231,0.0,0.0,0.0
0,0.04151313006877899,-0.3486926853656769,-0.932024359703064,-0.06822823733091354,0.0,0.0,0.0
0,0.0881720632314682,-0.3461036682128906,-0.9304506778717041,-0.057739727199077606,0.0,0.0,0.0
0,0.12888355553150177,-0.34635642170906067,-0.9246033430099487,-0.07189759612083435,0.0,0.0,0.0
0,0.183733269572258,-0.3321661055088043,-0.919302225112915,-0.08617166429758072,0.0,0.0,0.0
0,0.24275779724121094,-0.3151061534881592,-0.9121060371398926,-0.0804605782032013,0.0,0.0,0.0
0,0.3024924695491791,-0.3041601777076721,-0.898779034614563,-0.06939255446195602,0.0,0.0,0.0
0,0.3367796838283539,-0.28649091720581055,-0.8946040272712708,-0.028643839061260223,0.0,0.0,0.0
0,0.29302600026130676,-0.2729177176952362,-0.9143499135971069,0.015811679884791374,0.0,0.0,0.0
0,0.06977709382772446,-0.39411070942878723,-0.91424161195755,0.02458374947309494,0.0,0.0,0.0
0,0.16561679542064667,-0.40257200598716736,-0.8969743847846985,0.05077376961708069,0.0,0.0,0.0
0,0.23552167415618896,-0.38464999198913574,-0.8902974128723145,0.024055421352386475,0.0,0.0,0.0
0,0.3095362186431885,-0.35742002725601196,-0.8785999417304993,0.03368198871612549,0.0,0.0,0.0
0,0.7942557334899902,-0.07714489847421646,-0.4216383695602417,-0.426679402589798,0.0,0.0,0.0
0,0.7468098998069763,0.0013539687497541308,-0.31113767623901367,-0.5848864316940308,0.0,0.0,0.0
0,0.6361695528030396,-0.005370391067117453,-0.041435517370700836,-0.7682231068611145,0.0,0.0,0.0
0,0.5437122583389282,-0.07663913816213608,0.15720242261886597,-0.8187901377677917,0.0,0.0,0.0
0,0.46700072288513184,-0.07943470031023026,0.19712240993976593,-0.8563706874847412,0.0,0.0,0.0
0,0.3958663046360016,0.013533580116927624,0.24716810882091522,-0.8824076056480408,0.0,0.0,0.0
0,0.33445611596107483,0.11736588925123215,0.25878724455833435,-0.8966736197471619,0.0,0.0,0.0
0,0.2892688512802124,0.20714840292930603,0.25497832894325256,-0.8972347974777222,0.0,0.0,0.0
0,0.27852725982666016,0.2847895920276642,0.23062707483768463,-0.8858674764633179,0.0,0.0,0.0
0,0.27738386392593384,0.278431236743927,0.1738770306110382,-0.9010735154151917,0.0,0.0,0.0
0,0.271163672208786,0.26263925433158875,0.12968939542770386,-0.9150428771972656,0.0,0.0,0.0
0,0.2634853422641754,0.21220935881137848,0.05468128249049187,-0.9376480579376221,0.0,0.0,0.0
0,0.2628096342086792,0.14295044541358948,-0.011548527516424656,-0.9523616433143616,0.0,0.0,0.0
0,0.25142642855644226,0.10486824065446854,-0.11476995050907135,-0.9535430669784546,0.0,0.0,0.0
0,0.1951686441898346,0.17352139949798584,-0.2141530066728592,-0.939451277256012,0.0,0.0,0.0
0,0.24326574802398682,0.19321197271347046,-0.25409579277038574,-0.9140881896018982,0.0,0.0,0.0
0,0.3732231855392456,0.16696298122406006,-0.2784477174282074,-0.8671362996101379,0.0,0.0,0.0
0,0.5170913934707642,0.07225942611694336,-0.24620169401168823,-0.8144986629486084,0.0,0.0,0.0
0,0.6690661907196045,-0.026318468153476715,-0.24250903725624084,-0.6996246576309204,0.0,0.0,0.0
0,0.734370231628418,-0.10690723359584808,-0.22527162730693817,-0.6286101341247559,0.0,0.0,0.0
0,0.754044771194458,-0.14724352955818176,-0.20309723913669586,-0.6042463183403015,0.0,0.0,0.0
0,0.7714845538139343,-0.08873145282268524,-0.14542536437511444,-0.6102591156959534,0.0,0.0,0.0
0,0.8030412793159485,-0.06735417246818542,-0.12115926295518875,-0.5766586065292358,0.0,0.0,0.0
0,0.8218375444412231,-0.04566875100135803,-0.1208643764257431,-0.5518296957015991,0.0,0.0,0.0
0,0.8155555725097656,0.019345242530107498,-0.0922398716211319,-0.5679912567138672,0.0,0.0,0.0
0,0.785691499710083,0.18461047112941742,-0.06458614021539688,-0.5840086936950684,0.0,0.0,0.0
0,0.7901490330696106,0.3414921164512634,-0.024531032890081406,-0.505052387714386,0.0,0.0,0.0
0,0.7643190026283264,0.4165136516094208,0.02959447167813778,-0.4879457354545593,0.0,0.0,0.0
0,0.7288514375686646,0.4585677683353424,0.023486865684390068,-0.5045530200004578,0.0,0.0,0.0
0,0.6335487365722656,0.575255811214447,-0.06161044165492058,-0.5104255676269531,0.0,0.0,0.0
0,0.4883962571620941,0.7006648182868958,-0.11287884414196014,-0.5044100284576416,0.0,0.0,0.0
0,0.24328947067260742,0.8086869120597839,-0.07143203914165497,-0.5276039242744446,0.0,0.0,0.0
0,0.017598867416381836,0.7559065222740173,-0.047556109726428986,-0.6501278877258301,0.0,0.0,0.0
0,-0.12823639810085297,0.6178378462791443,-0.025029271841049194,-0.7732005715370178,0.0,0.0,0.0
0,-0.20262029767036438,0.5126975178718567,-0.02524096705019474,-0.8319151401519775,0.0,0.0,0.0
0,-0.16857676208019257,0.4213882088661194,-0.11714231967926025,-0.8814337253570557,0.0,0.0,0.0
0,-0.24703258275985718,0.2604886293411255,-0.12829750776290894,-0.9226553440093994,0.0,0.0,0.0
0,-0.3347626328468323,0.17390748858451843,-0.10171005874872208,-0.9186814427375793,0.0,0.0,0.0
0,-0.44685885310173035,-0.01073858980089426,-0.15487585961818695,-0.8791152238845825,0.0,0.0,0.0
0,-0.3495490550994873,-0.29666832089424133,0.01592390611767769,-0.8866651058197021,0.0,0.0,0.0
0,-0.21235519647598267,-0.38567888736724854,0.04900296777486801,-0.8946407437324524,0.0,0.0,0.0
0,-0.1028255894780159,-0.4483028054237366,0.09447634965181351,-0.8809952139854431,0.0,0.0,0.0
0,-0.01915784738957882,-0.5086163282394409,0.13496901094913483,-0.8481467366218567,0.0,0.0,0.0
0,0.06366385519504547,-0.6176009774208069,0.20201770961284637,-0.755204439163208,0.0,0.0,0.0
0,0.09257462620735168,-0.6458950638771057,0.21084685623645782,-0.7255502939224243,0.0,0.0,0.0
0,0.0998726636171341,-0.6320316791534424,0.15037021040916443,-0.7513850927352905,0.0,0.0,0.0
0,0.0977170318365097,-0.6769517064094543,0.1084526777267456,-0.7190650701522827,0.0,0.0,0.0
0,0.08074238896369934,-0.8234720826148987,0.1300838440656662,-0.5432155132293701,0.0,0.0,0.0
0,0.07362525165081024,-0.9042903780937195,0.10078072547912598,-0.40412166714668274,0.0,0.0,0.0
0,0.03767096623778343,-0.8898923397064209,-0.0031216037459671497,-0.45088261365890503,0.0,0.0,0.0
0,0.03542716056108475,-0.8932222723960876,-0.07667414098978043,-0.43778201937675476,0.0,0.0,0.0
0,0.15396985411643982,-0.9008569121360779,-0.13140639662742615,-0.3796238899230957,0.0,0.0,0.0
0,0.18407434225082397,-0.8029558062553406,-0.28420430421829224,-0.48707112669944763,0.0,0.0,0.0
0,0.08019497245550156,-0.7749162316322327,-0.38196948170661926,-0.4937663972377777,0.0,0.0,0.0
0,0.16213563084602356,-0.817406952381134,-0.44330012798309326,-0.32507210969924927,0.0,0.0,0.0
0,0.3247985541820526,-0.7762301564216614,-0.476339191198349,-0.24840833246707916,0.0,0.0,0.0
0,0.34266039729118347,-0.6874901056289673,-0.5638533234596252,-0.2977307438850403,0.0,0.0,0.0
0,0.2209838479757309,-0.6080138683319092,-0.6640664935112,-0.37031540274620056,0.0,0.0,0.0
0,0.13648152351379395,-0.5137532353401184,-0.7194474339485168,-0.44323697686195374,0.0,0.0,0.0
0,0.13758760690689087,-0.5173671841621399,-0.7456451058387756,-0.39248958230018616,0.0,0.0,0.0
0,0.14487573504447937,-0.49897605180740356,-0.7730069756507874,-0.3593437075614929,0.0,0.0,0.0
0,0.19023123383522034,-0.4834389090538025,-0.7684866786003113,-0.3689994215965271,0.0,0.0,0.0
0,0.28066286444664,-0.42581629753112793,-0.7274226546287537,-0.4554101228713989,0.0,0.0,0.0
0,0.32952651381492615,-0.42709338665008545,-0.7548205852508545,-0.3686217963695526,0.0,0.0,0.0
0,0.37642836570739746,-0.42020103335380554,-0.7840812802314758,-0.252155601978302,0.0,0.0,0.0
0,0.40227189660072327,-0.4102146327495575,-0.7978380918502808,-0.17317351698875427,0.0,0.0,0.0
0,0.4230729341506958,-0.39319100975990295,-0.7913201451301575,-0.19197885692119598,0.0,0.0,0.0
0,0.43367698788642883,-0.375479519367218,-0.7956686615943909,-0.18569877743721008,0.0,0.0,0.0
0,0.45538070797920227,-0.37300702929496765,-0.7971731424331665,-0.12100432068109512,0.0,0.0,0.0
0,0.49445223808288574,-0.36454930901527405,-0.7868683934211731,0.00956009142100811,0.0,0.0,0.0
0,0.6872355937957764,-0.34835776686668396,0.48656895756721497,-0.4077129065990448,0.0,0.0,0.0
0,0.696598470211029,-0.08087775856256485,0.5292983651161194,-0.4740012586116791,0.0,0.0,0.0
0,0.6812406182289124,-0.011138337664306164,0.5439859628677368,-0.4863034784793854,0.0,0.0,0.0
0,0.6745613813400269,0.049957506358623505,0.564032793045044,-0.47006672620773315,0.0,0.0,0.0
0,0.6795880198478699,0.0762370303273201,0.5749350786209106,-0.44544655084609985,0.0,0.0,0.0
0,0.6955047845840454,0.06925412267446518,0.5742419362068176,-0.422312468290329,0.0,0.0,0.0
0,0.6917110085487366,0.06347142159938812,0.5762531757354736,-0.42668965458869934,0.0,0.0,0.0
0,0.6294714212417603,0.10412184149026871,0.6161702871322632,-0.45813000202178955,0.0,0.0,0.0
0,0.5601930022239685,0.160610169172287,0.6557034254074097,-0.4765140414237976,0.0,0.0,0.0
0,0.5036177039146423,0.19632850587368011,0.6855238676071167,-0.4842583239078522,0.0,0.0,0.0
0,0.43161916732788086,0.2799738645553589,0.7009974718093872,-0.4904555678367615,0.0,0.0,0.0
0,0.34074991941452026,0.3440853953361511,0.7064750790596008,-0.5128473043441772,0.0,0.0,0.0
0,0.2308875024318695,0.4062783718109131,0.71724534034729,-0.5136269330978394,0.0,0.0,0.0
0,0.14280521869659424,0.4693332314491272,0.697263240814209,-0.5194054245948792,0.0,0.0,0.0
0,0.06306784600019455,0.5328046679496765,0.6600635647773743,-0.5225727558135986,0.0,0.0,0.0
0,0.04861421883106232,0.594365656375885,0.6196470856666565,-0.506979763507843,0.0,0.0,0.0
0,0.10487528890371323,0.5549150705337524,0.5744721293449402,-0.589638888835907,0.0,0.0,0.0
0,0.08229854702949524,0.5619434714317322,0.4983316659927368,-0.6524842977523804,0.0,0.0,0.0
0,-0.011890004388988018,0.6280436515808105,0.44817665219306946,-0.6333891153335571,0.0,0.0,0.0
0,-0.09304821491241455,0.6706377267837524,0.4427160620689392,-0.5849900245666504,0.0,0.0,0.0
0,-0.18410778045654297,0.6922894716262817,0.4103838801383972,-0.5612919330596924,0.0,0.0,0.0
0,-0.26136425137519836,0.7195707559585571,0.3923611640930176,-0.5065404176712036,0.0,0.0,0.0
0,-0.3237219750881195,0.7384729981422424,0.36066219210624695,-0.4651968479156494,0.0,0.0,0.0
0,-0.39667168259620667,0.7459444999694824,0.31947043538093567,-0.425182968378067,0.0,0.0,0.0
0,-0.47384539246559143,0.7536570429801941,0.27132564783096313,-0.361216276884079,0.0,0.0,0.0
0,-0.5065943598747253,0.7603497505187988,0.24292969703674316,-0.3206852972507477,0.0,0.0,0.0
0,-0.5279327630996704,0.7672938704490662,0.22417163848876953,-0.28092333674430847,0.0,0.0,0.0
0,-0.5531231164932251,0.7655486464500427,0.20458610355854034,-0.250515878200531,0.0,0.0,0.0
0,-0.5779033899307251,0.7599073052406311,0.18395693600177765,-0.2266099900007248,0.0,0.0,0.0
0,-0.5977936387062073,0.7560209631919861,0.16385164856910706,-0.2021174430847168,0.0,0.0,0.0
0,-0.6190729141235352,0.749413251876831,0.14239855110645294,-0.17741107940673828,0.0,0.0,0.0
0,-0.6406797766685486,0.740492045879364,0.12083914875984192,-0.15239012241363525,0.0,0.0,0.0
0,-0.6605282425880432,0.7313247323036194,0.09733560681343079,-0.12655457854270935,0.0,0.0,0.0
0,-0.6783079504966736,0.722382128238678,0.07326976209878922,-0.09652861952781677,0.0,0.0,0.0
0,-0.6941261291503906,0.71233731508255,0.05004008486866951,-0.06988696753978729,0.0,0.0,0.0
0,-0.7085976004600525,0.7015195488929749,0.024556497111916542,-0.04219808429479599,0.0,0.0,0.0
0,-0.7217795848846436,0.6895562410354614,0.00023694550327491015,-0.013053764589130878,0.0,0.0,0.0
0,-0.7344748973846436,0.6754897236824036,-0.024682573974132538,0.016584955155849457,0.0,0.0,0.0
0,-0.7447149753570557,0.6613481640815735,-0.05102642998099327,0.04514924809336662,0.0,0.0,0.0
0,-0.7513864040374756,0.6479904055595398,-0.07917167991399765,0.07670015841722488,0.0,0.0,0.0
0,-0.7551952004432678,0.6334514021873474,-0.10687411576509476,0.1167110726237297,0.0,0.0,0.0
0,-0.7550643086433411,0.6186992526054382,-0.13594849407672882,0.15884360671043396,0.0,0.0,0.0
0,-0.7558828592300415,0.6026383638381958,-0.15987053513526917,0.1911381185054779,0.0,0.0,0.0
0,-0.7564947605133057,0.5888400673866272,-0.1791418343782425,0.21334359049797058,0.0,0.0,0.0
0,-0.74467533826828,0.6377036571502686,-0.1154179647564888,0.148643359541893,0.0,0.0,0.0
0,-0.7288854122161865,0.6722086668014526,-0.07784219086170197,0.08618031442165375,0.0,0.0,0.0
0,-0.685723066329956,0.7245059013366699,0.02307373471558094,0.031101956963539124,0.0,0.0,0.0
0,-0.6196733713150024,0.757506251335144,0.17034943401813507,-0.09898456186056137,0.0,0.0,0.0
0,-0.6546155214309692,0.6985670328140259,0.2815825343132019,0.028620464727282524,0.0,0.0,0.0
0,-0.6537767648696899,0.6829959750175476,0.3204474449157715,0.005769871640950441,0.0,0.0,0.0
0,-0.6205353140830994,0.6958181262016296,0.3483889102935791,-0.07763899117708206,0.0,0.0,0.0
0,0.07558256387710571,-0.9255756735801697,-0.10627944022417068,0.3506208658218384,0.0,0.0,0.0
0,0.08994042873382568,-0.9123030304908752,0.0819317102432251,0.38669732213020325,0.0,0.0,0.0
0,0.13716858625411987,-0.8916987180709839,0.18243230879306793,0.38653674721717834,0.0,0.0,0.0
0,0.1572921872138977,-0.9069033861160278,0.20484614372253418,0.32780721783638,0.0,0.0,0.0
0,0.15040576457977295,-0.9166802763938904,0.2108803391456604,0.29872915148735046,0.0,0.0,0.0
0,0.14563468098640442,-0.909866452217102,0.25216272473335266,0.2897951900959015,0.0,0.0,0.0
0,0.15829257667064667,-0.9287485480308533,0.2511046528816223,0.21435974538326263,0.0,0.0,0.0
0,0.18716265261173248,-0.9144704937934875,0.29820239543914795,0.19084765017032623,0.0,0.0,0.0
0,0.19541707634925842,-0.9269707798957825,0.31488892436027527,0.0038212479557842016,0.0,0.0,0.0
0,0.1538223922252655,-0.8905066251754761,0.3460257649421692,-0.245428666472435,0.0,0.0,0.0
0,0.11795485019683838,-0.8221765756607056,0.3742813467979431,-0.40823838114738464,0.0,0.0,0.0
0,0.08703076094388962,-0.7369666695594788,0.391954243183136,-0.5406577587127686,0.0,0.0,0.0
0,0.07317010313272476,-0.6398665904998779,0.3973419666290283,-0.651128888130188,0.0,0.0,0.0
0,0.025663841515779495,-0.48664432764053345,0.3678334057331085,-0.7898409962654114,0.0,0.0,0.0
0,0.029130276292562485,-0.3045639991760254,0.3303419351577759,-0.8910089135169983,0.0,0.0,0.0
0,0.019712993875145912,-0.1205090582370758,0.31894651055336,-0.9380754232406616,0.0,0.0,0.0
0,-0.027056295424699783,0.02155938558280468,0.3000982999801636,-0.9515092968940735,0.0,0.0,0.0
0,-0.06515532732009888,0.11406593769788742,0.2731596529483795,-0.9511861205101013,0.0,0.0,0.0
0,-0.06499400734901428,0.09426402300596237,0.2514682412147522,-0.9593126773834229,0.0,0.0,0.0
0,-0.09088282287120819,0.14551569521427155,0.21908117830753326,-0.9587475061416626,0.0,0.0,0.0
0,-0.1224939227104187,0.15724077820777893,0.198261097073555,-0.9579096436500549,0.0,0.0,0.0
0,-0.1291302591562271,0.19868768751621246,0.16130749881267548,-0.9562723636627197,0.0,0.0,0.0
0,-0.14191335439682007,0.2588028311729431,0.11399656534194946,-0.9468451738357544,0.0,0.0,0.0
0,-0.14647124707698822,0.3008454740047455,0.08342380821704865,-0.9368610978126526,0.0,0.0,0.0
0,-0.1501149833202362,0.3446730375289917,0.06348825991153717,-0.9226408004760742,0.0,0.0,0.0
0,-0.15362940728664398,0.39273473620414734,0.04380296915769577,-0.9038084745407104,0.0,0.0,0.0
0,-0.16052629053592682,0.4478171169757843,0.02283364348113537,-0.877383291721344,0.0,0.0,0.0
0,-0.17527756094932556,0.4791981875896454,0.0025341094005852938,-0.8580631017684937,0.0,0.0,0.0
0,-0.19615061581134796,0.49429020285606384,-0.022941961884498596,-0.8445757627487183,0.0,0.0,0.0
0,-0.2238129824399948,0.5029266476631165,-0.05002126470208168,-0.8313260078430176,0.0,0.0,0.0
0,-0.2454320639371872,0.4925069212913513,-0.06608129292726517,-0.8303407430648804,0.0,0.0,0.0
0,-0.2766244113445282,0.43442225456237793,-0.06436658650636673,-0.8527864217758179,0.0,0.0,0.0
0,-0.3230544328689575,0.18950659036636353,-0.041692186146974564,-0.9244531989097595,0.0,0.0,0.0
0,-0.39494606852531433,0.0011175540275871754,0.007445755880326033,-0.9168348908424377,0.0,0.0,0.0
0,-0.4118574559688568,-0.28275617957115173,0.10291257500648499,-0.8581697940826416,0.0,0.0,0.0
0,-0.4138370156288147,-0.4227781593799591,0.15178045630455017,-0.7896751761436462,0.0,0.0,0.0
0,-0.4639185667037964,-0.4583016037940979,0.17530196905136108,-0.7352789044380188,0.0,0.0,0.0
0,-0.640120267868042,-0.34726807475090027,0.3688437342643738,-0.5746545791625977,0.0,0.0,0.0
0,-0.9160283803939819,-0.10151929408311844,0.16824454069137573,-0.3448248505592346,0.0,0.0,0.0
0,-0.9517972469329834,-0.030412135645747185,-0.1131739392876625,-0.27744925022125244,0.0,0.0,0.0
0,-0.9317339062690735,-0.1687730848789215,-0.039976686239242554,-0.3137147128582001,0.0,0.0,0.0
0,-0.8453033566474915,-0.27164900302886963,0.09527783840894699,-0.4463384449481964,0.0,0.0,0.0
0,-0.8673547506332397,-0.08880046755075455,-0.0956304520368576,-0.47675323486328125,0.0,0.0,0.0
0,-0.8531153202056885,-0.1377526819705963,-0.06889329105615616,-0.49507638812065125,0.0,0.0,0.0
0,-0.8411699533462524,-0.14484573900699615,-0.099031001329422,-0.5082071423530579,0.0,0.0,0.0
0,-0.17538322508335114,-0.7907603979110718,0.1142226904630661,-0.5722973942756653,0.0,0.0,0.0
0,-0.4280228018760681,-0.8398593664169312,0.2872500717639923,-0.15984390676021576,0.0,0.0,0.0
0,-0.3849082291126251,-0.8646681904792786,0.2328704297542572,-0.21585965156555176,0.0,0.0,0.0
0,-0.291531503200531,-0.8763731122016907,0.18832768499851227,-0.3288491666316986,0.0,0.0,0.0
0,-0.24376727640628815,-0.857066810131073,0.17397336661815643,-0.4151815176010132,0.0,0.0,0.0
0,-0.22236283123493195,-0.8028645515441895,0.08402004092931747,-0.543628990650177,0.0,0.0,0.0
0,-0.2586338520050049,-0.8098611235618591,0.07647298276424408,-0.5177008509635925,0.0,0.0,0.0
0,-0.24830244481563568,-0.8650175333023071,0.10677369683980942,-0.4187116026878357,0.0,0.0,0.0
0,-0.2236604392528534,-0.8921805024147034,0.09555219858884811,-0.3761509656906128,0.0,0.0,0.0
0,-0.14765411615371704,-0.8931589126586914,0.09056480973958969,-0.410966157913208,0.0,0.0,0.0
0,-0.1205388754606247,-0.9020763039588928,0.06462009996175766,-0.40519478917121887,0.0,0.0,0.0
0,-0.09837403148412704,-0.9057974815368652,0.06141258776187897,-0.403375506401062,0.0,0.0,0.0
0,-0.05219276621937752,-0.9106253385543823,0.09053763002157211,-0.39556312561035156,0.0,0.0,0.0
0,-0.01211057510226965,-0.9073609113693237,0.0909104123711586,-0.4060974717140198,0.0,0.0,0.0
0,0.041082240641117096,-0.890920102596283,0.060264889150857925,-0.44449111819267273,0.0,0.0,0.0
0,0.11463026702404022,-0.851654589176178,0.023290516808629036,-0.5075740814208984,0.0,0.0,0.0
0,0.1877669095993042,-0.788472592830658,-0.017501993104815483,-0.5825602412223816,0.0,0.0,0.0
0,0.24985407292842865,-0.734763503074646,-0.05396578088402748,-0.625628650188446,0.0,0.0,0.0
0,0.29917576909065247,-0.6645011305809021,-0.08619938790798187,-0.6768524050712585,0.0,0.0,0.0
0,0.36285388469696045,-0.5950202941894531,-0.10005787760019302,-0.7077456116676331,0.0,0.0,0.0
0,0.19873689115047455,-0.34921348094940186,0.10786881297826767,-0.9074950814247131,0.0,0.0,0.0
0,0.14653880894184113,-0.36489996314048767,0.015201130881905556,-0.9174821376800537,0.0,0.0,0.0
0,0.1269974410533905,-0.4139234125614166,-0.046446070075035095,-0.8983387351036072,0.0,0.0,0.0
0,0.11499662697315216,-0.41544923186302185,-0.1021428182721138,-0.894637942314148,0.0,0.0,0.0
0,0.11451668292284012,-0.40142184495925903,-0.1444782167673111,-0.8952682018280029,0.0,0.0,0.0
0,0.1251702904701233,-0.3917505741119385,-0.17048577964305878,-0.8935498595237732,0.0,0.0,0.0
0,0.16599929332733154,-0.3702719509601593,-0.18746519088745117,-0.8926552534103394,0.0,0.0,0.0
0,0.2087475210428238,-0.38256746530532837,-0.1935327798128128,-0.8770661950111389,0.0,0.0,0.0
0,0.2377062886953354,-0.3552301824092865,-0.20155124366283417,-0.8793851137161255,0.0,0.0,0.0
0,0.2575197219848633,-0.3156487047672272,-0.20926515758037567,-0.887069046497345,0.0,0.0,0.0
0,0.2504103183746338,-0.02163070999085903,-0.27670636773109436,-0.9256855845451355,0.0,0.0,0.0
0,0.24786625802516937,0.1600605994462967,-0.29129642248153687,-0.9081417918205261,0.0,0.0,0.0
0,0.2130984365940094,0.2264324128627777,-0.285844087600708,-0.9045672416687012,0.0,0.0,0.0
0,0.16140446066856384,0.21114709973335266,-0.28415870666503906,-0.9193751811981201,0.0,0.0,0.0
0,0.1208680123090744,0.251679003238678,-0.32629337906837463,-0.9012285470962524,0.0,0.0,0.0
0,0.08991733193397522,0.3527733385562897,-0.30994006991386414,-0.8763759136199951,0.0,0.0,0.0
0,0.1298580765724182,0.36807963252067566,-0.3557821810245514,-0.8471741080284119,0.0,0.0,0.0
0,0.1999189406633377,0.37340375781059265,-0.39963194727897644,-0.8108806014060974,0.0,0.0,0.0
0,0.22637733817100525,0.4480629563331604,-0.42734062671661377,-0.7496694922447205,0.0,0.0,0.0
0,0.2531850039958954,0.5074941515922546,-0.42421311140060425,-0.7035780549049377,0.0,0.0,0.0
0,0.3159538805484772,0.5053697228431702,-0.3707219064235687,-0.7099084258079529,0.0,0.0,0.0
0,0.4269270896911621,0.4305236339569092,-0.22108379006385803,-0.7616643309593201,0.0,0.0,0.0
0,0.5103419423103333,0.42379695177078247,-0.12416766583919525,-0.7356324791908264,0.0,0.0,0.0
0,0.5812636613845825,0.4026237726211548,-0.2134184092283249,-0.6716435551643372,0.0,0.0,0.0
0,0.5468379259109497,0.35181936621665955,-0.4437473714351654,-0.6139267086982727,0.0,0.0,0.0
0,0.3583051264286041,0.0787912905216217,-0.6792536973953247,-0.6329720616340637,0.0,0.0,0.0
0,0.26995667815208435,0.40046948194503784,-0.8731731176376343,-0.030805815011262894,0.0,0.0,0.0
0,-0.06389422714710236,0.2670741379261017,-0.9427666664123535,-0.18003912270069122,0.0,0.0,0.0
0,-0.05272024869918823,0.275253564119339,-0.9483225345611572,-0.13701976835727692,0.0,0.0,0.0
0,-0.016358476132154465,0.2975521385669708,-0.9486581087112427,-0.08875226974487305,0.0,0.0,0.0
0,0.003845089813694358,0.31961601972579956,-0.9450394511222839,-0.03695450350642204,0.0,0.0,0.0
0,0.005787515547126532,0.3354957103729248,-0.940229058265686,-0.003569029737263918,0.0,0.0,0.0
0,-0.11232686787843704,0.3160788118839264,-0.9401904344558716,0.012346797622740269,0.0,0.0,0.0
0,-0.2417295277118683,0.30035409331321716,-0.9208540916442871,-0.0040414235554635525,0.0,0.0,0.0
0,-0.20362454652786255,0.30461615324020386,-0.9283068180084229,-0.025028973817825317,0.0,0.0,0.0
0,-0.1299869269132614,0.3310002386569977,-0.9322813153266907,0.03206203505396843,0.0,0.0,0.0
0,-0.11084592342376709,0.36908626556396484,-0.9194197654724121,0.05282006412744522,0.0,0.0,0.0
0,-0.10981950908899307,0.39814016222953796,-0.901736855506897,0.11370549350976944,0.0,0.0,0.0
0,-0.10170597583055496,0.3680422306060791,-0.9027928709983826,0.1892087161540985,0.0,0.0,0.0
0,-0.06867312639951706,0.3282453119754791,-0.9094381332397461,0.2389468550682068,0.0,0.0,0.0
0,0.06614024192094803,0.33532077074050903,-0.8910776376724243,0.292915940284729,0.0,0.0,0.0
0,0.11204519122838974,0.3480132818222046,-0.8737136125564575,0.31558141112327576,0.0,0.0,0.0
0,0.045170266181230545,0.37003159523010254,-0.8542839884757996,0.35758817195892334,0.0,0.0,0.0
0,0.01844830811023712,0.40991517901420593,-0.8232119679450989,0.38805320858955383,0.0,0.0,0.0
0,0.08894338458776474,0.4345816671848297,-0.775041401386261,0.4462870657444,0.0,0.0,0.0
0,0.2097277045249939,0.4453640282154083,-0.7065321803092957,0.5050853490829468,0.0,0.0,0.0
0,0.39117467403411865,0.3754476010799408,-0.6223245859146118,0.5615750551223755,0.0,0.0,0.0
0,0.43086114525794983,0.33102700114250183,-0.5371270775794983,0.6425787210464478,0.0,0.0,0.0
0,0.3860153257846832,0.29556405544281006,-0.43754902482032776,0.7542001008987427,0.0,0.0,0.0
0,0.42538586258888245,0.2305883765220642,-0.35696592926979065,0.7969210743904114,0.0,0.0,0.0
0,0.49241942167282104,0.16338571906089783,-0.26871833205223083,0.8094745874404907,0.0,0.0,0.0
0,0.6203966736793518,-0.0065956516191363335,-0.11747192591428757,0.773234486579895,0.0,0.0,0.0
0,0.6422263979911804,-0.07260464131832123,0.0035082490649074316,0.7608464956283569,0.0,0.0,0.0
0,0.6571899056434631,-0.20471112430095673,0.15688228607177734,0.7058380842208862,0.0,0.0,0.0
0,0.6594073176383972,-0.23795382678508759,0.22923551499843597,0.6727826595306396,0.0,0.0,0.0
0,0.6521854400634766,-0.22829298675060272,0.28624698519706726,0.6612300872802734,0.0,0.0,0.0
0,0.5175894498825073,-0.4277147948741913,0.5519850850105286,0.49102213978767395,0.0,0.0,0.0
0,0.4778696298599243,-0.43404799699783325,0.6261875033378601,0.4333154857158661,0.0,0.0,0.0
0,0.45184358954429626,-0.46016716957092285,0.6572713851928711,0.38562849164009094,0.0,0.0,0.0
0,0.45691147446632385,-0.46172934770584106,0.6781084537506104,0.3388787508010864,0.0,0.0,0.0
0,0.4229527711868286,-0.4963560998439789,0.7145624756813049,0.24652361869812012,0.0,0.0,0.0
0,0.3844965994358063,-0.5097073912620544,0.7491368055343628,0.16669583320617676,0.0,0.0,0.0
0,0.3626686930656433,-0.5006550550460815,0.7754781246185303,0.11437901109457016,0.0,0.0,0.0
0,0.3600505590438843,-0.46893468499183655,0.7925240397453308,0.13784946501255035,0.0,0.0,0.0
0,0.32955315709114075,-0.4411889314651489,0.8262171149253845,0.10365840792655945,0.0,0.0,0.0
0,0.28668612241744995,-0.39823105931282043,0.8692065477371216,-0.018325919285416603,0.0,0.0,0.0
0,0.2738969027996063,-0.38918042182922363,0.8717483878135681,-0.10103002190589905,0.0,0.0,0.0
0,0.2537614405155182,-0.39457473158836365,0.8628451824188232,-0.17901691794395447,0.0,0.0,0.0
0,0.23304948210716248,-0.3902305066585541,0.8582762479782104,-0.23109076917171478,0.0,0.0,0.0
0,0.18497206270694733,-0.4077335000038147,0.8341434001922607,-0.3168216645717621,0.0,0.0,0.0
0,0.12954846024513245,-0.46490561962127686,0.7503855228424072,-0.44792094826698303,0.0,0.0,0.0
0,0.19257403910160065,-0.5018448829650879,0.6925373673439026,-0.47758910059928894,0.0,0.0,0.0
0,0.1261867731809616,-0.6164751052856445,0.5889695286750793,-0.5037680864334106,0.0,0.0,0.0
0,0.12936139106750488,-0.6771435141563416,0.5374108552932739,-0.4822496175765991,0.0,0.0,0.0
0,0.1251954436302185,-0.7288289070129395,0.49387747049331665,-0.45370981097221375,0.0,0.0,0.0
0,0.10404688864946365,-0.7632550001144409,0.45649248361587524,-0.44143372774124146,0.0,0.0,0.0
0,0.054077908396720886,-0.7904939651489258,0.4345996677875519,-0.42420607805252075,0.0,0.0,0.0
0,-0.03408949077129364,-0.8089352250099182,0.40100815892219543,-0.42460232973098755,0.0,0.0,0.0
0,-0.10267942398786545,-0.8300806283950806,0.3834827244281769,-0.3872948884963989,0.0,0.0,0.0
0,-0.18709804117679596,-0.8423898816108704,0.39370888471603394,-0.3114483952522278,0.0,0.0,0.0
0,-0.22345010936260223,-0.8512160181999207,0.37778785824775696,-0.2817993760108948,0.0,0.0,0.0
0,-0.24199311435222626,-0.8619212508201599,0.363671213388443,-0.25081413984298706,0.0,0.0,0.0
0,-0.22443871200084686,-0.8583951592445374,0.3975076675415039,-0.22672827541828156,0.0,0.0,0.0
0,-0.1974794715642929,-0.8462974429130554,0.434294193983078,-0.22979103028774261,0.0,0.0,0.0
0,-0.12224891781806946,-0.8869482278823853,0.4189503788948059,-0.1396128237247467,0.0,0.0,0.0
0,-0.11656326055526733,-0.8841801881790161,0.43464791774749756,-0.11114374548196793,0.0,0.0,0.0
0,-0.10416305065155029,-0.9117017984390259,0.3825697600841522,-0.09068622440099716,0.0,0.0,0.0
0,-0.16729047894477844,-0.9086650609970093,0.36040356755256653,-0.1143859401345253,0.0,0.0,0.0
0,-0.2191297709941864,-0.9203147292137146,0.2960130274295807,-0.11837462335824966,0.0,0.0,0.0
0,-0.32718995213508606,-0.8936865329742432,0.26314106583595276,-0.14717508852481842,0.0,0.0,0.0
0,-0.4037078619003296,-0.8650562763214111,0.24007508158683777,-0.16641579568386078,0.0,0.0,0.0
0,-0.39776062965393066,-0.8775414228439331,0.2124459594488144,-0.15233904123306274,0.0,0.0,0.0
0,-0.39378082752227783,-0.8881927728652954,0.1864912211894989,-0.13380645215511322,0.0,0.0,0.0
0,-0.39279329776763916,-0.8887003064155579,0.20504434406757355,-0.1025407463312149,0.0,0.0,0.0
0,-0.3439435660839081,-0.9209276437759399,0.16419443488121033,-0.05716753378510475,0.0,0.0,0.0
0,-0.33754047751426697,-0.932094156742096,0.10963179916143417,-0.04336608946323395,0.0,0.0,0.0
0,-0.3242267668247223,-0.9372822642326355,0.11238092929124832,-0.019553514197468758,0.0,0.0,0.0
0,-0.2933879792690277,-0.9401295185089111,0.1459742933511734,0.07351360470056534,0.0,0.0,0.0
0,-0.25344550609588623,-0.940368115901947,0.1645592600107193,0.1450047791004181,0.0,0.0,0.0
0,-0.20027440786361694,-0.9436939358711243,0.18204635381698608,0.18117402493953705,0.0,0.0,0.0
0,-0.005497821606695652,-0.8796451687812805,0.24236315488815308,0.4050758183002472,0.0,0.0,0.0
0,0.09710445255041122,-0.8089780211448669,0.2416529655456543,0.5237956047058105,0.0,0.0,0.0
0,0.15795961022377014,-0.7222951054573059,0.2616896629333496,0.6176486015319824,0.0,0.0,0.0
0,0.08715946972370148,-0.7601839900016785,0.3422590494155884,0.5422302484512329,0.0,0.0,0.0
0,0.05915481224656105,-0.8301807045936584,0.2997063994407654,0.4627198874950409,0.0,0.0,0.0
0,0.21276326477527618,-0.781200647354126,0.34703558683395386,0.4697414040565491,0.0,0.0,0.0
0,0.2464100420475006,-0.7558799386024475,0.42210400104522705,0.43172815442085266,0.0,0.0,0.0
0,0.09637627750635147,-0.8235344886779785,0.37293684482574463,0.4123750627040863,0.0,0.0,0.0
0,-0.0366818830370903,-0.8084969520568848,0.33808860182762146,0.47677648067474365,0.0,0.0,0.0
0,-0.015727000311017036,-0.7928162813186646,0.38818255066871643,0.4659850597381592,0.0,0.0,0.0
0,0.07468915730714798,-0.7606080174446106,0.4874924123287201,0.4181877076625824,0.0,0.0,0.0
0,0.1163460984826088,-0.7335192561149597,0.5094110369682312,0.4307515621185303,0.0,0.0,0.0
0,0.057126667350530624,-0.7907009124755859,0.43443426489830017,0.42359083890914917,0.0,0.0,0.0
0,-0.37122029066085815,0.16404548287391663,0.8349992632865906,0.36700737476348877,0.0,0.0,0.0
0,-0.4703044891357422,0.18431727588176727,0.7429760098457336,0.43527090549468994,0.0,0.0,0.0
0,-0.5022867918014526,0.16658815741539001,0.6750329732894897,0.5108039975166321,0.0,0.0,0.0
0,-0.44645118713378906,0.18679086863994598,0.6395289301872253,0.5944976806640625,0.0,0.0,0.0
0,-0.47214341163635254,0.18507513403892517,0.6328238844871521,0.5822332501411438,0.0,0.0,0.0
0,-0.410820871591568,0.21220208704471588,0.6624954342842102,0.5864554047584534,0.0,0.0,0.0
0,-0.4087412655353546,0.2629791796207428,0.6156376600265503,0.6175731420516968,0.0,0.0,0.0
0,-0.6076593995094299,0.2108226716518402,0.5069136023521423,0.570942759513855,0.0,0.0,0.0
0,-0.7146744728088379,0.17518852651119232,0.4190903604030609,0.5287207961082458,0.0,0.0,0.0
0,-0.7849195003509521,0.10812649875879288,0.3780476152896881,0.4753129482269287,0.0,0.0,0.0
0,-0.818027913570404,0.036567118018865585,0.4175247251987457,0.3896130323410034,0.0,0.0,0.0
0,-0.7897469401359558,-0.02299920842051506,0.4334419369697571,0.42957016825675964,0.0,0.0,0.0
0,-0.7897469401359558,-0.02299920842051506,0.4334419369697571,0.42957016825675964,0.0,0.0,0.0
0,-0.7505127787590027,-0.09524834901094437,0.4351900517940521,0.4846641719341278,0.0,0.0,0.0
0,-0.7294055223464966,-0.1564473658800125,0.4220172166824341,0.5118831396102905,0.0,0.0,0.0
0,-0.7420288920402527,-0.18661344051361084,0.4273323118686676,0.4781072735786438,0.0,0.0,0.0
0,-0.662520706653595,-0.3491993844509125,0.434571236371994,0.496893972158432,0.0,0.0,0.0
0,-0.618683397769928,-0.3726159334182739,0.43809381127357483,0.5320648550987244,0.0,0.0,0.0
0,-0.5803093910217285,-0.4461044669151306,0.4033229947090149,0.5460702180862427,0.0,0.0,0.0
0,-0.6736778020858765,-0.4075095057487488,0.28151771426200867,0.5454081892967224,0.0,0.0,0.0
0,-0.7438704967498779,-0.16380222141742706,0.1259509027004242,0.632920503616333,0.0,0.0,0.0
0,-0.7041715383529663,-0.10720415413379669,0.1633249670267105,0.6801481246948242,0.0,0.0,0.0
0,-0.5457865595817566,-0.027641844004392624,0.289893239736557,0.7835456728935242,0.0,0.0,0.0
0,-0.7141772508621216,-0.20261307060718536,0.07332572340965271,0.6634367108345032,0.0,0.0,0.0
0,-0.58272784948349,-0.4231627285480499,0.09618434309959412,0.6846435070037842,0.0,0.0,0.0
0,-0.5484312176704407,-0.493821918964386,-0.03623664006590843,0.6713245511054993,0.0,0.0,0.0
0,-0.39538708329200745,-0.5505491495132446,-0.10800126194953918,0.7249314785003662,0.0,0.0,0.0
0,-0.38995862007141113,-0.6450221538543701,-0.07840292900800705,0.6498917937278748,0.0,0.0,0.0
0,-0.2480831891298294,-0.7862447500228882,0.017936889082193375,0.5626578330993652,0.0,0.0,0.0
0,-0.18040375411510468,-0.8260499238967896,0.09396466612815857,0.5223978161811829,0.0,0.0,0.0
0,-0.09913711249828339,-0.776949405670166,0.2988354563713074,0.5420791506767273,0.0,0.0,0.0
0,-0.0904189869761467,-0.7632589936256409,0.3580840229988098,0.5269431471824646,0.0,0.0,0.0
0,-0.0904189869761467,-0.7632589936256409,0.3580840229988098,0.5269431471824646,0.0,0.0,0.0
0,-0.2742694914340973,-0.7683281898498535,0.29480716586112976,0.4941338896751404,0.0,0.0,0.0
0,-0.3680627942085266,-0.8141920566558838,0.25984397530555725,0.36156928539276123,0.0,0.0,0.0
0,-0.41075921058654785,-0.8297991752624512,0.34115660190582275,0.15151003003120422,0.0,0.0,0.0
0,-0.3527565896511078,-0.8781628012657166,0.30634936690330505,0.0847114846110344,0.0,0.0,0.0
0,-0.34855154156684875,-0.9154459834098816,0.19250071048736572,-0.0068498472683131695,0.0,0.0,0.0
0,-0.3497731685638428,-0.9258618354797363,0.11842849105596542,-0.055195219814777374,0.0,0.0,0.0
0,-0.33675307035446167,-0.9304051399230957,0.10365558415651321,-0.08265788108110428,0.0,0.0,0.0
0,-0.025042889639735222,-0.8487501740455627,-0.21598808467388153,-0.4785176217556,0.0,0.0,0.0
0,-0.014912476763129234,-0.7829306125640869,-0.2627345621585846,-0.5607150197029114,0.0,0.0,0.0
0,0.024738429114222527,-0.7553197741508484,-0.2620406746864319,-0.5973679423332214,0.0,0.0,0.0
0,0.06472864747047424,-0.7061861753463745,-0.2438858449459076,-0.6589877009391785,0.0,0.0,0.0
0,0.09253834933042526,-0.6609041094779968,-0.21386279165744781,-0.711012601852417,0.0,0.0,0.0
0,0.10910578817129135,-0.5828239917755127,-0.2233555018901825,-0.7714644074440002,0.0,0.0,0.0
0,0.16188544034957886,-0.6055406928062439,-0.21869027614593506,-0.7456018328666687,0.0,0.0,0.0
0,0.17911505699157715,-0.5876274108886719,-0.22197188436985016,-0.7549663186073303,0.0,0.0,0.0
0,0.12838703393936157,-0.5788123607635498,-0.27207666635513306,-0.7557120323181152,0.0,0.0,0.0
0,0.022723309695720673,-0.570655107498169,-0.33911582827568054,-0.7452989220619202,0.0,0.0,0.0
0,0.0011758450418710709,-0.5293580293655396,-0.3938889801502228,-0.7491751313209534,0.0,0.0,0.0
0,-0.033009279519319534,-0.42189574241638184,-0.44987818598747253,-0.7843192219734192,0.0,0.0,0.0
0,-0.16819697618484497,-0.2337404489517212,-0.5173972249031067,-0.8037447333335876,0.0,0.0,0.0
0,-0.2854281961917877,-0.134430393576622,-0.5024830102920532,-0.8028701543807983,0.0,0.0,0.0
0,-0.32652801275253296,-0.09332574903964996,-0.4042201042175293,-0.8472926020622253,0.0,0.0,0.0
0,-0.3607274293899536,-0.03111335076391697,-0.3433924615383148,-0.864648699760437,0.0,0.0,0.0
0,-0.38190406560897827,0.004081605467945337,-0.3979732096195221,-0.8320921063423157,0.0,0.0,0.0
0,-0.4223653972148895,0.15191742777824402,-0.42897599935531616,-0.781749963760376,0.0,0.0,0.0
0,-0.4061104357242584,0.2522360682487488,-0.5236177444458008,-0.7027806639671326,0.0,0.0,0.0
0,-0.3754930794239044,0.4051789343357086,-0.5754325985908508,-0.6002810597419739,0.0,0.0,0.0
0,-0.3674706816673279,0.5468695163726807,-0.5713520050048828,-0.48588091135025024,0.0,0.0,0.0
0,-0.3367024064064026,0.6827276349067688,-0.5410299897193909,-0.35273832082748413,0.0,0.0,0.0
0,-0.24635206162929535,0.7865085601806641,-0.4870554208755493,-0.28304755687713623,0.0,0.0,0.0
0,-0.056119952350854874,0.8550812005996704,-0.4028077721595764,-0.3163253664970398,0.0,0.0,0.0
0,-0.012625634670257568,0.8432967662811279,-0.4038171172142029,-0.3496474325656891,0.0,0.0,0.0
0,0.03728337213397026,0.6088576912879944,-0.5299168229103088,0.5862774848937988,0.0,0.0,0.0
0,0.02074785903096199,0.839322566986084,-0.13398493826389313,0.5232483148574829,0.0,0.0,0.0
0,-0.0024573737755417824,0.852154016494751,-0.09588146209716797,0.5111426711082458,0.0,0.0,0.0
0,-0.005406808108091354,0.8297221064567566,-0.07893883436918259,0.5494841933250427,0.0,0.0,0.0
0,-0.005406808108091354,0.8297221064567566,-0.07893883436918259,0.5494841933250427,0.0,0.0,0.0
0,-0.030683258548378944,0.8002942800521851,-0.07256805151700974,0.5915684700012207,0.0,0.0,0.0
0,-0.04807516559958458,0.7563504576683044,-0.06729836016893387,0.6463168263435364,0.0,0.0,0.0
0,-0.061052367091178894,0.7218362092971802,-0.052987825125455856,0.68487149477005,0.0,0.0,0.0
0,-0.07267824560403824,0.7002726197242737,-0.03314319998025894,0.7070140242576599,0.0,0.0,0.0
0,-0.08493921160697937,0.6673699617385864,-0.020056921988725662,0.7373136281967163,0.0,0.0,0.0
0,-0.1064065471291542,0.6367529630661011,0.0009769302560016513,0.7614809274673462,0.0,0.0,0.0
0,-0.12352533638477325,0.6043576598167419,0.01919092796742916,0.7847011089324951,0.0,0.0,0.0
0,-0.13693271577358246,0.5702794790267944,0.03337066248059273,0.8071852326393127,0.0,0.0,0.0
0,-0.169199138879776,0.5096309781074524,0.07079101353883743,0.8386101722717285,0.0,0.0,0.0
0,-0.3309055268764496,0.34707915782928467,0.18238814175128937,0.8563901782035828,0.0,0.0,0.0
0,-0.35364896059036255,0.3473603427410126,0.22657263278961182,0.8364033699035645,0.0,0.0,0.0
0,-0.39543673396110535,0.29781168699264526,0.23120498657226562,0.8355327844619751,0.0,0.0,0.0
0,-0.3677060008049011,0.29929813742637634,0.1927751749753952,0.8571363687515259,0.0,0.0,0.0
0,0.03607342764735222,0.606857180595398,0.05475623533129692,0.7899723649024963,0.0,0.0,0.0
0,0.020440723747015,0.6801353693008423,0.010099994018673897,0.7304307222366333,0.0,0.0,0.0
0,0.0025009424425661564,0.7265602946281433,0.03880849480628967,0.6835428476333618,0.0,0.0,0.0
0,-0.06983888149261475,0.8784236311912537,0.02797725982964039,0.4683374762535095,0.0,0.0,0.0
0,-0.26115429401397705,0.9480934143066406,0.05764355510473251,0.16194429993629456,0.0,0.0,0.0
0,-0.4193340241909027,0.9032355546951294,0.04223451390862465,0.05633440986275673,0.0,0.0,0.0
0,-0.6012669205665588,0.789662778377533,-0.04787321761250496,0.09617677330970764,0.0,0.0,0.0
0,-0.7290458679199219,0.6216926574707031,-0.21412058174610138,0.18103404343128204,0.0,0.0,0.0
0,-0.7708142995834351,0.5811598896980286,-0.2354273796081543,0.09644455462694168,0.0,0.0,0.0
0,-0.6509939432144165,0.7424313426017761,-0.08583992719650269,-0.1194395124912262,0.0,0.0,0.0
0,-0.6774564981460571,0.7007837295532227,-0.002626574831083417,-0.21582593023777008,0.0,0.0,0.0
0,-0.7878192663192749,0.5816305875778198,0.08243842422962189,-0.17573341727256775,0.0,0.0,0.0
0,-0.9544902443885803,0.06883732229471207,-0.26815658807754517,0.09448006749153137,0.0,0.0,0.0
0,-0.9460403323173523,0.003156910417601466,-0.30888864398002625,0.07880236208438873,0.0,0.0,0.0
0,-0.9192352890968323,-0.045143164694309235,-0.3736048936843872,0.10005639493465424,0.0,0.0,0.0
0,-0.8896830081939697,-0.08870015293359756,-0.43143126368522644,0.10529186576604843,0.0,0.0,0.0
0,-0.8580690026283264,-0.13264192640781403,-0.48326990008354187,0.09589937329292297,0.0,0.0,0.0
0,-0.8278101086616516,-0.16528652608394623,-0.5217194557189941,0.10882147401571274,0.0,0.0,0.0
0,-0.7935213446617126,-0.19328898191452026,-0.5613492727279663,0.1203022301197052,0.0,0.0,0.0
0,-0.7572623491287231,-0.21565452218055725,-0.5974451303482056,0.14046259224414825,0.0,0.0,0.0
0,-0.7276825308799744,-0.23010288178920746,-0.6220621466636658,0.16492991149425507,0.0,0.0,0.0
0,-0.701760470867157,-0.2552475333213806,-0.6385939121246338,0.17666804790496826,0.0,0.0,0.0
0,-0.6734511256217957,-0.27863049507141113,-0.65595942735672,0.18755923211574554,0.0,0.0,0.0
0,-0.6468172073364258,-0.2976934611797333,-0.672940194606781,0.1918080598115921,0.0,0.0,0.0
0,-0.6239608526229858,-0.3135744333267212,-0.6824464797973633,0.20795081555843353,0.0,0.0,0.0
0,-0.5989984273910522,-0.3244168758392334,-0.6950237154960632,0.22255229949951172,0.0,0.0,0.0
0,-0.5642004013061523,-0.340553343296051,-0.7115532159805298,0.23669907450675964,0.0,0.0,0.0
0,-0.530092179775238,-0.3284715712070465,-0.7273886799812317,0.2804410755634308,0.0,0.0,0.0
0,-0.49660030007362366,-0.30344948172569275,-0.7385392189025879,0.3354097902774811,0.0,0.0,0.0
0,-0.4678760766983032,-0.31812191009521484,-0.7319581508636475,0.3751809000968933,0.0,0.0,0.0
0,-0.43920764327049255,-0.3626243770122528,-0.7189773321151733,0.3940875828266144,0.0,0.0,0.0
0,-0.40430310368537903,-0.3969976603984833,-0.7154088020324707,0.4046667218208313,0.0,0.0,0.0
0,-0.36670735478401184,-0.41425108909606934,-0.6973254680633545,0.45198678970336914,0.0,0.0,0.0
0,-0.3487838804721832,-0.4577923119068146,-0.6725982427597046,0.4615417420864105,0.0,0.0,0.0
0,-0.3283490240573883,-0.47798460721969604,-0.6726846098899841,0.45590153336524963,0.0,0.0,0.0
0,-0.31091535091400146,-0.4939095675945282,-0.6675969362258911,0.4586203098297119,0.0,0.0,0.0
0,-0.2768760025501251,-0.5007973313331604,-0.662871241569519,0.47935032844543457,0.0,0.0,0.0
0,-0.2225332409143448,-0.49190467596054077,-0.669918417930603,0.5063112378120422,0.0,0.0,0.0
0,-0.1763954758644104,-0.5105650424957275,-0.6461418867111206,0.5360427498817444,0.0,0.0,0.0
0,-0.1311279684305191,-0.5041401386260986,-0.6271722912788391,0.5761391520500183,0.0,0.0,0.0
0,-0.08900400251150131,-0.5034446716308594,-0.6138029098510742,0.5987493991851807,0.0,0.0,0.0
0,-0.041645027697086334,-0.5284199714660645,-0.597007691860199,0.5993772149085999,0.0,0.0,0.0
0,0.000526003772392869,-0.5586205124855042,-0.5712358355522156,0.5985528826713562,0.0,0.0,0.0
0,0.03882688283920288,-0.575541079044342,-0.5493360161781311,0.6017541885375977,0.0,0.0,0.0
0,0.07146301120519638,-0.5752732753753662,-0.5361707210540771,0.6108255982398987,0.0,0.0,0.0
0,0.10955298691987991,-0.5761181116104126,-0.5219811797142029,0.6166479587554932,0.0,0.0,0.0
0,0.15374210476875305,-0.5864418148994446,-0.503096878528595,0.6131687164306641,0.0,0.0,0.0
0,0.19158172607421875,-0.6056342720985413,-0.4721345901489258,0.6084614992141724,0.0,0.0,0.0
0,0.2228127419948578,-0.6283903121948242,-0.43825921416282654,0.6000349521636963,0.0,0.0,0.0
0,0.2549324631690979,-0.6569613218307495,-0.401925653219223,0.5818076133728027,0.0,0.0,0.0
0,0.2549324631690979,-0.6569613218307495,-0.401925653219223,0.5818076133728027,0.0,0.0,0.0
0,0.29350030422210693,-0.6684064269065857,-0.36928969621658325,0.5721437931060791,0.0,0.0,0.0
0,0.3235606551170349,-0.6869330406188965,-0.315483957529068,0.566157341003418,0.0,0.0,0.0
0,0.35179954767227173,-0.7040271162986755,-0.26877379417419434,0.5522466897964478,0.0,0.0,0.0
0,0.35972124338150024,-0.7324864268302917,-0.20796597003936768,0.5361409187316895,0.0,0.0,0.0
0,0.40532922744750977,-0.7283191680908203,-0.18499629199504852,0.5173671245574951,0.0,0.0,0.0
0,0.4448225498199463,-0.7269147634506226,-0.17529991269111633,0.4895205795764923,0.0,0.0,0.0
0,0.4854361116886139,-0.7314523458480835,-0.1633639931678772,0.4464015066623688,0.0,0.0,0.0
0,0.4854361116886139,-0.7314523458480835,-0.1633639931678772,0.4464015066623688,0.0,0.0,0.0
0,0.49956268072128296,-0.7420926690101624,-0.1130094826221466,0.428482323884964,0.0,0.0,0.0
0,0.551665186882019,-0.7290981411933899,-0.01706310734152794,0.40052807331085205,0.0,0.0,0.0
0,0.5682958960533142,-0.7239561080932617,0.013752181082963943,0.3864845931529999,0.0,0.0,0.0
0,0.5924707055091858,-0.7134504914283752,0.05692485347390175,0.3651829957962036,0.0,0.0,0.0
0,0.62611323595047,-0.6908833384513855,0.08801676332950592,0.3457566797733307,0.0,0.0,0.0
0,0.6491456627845764,-0.6771008372306824,0.12388098984956741,0.3184807002544403,0.0,0.0,0.0
0,0.6590699553489685,-0.6701704859733582,0.16491319239139557,0.29314544796943665,0.0,0.0,0.0
