time_boot_ms,press_abs,press_diff,temperature
80,1007.7888793945312,-9.392720353210833e+23,2609
120,1007.795654296875,-9.392720353210833e+23,2609
140,1007.792236328125,-9.392720353210833e+23,2609
1010,1007.7146606445312,-9.392720353210833e+23,2613
1040,1007.7493286132812,-9.392720353210833e+23,2614
1070,1007.7632446289062,-9.392720353210833e+23,2614
1120,1007.7767944335938,-9.392720353210833e+23,2614
1140,1007.7493286132812,-9.392720353210833e+23,2614
2020,1007.759033203125,-9.392720353210833e+23,2617
2040,1007.7898559570312,-9.392720353210833e+23,2617
14390,1007.8045654296875,-9.392720353210833e+23,2650
15040,1007.7662353515625,-9.392720353210833e+23,2651
15060,1007.7662353515625,-9.392720353210833e+23,2651
15070,1007.74462890625,-9.392720353210833e+23,2651
15080,1007.74462890625,-9.392720353210833e+23,2651
15090,1007.78271484375,-9.392720353210833e+23,2651
15100,1007.78271484375,-9.392720353210833e+23,2651
15110,1007.7581787109375,-9.392720353210833e+23,2651
15120,1007.7581787109375,-9.392720353210833e+23,2651
15130,1007.7843017578125,-9.392720353210833e+23,2650
15160,1007.7894287109375,-9.392720353210833e+23,2651
15190,1007.7759399414062,-9.392720353210833e+23,2651
16060,1007.7984619140625,-9.392720353210833e+23,2652
16090,1007.7899169921875,-9.392720353210833e+23,2651
16120,1007.7928466796875,-9.392720353210833e+23,2651
16170,1007.77978515625,-9.392720353210833e+23,2651
16190,1007.7916870117188,-9.392720353210833e+23,2652
17070,1007.785400390625,-9.392720353210833e+23,2653
17090,1007.7988891601562,-9.392720353210833e+23,2653
17130,1007.7667236328125,-9.392720353210833e+23,2652
17170,1007.7786254882812,-9.392720353210833e+23,2653
17200,1007.7714233398438,-9.392720353210833e+23,2652
18070,1007.7799682617188,-9.392720353210833e+23,2653
18100,1007.7610473632812,-9.392720353210833e+23,2654
18130,1007.78466796875,-9.392720353210833e+23,2654
18180,1007.7952880859375,-9.392720353210833e+23,2654
18200,1007.7691650390625,-9.392720353210833e+23,2655
19080,1007.79345703125,-9.392720353210833e+23,2657
19100,1007.7765502929688,-9.392720353210833e+23,2657
19130,1007.7630615234375,-9.392720353210833e+23,2657
19190,1007.8117065429688,-9.392720353210833e+23,2658
19200,1007.8117065429688,-9.392720353210833e+23,2658
20090,1007.813232421875,-9.392720353210833e+23,2661
12290,1007.8052978515625,-9.392720353210833e+23,2689
13010,1007.8016967773438,-9.392720353210833e+23,2691
13010,1007.8016967773438,-9.392720353210833e+23,2691
13020,1007.783447265625,-9.392720353210833e+23,2690
13030,1007.783447265625,-9.392720353210833e+23,2690
13040,1007.7800903320312,-9.392720353210833e+23,2690
13050,1007.7800903320312,-9.392720353210833e+23,2690
13060,1007.7800903320312,-9.392720353210833e+23,2690
13100,1007.815673828125,-9.392720353210833e+23,2691
13120,1007.8079833984375,-9.392720353210833e+23,2690
13160,1007.809326171875,-9.392720353210833e+23,2691
13200,1007.8054809570312,-9.392720353210833e+23,2691
13220,1007.7822875976562,-9.392720353210833e+23,2691
80,1007.7815551757812,-9.392720353210833e+23,2693
1060,1007.799560546875,-9.392720353210833e+23,2695
1070,1007.799560546875,-9.392720353210833e+23,2695
1070,1007.7860107421875,-9.392720353210833e+23,2695
1080,1007.7860107421875,-9.392720353210833e+23,2695
1090,1007.7763061523438,-9.392720353210833e+23,2695
1100,1007.7763061523438,-9.392720353210833e+23,2695
1120,1007.7797241210938,-9.392720353210833e+23,2695
1160,1007.761474609375,-9.392720353210833e+23,2695
1180,1007.7526245117188,-9.392720353210833e+23,2695
2060,1007.807373046875,-9.392720353210833e+23,2698
2750,1007.798095703125,-9.392720353210833e+23,2698
2760,1007.7761840820312,-9.392720353210833e+23,2699
2770,1007.7761840820312,-9.392720353210833e+23,2699
2770,1007.7660522460938,-9.392720353210833e+23,2699
3070,1007.8012084960938,-9.392720353210833e+23,2700
3090,1007.811767578125,-9.392720353210833e+23,2700
3120,1007.7847290039062,-9.392720353210833e+23,2700
3170,1007.7948608398438,-9.392720353210833e+23,2700
3190,1007.7779541015625,-9.392720353210833e+23,2700
4070,1007.7490234375,-9.392720353210833e+23,2703
4090,1007.75830078125,-9.392720353210833e+23,2702
6150,1007.7747802734375,-9.392720353210833e+23,2708
6150,1007.7747802734375,-9.392720353210833e+23,2708
6990,1007.8346557617188,-9.392720353210833e+23,2711
7000,1007.8346557617188,-9.392720353210833e+23,2711
7010,1007.8346557617188,-9.392720353210833e+23,2711
7010,1007.805419921875,-9.392720353210833e+23,2710
7020,1007.805419921875,-9.392720353210833e+23,2710
7030,1007.805419921875,-9.392720353210833e+23,2710
7040,1007.8173217773438,-9.392720353210833e+23,2711
7050,1007.8173217773438,-9.392720353210833e+23,2711
7090,1007.834228515625,-9.392720353210833e+23,2711
7100,1007.8414306640625,-9.392720353210833e+23,2711
7140,1007.8181762695312,-9.392720353210833e+23,2712
7190,1007.7699584960938,-9.392720353210833e+23,2711
7200,1007.7699584960938,-9.392720353210833e+23,2711
8090,1007.8027954101562,-9.392720353210833e+23,2714
8100,1007.8057250976562,-9.392720353210833e+23,2714
8140,1007.7951049804688,-9.392720353210833e+23,2714
8190,1007.80615234375,-9.392720353210833e+23,2714
8210,1007.7777709960938,-9.392720353210833e+23,2714
9090,1007.78466796875,-9.392720353210833e+23,2716
9110,1007.8164672851562,-9.392720353210833e+23,2716
9150,1007.78466796875,-9.392720353210833e+23,2716
9200,1007.7821655273438,-9.392720353210833e+23,2716
9210,1007.7821655273438,-9.392720353210833e+23,2716
10090,1007.7747192382812,-9.392720353210833e+23,2718
10110,1007.8157348632812,-9.392720353210833e+23,2718
10150,1007.8021850585938,-9.392720353210833e+23,2718
10200,1007.781494140625,-9.392720353210833e+23,2718
10220,1007.75146484375,-9.392720353210833e+23,2718
11100,1007.79248046875,-9.392720353210833e+23,2718
11120,1007.8060302734375,-9.392720353210833e+23,2718
11150,1007.7785034179688,-9.392720353210833e+23,2718
11200,1007.7861938476562,-9.392720353210833e+23,2718
11220,1007.775146484375,-9.392720353210833e+23,2718
12100,1007.7741088867188,-9.392720353210833e+23,2721
12180,1007.7783813476562,-9.392720353210833e+23,2722
12200,1007.7830810546875,-9.392720353210833e+23,2722
12210,1007.8101196289062,-9.392720353210833e+23,2722
12230,1007.8101196289062,-9.392720353210833e+23,2722
12250,1007.7610473632812,-9.392720353210833e+23,2721
13100,1007.7827758789062,-9.392720353210833e+23,2724
13120,1007.769287109375,-9.392720353210833e+23,2724
13160,1007.7523193359375,-9.392720353210833e+23,2724
13200,1007.7667846679688,-9.392720353210833e+23,2725
13230,1007.7384033203125,-9.392720353210833e+23,2724
13250,1007.7667846679688,-9.392720353210833e+23,2725
14100,1007.7351684570312,-9.392720353210833e+23,2726
14130,1007.7486572265625,-9.392720353210833e+23,2726
14160,1007.7838134765625,-9.392720353210833e+23,2727
14210,1007.7567749023438,-9.392720353210833e+23,2727
14230,1007.7520751953125,-9.392720353210833e+23,2726
35290,1007.7691650390625,-9.392720353210833e+23,2771
35310,1007.7691650390625,-9.392720353210833e+23,2771
35320,1007.7784423828125,-9.392720353210833e+23,2770
35330,1007.7784423828125,-9.392720353210833e+23,2770
35340,1007.812255859375,-9.392720353210833e+23,2770
35350,1007.812255859375,-9.392720353210833e+23,2770
35350,1007.812255859375,-9.392720353210833e+23,2770
36190,1007.7675170898438,-9.392720353210833e+23,2772
36200,1007.7471923828125,-9.392720353210833e+23,2772
36240,1007.7603149414062,-9.392720353210833e+23,2772
36290,1007.75439453125,-9.392720353210833e+23,2772
36300,1007.7611694335938,-9.392720353210833e+23,2772
37190,1007.7904052734375,-9.392720353210833e+23,2773
37210,1007.79248046875,-9.392720353210833e+23,2773
37240,1007.7870483398438,-9.392720353210833e+23,2773
37290,1007.7705688476562,-9.392720353210833e+23,2774
37310,1007.7777709960938,-9.392720353210833e+23,2774
38190,1007.7731323242188,-9.392720353210833e+23,2775
38210,1007.7799072265625,-9.392720353210833e+23,2775
38240,1007.7943115234375,-9.392720353210833e+23,2776
38290,1007.7828979492188,-9.392720353210833e+23,2775
38310,1007.7803955078125,-9.392720353210833e+23,2775
39190,1007.7787475585938,-9.392720353210833e+23,2776
39210,1007.76220703125,-9.392720353210833e+23,2777
39250,1007.7723999023438,-9.392720353210833e+23,2777
39290,1007.7855224609375,-9.392720353210833e+23,2776
39310,1007.7732543945312,-9.392720353210833e+23,2777
40400,1007.8051147460938,-9.392720353210833e+23,2780
40840,1007.7822265625,-9.392720353210833e+23,2778
41080,1007.757080078125,-9.392720353210833e+23,2776
41270,1007.7730712890625,-9.392720353210833e+23,2773
41280,1007.7730712890625,-9.392720353210833e+23,2773
41290,1007.7967529296875,-9.392720353210833e+23,2773
41310,1007.7967529296875,-9.392720353210833e+23,2773
41320,1007.78955078125,-9.392720353210833e+23,2773
41330,1007.78955078125,-9.392720353210833e+23,2773
41340,1007.810302734375,-9.392720353210833e+23,2773
42200,1007.7787475585938,-9.392720353210833e+23,2769
42220,1007.8003540039062,-9.392720353210833e+23,2769
42250,1007.7855224609375,-9.392720353210833e+23,2769
42300,1007.7762451171875,-9.392720353210833e+23,2769
42320,1007.7902221679688,-9.392720353210833e+23,2769
43200,1007.757080078125,-9.392720353210833e+23,2776
43220,1007.7465209960938,-9.392720353210833e+23,2775
43260,1007.7816772460938,-9.392720353210833e+23,2776
45400,1007.772216796875,-9.392720353210833e+23,2782
47490,1007.785400390625,-9.392720353210833e+23,2784
47590,1007.7697143554688,-9.392720353210833e+23,2783
47690,1007.7777099609375,-9.392720353210833e+23,2782
49340,1007.7706298828125,-9.392720353210833e+23,2776
49390,1007.7410278320312,-9.392720353210833e+23,2776
49410,1007.7550048828125,-9.392720353210833e+23,2776
49410,1007.7550048828125,-9.392720353210833e+23,2776
49420,1007.7529296875,-9.392720353210833e+23,2777
49430,1007.7529296875,-9.392720353210833e+23,2777
49440,1007.7529296875,-9.392720353210833e+23,2777
49450,1007.76220703125,-9.392720353210833e+23,2777
50220,1007.762939453125,-9.392720353210833e+23,2783
50240,1007.7460327148438,-9.392720353210833e+23,2783
50290,1007.7705688476562,-9.392720353210833e+23,2783
50330,1007.760009765625,-9.392720353210833e+23,2783
50350,1007.7575073242188,-9.392720353210833e+23,2784
51230,1007.7732543945312,-9.392720353210833e+23,2787
51250,1007.7457885742188,-9.392720353210833e+23,2787
51290,1007.7796020507812,-9.392720353210833e+23,2787
51330,1007.7787475585938,-9.392720353210833e+23,2786
51350,1007.7906494140625,-9.392720353210833e+23,2787
52230,1007.7348022460938,-9.392720353210833e+23,2788
52250,1007.7627563476562,-9.392720353210833e+23,2789
52290,1007.7767333984375,-9.392720353210833e+23,2789
52330,1007.7699584960938,-9.392720353210833e+23,2789
52350,1007.76025390625,-9.392720353210833e+23,2789
53230,1007.7395629882812,-9.392720353210833e+23,2791
53250,1007.7616577148438,-9.392720353210833e+23,2792
53290,1007.7777099609375,-9.392720353210833e+23,2792
53340,1007.7684326171875,-9.392720353210833e+23,2792
53360,1007.7684326171875,-9.392720353210833e+23,2792
54240,1007.78759765625,-9.392720353210833e+23,2795
54260,1007.760498046875,-9.392720353210833e+23,2795
54300,1007.7774047851562,-9.392720353210833e+23,2795
54340,1007.7859497070312,-9.392720353210833e+23,2796
54370,1007.7969360351562,-9.392720353210833e+23,2797
55240,1007.7775268554688,-9.392720353210833e+23,2797
55260,1007.7449340820312,-9.392720353210833e+23,2798
55300,1007.764404296875,-9.392720353210833e+23,2798
55360,1007.7716064453125,-9.392720353210833e+23,2798
56240,1007.7703857421875,-9.392720353210833e+23,2799
56260,1007.7432861328125,-9.392720353210833e+23,2799
56300,1007.7606811523438,-9.392720353210833e+23,2799
56350,1007.78564453125,-9.392720353210833e+23,2800
56370,1007.7750854492188,-9.392720353210833e+23,2800
57250,1007.7738647460938,-9.392720353210833e+23,2801
59260,1007.7998657226562,-9.392720353210833e+23,2806
59270,1007.7562866210938,-9.392720353210833e+23,2807
59280,1007.7562866210938,-9.392720353210833e+23,2807
59290,1007.7664184570312,-9.392720353210833e+23,2807
59300,1007.7664184570312,-9.392720353210833e+23,2807
59320,1007.7930908203125,-9.392720353210833e+23,2806
59330,1007.7930908203125,-9.392720353210833e+23,2806
59330,1007.7867431640625,-9.392720353210833e+23,2807
59340,1007.7867431640625,-9.392720353210833e+23,2807
59350,1007.7592163085938,-9.392720353210833e+23,2806
59360,1007.7592163085938,-9.392720353210833e+23,2806
59360,1007.7592163085938,-9.392720353210833e+23,2806
59380,1007.8040771484375,-9.392720353210833e+23,2807
60250,1007.75927734375,-9.392720353210833e+23,2808
60280,1007.773681640625,-9.392720353210833e+23,2809
60310,1007.7906494140625,-9.392720353210833e+23,2809
60360,1007.7474365234375,-9.392720353210833e+23,2809
60390,1007.7775268554688,-9.392720353210833e+23,2809
60410,1007.7952880859375,-9.392720353210833e+23,2810
61260,1007.7496337890625,-9.392720353210833e+23,2811
61280,1007.7500610351562,-9.392720353210833e+23,2811
61310,1007.7652587890625,-9.392720353210833e+23,2810
61360,1007.7555541992188,-9.392720353210833e+23,2810
61380,1007.8080444335938,-9.392720353210833e+23,2811
62260,1007.7644653320312,-9.392720353210833e+23,2812
62290,1007.7687377929688,-9.392720353210833e+23,2812
62320,1007.7517700195312,-9.392720353210833e+23,2812
62360,1007.7589721679688,-9.392720353210833e+23,2812
62380,1007.7695922851562,-9.392720353210833e+23,2813
63260,1007.7391357421875,-9.392720353210833e+23,2815
63290,1007.7734375,-9.392720353210833e+23,2815
63320,1007.7823486328125,-9.392720353210833e+23,2814
63370,1007.8009643554688,-9.392720353210833e+23,2815
63390,1007.7827758789062,-9.392720353210833e+23,2814
64260,1007.7539672851562,-9.392720353210833e+23,2815
66270,1007.7888793945312,-9.392720353210833e+23,2822
66300,1007.7681274414062,-9.392720353210833e+23,2822
66330,1007.7473754882812,-9.392720353210833e+23,2821
66380,1007.7313232421875,-9.392720353210833e+23,2822
66400,1007.7130737304688,-9.392720353210833e+23,2821
67280,1007.7601318359375,-9.392720353210833e+23,2823
67300,1007.73388671875,-9.392720353210833e+23,2823
67330,1007.722412109375,-9.392720353210833e+23,2823
67390,1007.7504272460938,-9.392720353210833e+23,2823
67400,1007.74658203125,-9.392720353210833e+23,2823
68280,1007.7675170898438,-9.392720353210833e+23,2815
68300,1007.7315063476562,-9.392720353210833e+23,2814
68340,1007.7509765625,-9.392720353210833e+23,2814
68390,1007.7530517578125,-9.392720353210833e+23,2813
68410,1007.7534790039062,-9.392720353210833e+23,2813
69290,1007.759765625,-9.392720353210833e+23,2811
69290,1007.759765625,-9.392720353210833e+23,2811
69310,1007.7708129882812,-9.392720353210833e+23,2811
70290,1007.7544555664062,-9.392720353210833e+23,2818
70310,1007.7384033203125,-9.392720353210833e+23,2818
70340,1007.7655029296875,-9.392720353210833e+23,2818
70420,1007.7833251953125,-9.392720353210833e+23,2819
70490,1007.788818359375,-9.392720353210833e+23,2820
71290,1007.74658203125,-9.392720353210833e+23,2823
71310,1007.7296142578125,-9.392720353210833e+23,2823
71350,1007.7237548828125,-9.392720353210833e+23,2823
71390,1007.7686157226562,-9.392720353210833e+23,2824
71410,1007.776611328125,-9.392720353210833e+23,2823
72300,1007.7411499023438,-9.392720353210833e+23,2826
73280,1007.7534790039062,-9.392720353210833e+23,2827
73290,1007.700927734375,-9.392720353210833e+23,2826
73310,1007.700927734375,-9.392720353210833e+23,2826
73320,1007.7106323242188,-9.392720353210833e+23,2826
73330,1007.7119750976562,-9.392720353210833e+23,2826
73340,1007.7119750976562,-9.392720353210833e+23,2826
73360,1007.7241821289062,-9.392720353210833e+23,2826
73400,1007.736083984375,-9.392720353210833e+23,2827
73420,1007.7225341796875,-9.392720353210833e+23,2827
74300,1007.762451171875,-9.392720353210833e+23,2830
74330,1007.7344970703125,-9.392720353210833e+23,2830
74360,1007.7315063476562,-9.392720353210833e+23,2830
74410,1007.7620239257812,-9.392720353210833e+23,2830
74430,1007.7340087890625,-9.392720353210833e+23,2829
77320,1007.76513671875,-9.392720353210833e+23,2838
77390,1007.7511596679688,-9.392720353210833e+23,2838
77410,1007.7575073242188,-9.392720353210833e+23,2837
77430,1007.7659912109375,-9.392720353210833e+23,2838
77440,1007.7659912109375,-9.392720353210833e+23,2838
78290,1007.7969360351562,-9.392720353210833e+23,2841
78300,1007.7770385742188,-9.392720353210833e+23,2841
78310,1007.7770385742188,-9.392720353210833e+23,2841
78320,1007.7770385742188,-9.392720353210833e+23,2841
78330,1007.77197265625,-9.392720353210833e+23,2840
78330,1007.77197265625,-9.392720353210833e+23,2840
78340,1007.776611328125,-9.392720353210833e+23,2841
78350,1007.776611328125,-9.392720353210833e+23,2841
78370,1007.7770385742188,-9.392720353210833e+23,2841
78420,1007.7931518554688,-9.392720353210833e+23,2840
78440,1007.7796020507812,-9.392720353210833e+23,2840
79320,1007.7741088867188,-9.392720353210833e+23,2843
79380,1007.7825927734375,-9.392720353210833e+23,2844
79390,1007.7792358398438,-9.392720353210833e+23,2844
79420,1007.7843017578125,-9.392720353210833e+23,2843
79440,1007.7550659179688,-9.392720353210833e+23,2844
80320,1007.7470703125,-9.392720353210833e+23,2845
80340,1007.79833984375,-9.392720353210833e+23,2845
80380,1007.7627563476562,-9.392720353210833e+23,2846
80420,1007.7728881835938,-9.392720353210833e+23,2846
80440,1007.758056640625,-9.392720353210833e+23,2846
81320,1007.783935546875,-9.392720353210833e+23,2847
81980,1007.719970703125,-9.392720353210833e+23,2847
82000,1007.719970703125,-9.392720353210833e+23,2847
82010,1007.7000732421875,-9.392720353210833e+23,2847
82020,1007.7000732421875,-9.392720353210833e+23,2847
82330,1007.7428588867188,-9.392720353210833e+23,2849
82350,1007.752197265625,-9.392720353210833e+23,2848
82390,1007.748779296875,-9.392720353210833e+23,2848
82430,1007.7183227539062,-9.392720353210833e+23,2848
82450,1007.6970825195312,-9.392720353210833e+23,2848
83330,1007.7052001953125,-9.392720353210833e+23,2850
83350,1007.6806030273438,-9.392720353210833e+23,2850
83390,1007.7357177734375,-9.392720353210833e+23,2850
83430,1007.7318725585938,-9.392720353210833e+23,2850
83450,1007.7119750976562,-9.392720353210833e+23,2850
84330,1007.7132568359375,-9.392720353210833e+23,2851
84360,1007.7352905273438,-9.392720353210833e+23,2852
84390,1007.7322998046875,-9.392720353210833e+23,2852
84440,1007.7111206054688,-9.392720353210833e+23,2852
84460,1007.704345703125,-9.392720353210833e+23,2852
85340,1007.6806030273438,-9.392720353210833e+23,2850
86460,1007.6882934570312,-9.392720353210833e+23,2852
86470,1007.7289428710938,-9.392720353210833e+23,2852
86650,1007.7090454101562,-9.392720353210833e+23,2853
86660,1007.71875,-9.392720353210833e+23,2852
86670,1007.71875,-9.392720353210833e+23,2852
86680,1007.71875,-9.392720353210833e+23,2852
86690,1007.6861572265625,-9.392720353210833e+23,2853
86700,1007.7090454101562,-9.392720353210833e+23,2853
86720,1007.7090454101562,-9.392720353210833e+23,2853
87340,1007.7149658203125,-9.392720353210833e+23,2854
87360,1007.7107543945312,-9.392720353210833e+23,2854
87400,1007.73193359375,-9.392720353210833e+23,2854
87450,1007.7310791015625,-9.392720353210833e+23,2854
87470,1007.726806640625,-9.392720353210833e+23,2853
88350,1007.6543579101562,-9.392720353210833e+23,2852
88370,1007.7200317382812,-9.392720353210833e+23,2853
88400,1007.703125,-9.392720353210833e+23,2853
88450,1007.69970703125,-9.392720353210833e+23,2853
88470,1007.6992797851562,-9.392720353210833e+23,2853
89360,1007.7760009765625,-9.392720353210833e+23,2856
89380,1007.7760009765625,-9.392720353210833e+23,2856
89410,1007.783203125,-9.392720353210833e+23,2856
89460,1007.7459106445312,-9.392720353210833e+23,2856
89490,1007.7459106445312,-9.392720353210833e+23,2856
90360,1007.7625122070312,-9.392720353210833e+23,2860
90380,1007.7277221679688,-9.392720353210833e+23,2860
90410,1007.7383422851562,-9.392720353210833e+23,2860
90460,1007.7777709960938,-9.392720353210833e+23,2861
90480,1007.7599487304688,-9.392720353210833e+23,2861
91360,1007.7379150390625,-9.392720353210833e+23,2862
91390,1007.7599487304688,-9.392720353210833e+23,2863
91410,1007.7498168945312,-9.392720353210833e+23,2863
91460,1007.7599487304688,-9.392720353210833e+23,2863
91490,1007.7777709960938,-9.392720353210833e+23,2863
91510,1007.7845458984375,-9.392720353210833e+23,2863
92360,1007.8137817382812,-9.392720353210833e+23,2865
92380,1007.7811889648438,-9.392720353210833e+23,2863
92420,1007.7659301757812,-9.392720353210833e+23,2864
92470,1007.7591552734375,-9.392720353210833e+23,2864
92490,1007.7799072265625,-9.392720353210833e+23,2865
95390,1007.82275390625,-9.392720353210833e+23,2868
95390,1007.82275390625,-9.392720353210833e+23,2868
95990,1007.7960205078125,-9.392720353210833e+23,2868
96000,1007.7960205078125,-9.392720353210833e+23,2868
96010,1007.7879638671875,-9.392720353210833e+23,2867
96020,1007.7879638671875,-9.392720353210833e+23,2867
96030,1007.7879638671875,-9.392720353210833e+23,2867
96030,1007.785888671875,-9.392720353210833e+23,2868
96040,1007.785888671875,-9.392720353210833e+23,2868
96050,1007.7990112304688,-9.392720353210833e+23,2868
96380,1007.806640625,-9.392720353210833e+23,2868
96990,1007.7871704101562,-9.392720353210833e+23,2869
97000,1007.7981567382812,-9.392720353210833e+23,2869
97020,1007.7875366210938,-9.392720353210833e+23,2869
97040,1007.8011474609375,-9.392720353210833e+23,2869
97380,1007.7850341796875,-9.392720353210833e+23,2870
97400,1007.7909545898438,-9.392720353210833e+23,2869
97430,1007.7875366210938,-9.392720353210833e+23,2869
97490,1007.8201904296875,-9.392720353210833e+23,2870
97500,1007.808349609375,-9.392720353210833e+23,2869
98390,1007.7846069335938,-9.392720353210833e+23,2871
98400,1007.8253173828125,-9.392720353210833e+23,2871
98440,1007.8121337890625,-9.392720353210833e+23,2872
98490,1007.78759765625,-9.392720353210833e+23,2871
98510,1007.7935180664062,-9.392720353210833e+23,2871
98530,1007.83251953125,-9.392720353210833e+23,2872
99390,1007.8104858398438,-9.392720353210833e+23,2873
100060,1007.8007202148438,-9.392720353210833e+23,2871
100070,1007.8007202148438,-9.392720353210833e+23,2871
100080,1007.8053588867188,-9.392720353210833e+23,2872
100100,1007.8053588867188,-9.392720353210833e+23,2872
100390,1007.7799682617188,-9.392720353210833e+23,2871
100410,1007.7867431640625,-9.392720353210833e+23,2871
100450,1007.7939453125,-9.392720353210833e+23,2871
100490,1007.8138427734375,-9.392720353210833e+23,2871
100510,1007.827392578125,-9.392720353210833e+23,2871
101400,1007.79052734375,-9.392720353210833e+23,2873
101410,1007.79052734375,-9.392720353210833e+23,2873
101450,1007.7575073242188,-9.392720353210833e+23,2873
101500,1007.8057861328125,-9.392720353210833e+23,2874
101520,1007.771484375,-9.392720353210833e+23,2874
103380,1007.8032836914062,-9.392720353210833e+23,2878
103390,1007.7965087890625,-9.392720353210833e+23,2878
103400,1007.7965087890625,-9.392720353210833e+23,2878
103420,1007.7863159179688,-9.392720353210833e+23,2878
103430,1007.7863159179688,-9.392720353210833e+23,2878
103440,1007.799072265625,-9.392720353210833e+23,2878
103440,1007.799072265625,-9.392720353210833e+23,2878
103460,1007.8206787109375,-9.392720353210833e+23,2879
103500,1007.789306640625,-9.392720353210833e+23,2878
103520,1007.8045654296875,-9.392720353210833e+23,2879
104400,1007.7930908203125,-9.392720353210833e+23,2880
104400,1007.7930908203125,-9.392720353210833e+23,2880
104420,1007.7960815429688,-9.392720353210833e+23,2880
104460,1007.8274536132812,-9.392720353210833e+23,2881
104500,1007.8283081054688,-9.392720353210833e+23,2881
105400,1007.8126220703125,-9.392720353210833e+23,2882
105430,1007.8410034179688,-9.392720353210833e+23,2883
105460,1007.80712890625,-9.392720353210833e+23,2883
105510,1007.81640625,-9.392720353210833e+23,2882
105530,1007.8202514648438,-9.392720353210833e+23,2882
108430,1007.80029296875,-9.392720353210833e+23,2887
110190,1007.87109375,-9.392720353210833e+23,2891
110210,1007.8817138671875,-9.392720353210833e+23,2891
110220,1007.8817138671875,-9.392720353210833e+23,2891
110220,1007.8817138671875,-9.392720353210833e+23,2891
110230,1007.8401489257812,-9.392720353210833e+23,2890
110240,1007.8401489257812,-9.392720353210833e+23,2890
110250,1007.8660278320312,-9.392720353210833e+23,2892
110260,1007.8660278320312,-9.392720353210833e+23,2892
110420,1007.8541259765625,-9.392720353210833e+23,2891
110440,1007.8410034179688,-9.392720353210833e+23,2891
110480,1007.8384399414062,-9.392720353210833e+23,2891
110520,1007.830810546875,-9.392720353210833e+23,2891
110550,1007.8486328125,-9.392720353210833e+23,2891
110570,1007.846923828125,-9.392720353210833e+23,2890
111420,1007.7867431640625,-9.392720353210833e+23,2887
111450,1007.84228515625,-9.392720353210833e+23,2888
111490,1007.8074951171875,-9.392720353210833e+23,2887
111530,1007.8270263671875,-9.392720353210833e+23,2886
111550,1007.830810546875,-9.392720353210833e+23,2887
112430,1007.8172607421875,-9.392720353210833e+23,2887
112450,1007.8456420898438,-9.392720353210833e+23,2888
112490,1007.779541015625,-9.392720353210833e+23,2886
112530,1007.8139038085938,-9.392720353210833e+23,2887
112550,1007.8486328125,-9.392720353210833e+23,2887
113430,1007.8363647460938,-9.392720353210833e+23,2886
113450,1007.8265991210938,-9.392720353210833e+23,2886
113490,1007.8151245117188,-9.392720353210833e+23,2885
113530,1007.808349609375,-9.392720353210833e+23,2885
113550,1007.83251953125,-9.392720353210833e+23,2886
114460,1007.8109130859375,-9.392720353210833e+23,2891
115420,1007.7655029296875,-9.392720353210833e+23,2894
115440,1007.7655029296875,-9.392720353210833e+23,2894
115450,1007.75537109375,-9.392720353210833e+23,2894
115460,1007.75537109375,-9.392720353210833e+23,2894
115490,1007.796875,-9.392720353210833e+23,2895
115540,1007.7883911132812,-9.392720353210833e+23,2894
115560,1007.8303833007812,-9.392720353210833e+23,2895
116440,1007.7646484375,-9.392720353210833e+23,2896
116460,1007.7955932617188,-9.392720353210833e+23,2896
116500,1007.76806640625,-9.392720353210833e+23,2896
116540,1007.7854614257812,-9.392720353210833e+23,2896
116560,1007.7918090820312,-9.392720353210833e+23,2896
117440,1007.7421875,-9.392720353210833e+23,2897
117470,1007.7811889648438,-9.392720353210833e+23,2898
117500,1007.779052734375,-9.392720353210833e+23,2898
117550,1007.7578735351562,-9.392720353210833e+23,2898
117550,1007.7578735351562,-9.392720353210833e+23,2898
117570,1007.7875366210938,-9.392720353210833e+23,2897
117600,1007.7744140625,-9.392720353210833e+23,2898
118450,1007.7841186523438,-9.392720353210833e+23,2899
118470,1007.7883911132812,-9.392720353210833e+23,2900
118500,1007.7777709960938,-9.392720353210833e+23,2900
118550,1007.7637939453125,-9.392720353210833e+23,2899
118570,1007.7739868164062,-9.392720353210833e+23,2899
119450,1007.7892456054688,-9.392720353210833e+23,2900
119470,1007.7841186523438,-9.392720353210833e+23,2901
119510,1007.7828369140625,-9.392720353210833e+23,2901
119550,1007.7841186523438,-9.392720353210833e+23,2901
119570,1007.7803344726562,-9.392720353210833e+23,2901
120450,1007.7938842773438,-9.392720353210833e+23,2903
120480,1007.7625122070312,-9.392720353210833e+23,2903
120510,1007.8112182617188,-9.392720353210833e+23,2903
120560,1007.7832641601562,-9.392720353210833e+23,2903
120580,1007.779052734375,-9.392720353210833e+23,2902
121460,1007.80615234375,-9.392720353210833e+23,2904
121480,1007.7879028320312,-9.392720353210833e+23,2904
121510,1007.8048706054688,-9.392720353210833e+23,2904
121560,1007.81591796875,-9.392720353210833e+23,2904
121590,1007.7989501953125,-9.392720353210833e+23,2904
121610,1007.7777709960938,-9.392720353210833e+23,2904
122460,1007.7654418945312,-9.392720353210833e+23,2904
122490,1007.7807006835938,-9.392720353210833e+23,2905
122520,1007.7662963867188,-9.392720353210833e+23,2905
122560,1007.7840576171875,-9.392720353210833e+23,2905
122590,1007.7802734375,-9.392720353210833e+23,2905
123460,1007.8103637695312,-9.392720353210833e+23,2907
123490,1007.7730712890625,-9.392720353210833e+23,2907
123520,1007.7824096679688,-9.392720353210833e+23,2906
123570,1007.7899780273438,-9.392720353210833e+23,2907
123590,1007.8141479492188,-9.392720353210833e+23,2907
124470,1007.7980346679688,-9.392720353210833e+23,2908
124490,1007.8056640625,-9.392720353210833e+23,2908
124520,1007.8052368164062,-9.392720353210833e+23,2908
124570,1007.8023071289062,-9.392720353210833e+23,2908
124600,1007.7717895507812,-9.392720353210833e+23,2908
124620,1007.7717895507812,-9.392720353210833e+23,2908
125470,1007.8272705078125,-9.392720353210833e+23,2909
125490,1007.783203125,-9.392720353210833e+23,2909
125530,1007.7764282226562,-9.392720353210833e+23,2909
125570,1007.7963256835938,-9.392720353210833e+23,2909
125600,1007.797607421875,-9.392720353210833e+23,2909
126470,1007.7514038085938,-9.392720353210833e+23,2910
126490,1007.7581787109375,-9.392720353210833e+23,2910
126530,1007.7509765625,-9.392720353210833e+23,2910
126570,1007.7755737304688,-9.392720353210833e+23,2910
126600,1007.7547607421875,-9.392720353210833e+23,2910
127480,1007.7916259765625,-9.392720353210833e+23,2912
127500,1007.7776489257812,-9.392720353210833e+23,2912
127530,1007.7818603515625,-9.392720353210833e+23,2912
127590,1007.7814331054688,-9.392720353210833e+23,2912
127600,1007.7674560546875,-9.392720353210833e+23,2912
128480,1007.7687377929688,-9.392720353210833e+23,2912
128500,1007.7623901367188,-9.392720353210833e+23,2913
128540,1007.8208618164062,-9.392720353210833e+23,2913
128590,1007.797119140625,-9.392720353210833e+23,2913
128600,1007.797119140625,-9.392720353210833e+23,2913
129490,1007.7979736328125,-9.392720353210833e+23,2914
129500,1007.7979736328125,-9.392720353210833e+23,2914
129540,1007.81494140625,-9.392720353210833e+23,2914
129590,1007.79541015625,-9.392720353210833e+23,2914
129610,1007.8077392578125,-9.392720353210833e+23,2914
130490,1007.809814453125,-9.392720353210833e+23,2915
130540,1007.8128051757812,-9.392720353210833e+23,2915
130560,1007.8060302734375,-9.392720353210833e+23,2915
130590,1007.8093872070312,-9.392720353210833e+23,2915
130610,1007.7716674804688,-9.392720353210833e+23,2914
131500,1007.7508544921875,-9.392720353210833e+23,2916
131510,1007.7826538085938,-9.392720353210833e+23,2917
131550,1007.7296752929688,-9.392720353210833e+23,2916
131590,1007.7504272460938,-9.392720353210833e+23,2916
131620,1007.7720947265625,-9.392720353210833e+23,2917
132490,1007.7356567382812,-9.392720353210833e+23,2911
132510,1007.7276611328125,-9.392720353210833e+23,2910
132550,1007.7178955078125,-9.392720353210833e+23,2910
132600,1007.7581787109375,-9.392720353210833e+23,2910
132620,1007.7581787109375,-9.392720353210833e+23,2910
133490,1007.7518920898438,-9.392720353210833e+23,2904
133510,1007.7387084960938,-9.392720353210833e+23,2905
133550,1007.7802734375,-9.392720353210833e+23,2905
133600,1007.7824096679688,-9.392720353210833e+23,2904
133620,1007.7764892578125,-9.392720353210833e+23,2905
134500,1007.7930297851562,-9.392720353210833e+23,2903
134520,1007.7858276367188,-9.392720353210833e+23,2902
134550,1007.7625122070312,-9.392720353210833e+23,2903
134600,1007.7959594726562,-9.392720353210833e+23,2902
134620,1007.7824096679688,-9.392720353210833e+23,2902
135500,1007.781982421875,-9.392720353210833e+23,2904
135520,1007.7429809570312,-9.392720353210833e+23,2903
135560,1007.7874755859375,-9.392720353210833e+23,2903
135600,1007.7429809570312,-9.392720353210833e+23,2903
135620,1007.762939453125,-9.392720353210833e+23,2903
136500,1007.7235717773438,-9.392720353210833e+23,2896
136520,1007.7061767578125,-9.392720353210833e+23,2895
136560,1007.7269287109375,-9.392720353210833e+23,2896
136610,1007.7057495117188,-9.392720353210833e+23,2895
136630,1007.705322265625,-9.392720353210833e+23,2895
137510,1007.7316284179688,-9.392720353210833e+23,2890
137530,1007.7808227539062,-9.392720353210833e+23,2891
137560,1007.7431030273438,-9.392720353210833e+23,2891
137610,1007.7333374023438,-9.392720353210833e+23,2891
137630,1007.7799682617188,-9.392720353210833e+23,2891
138510,1007.73583984375,-9.392720353210833e+23,2897
138530,1007.7642211914062,-9.392720353210833e+23,2898
138570,1007.7608642578125,-9.392720353210833e+23,2898
138620,1007.80322265625,-9.392720353210833e+23,2899
138640,1007.7731323242188,-9.392720353210833e+23,2899
138660,1007.751953125,-9.392720353210833e+23,2898
139510,1007.7595825195312,-9.392720353210833e+23,2899
139540,1007.7527465820312,-9.392720353210833e+23,2899
139570,1007.7536010742188,-9.392720353210833e+23,2899
139570,1007.7536010742188,-9.392720353210833e+23,2899
139620,1007.7705688476562,-9.392720353210833e+23,2899
139640,1007.7786254882812,-9.392720353210833e+23,2900
140520,1007.7603759765625,-9.392720353210833e+23,2903
140540,1007.8048706054688,-9.392720353210833e+23,2904
140570,1007.76416015625,-9.392720353210833e+23,2904
140620,1007.7734985351562,-9.392720353210833e+23,2903
140640,1007.7637329101562,-9.392720353210833e+23,2903
141520,1007.767578125,-9.392720353210833e+23,2906
141540,1007.7743530273438,-9.392720353210833e+23,2906
141580,1007.7811279296875,-9.392720353210833e+23,2906
141620,1007.80615234375,-9.392720353210833e+23,2906
141650,1007.7781372070312,-9.392720353210833e+23,2906
142520,1007.7535400390625,-9.392720353210833e+23,2907
142550,1007.7327880859375,-9.392720353210833e+23,2907
142590,1007.7335815429688,-9.392720353210833e+23,2908
142630,1007.739990234375,-9.392720353210833e+23,2907
142650,1007.7306518554688,-9.392720353210833e+23,2908
142680,1007.7200317382812,-9.392720353210833e+23,2908
143650,1007.723876953125,-9.392720353210833e+23,2908
144530,1007.7836303710938,-9.392720353210833e+23,2909
144550,1007.7869873046875,-9.392720353210833e+23,2909
144590,1007.79296875,-9.392720353210833e+23,2909
144630,1007.7951049804688,-9.392720353210833e+23,2908
144660,1007.7760009765625,-9.392720353210833e+23,2909
144690,1007.7861938476562,-9.392720353210833e+23,2909
145540,1007.7603149414062,-9.392720353210833e+23,2909
145560,1007.7844848632812,-9.392720353210833e+23,2910
145590,1007.7747192382812,-9.392720353210833e+23,2910
145640,1007.7916870117188,-9.392720353210833e+23,2910
145660,1007.781494140625,-9.392720353210833e+23,2910
146540,1007.7857055664062,-9.392720353210833e+23,2910
146560,1007.7615356445312,-9.392720353210833e+23,2910
146590,1007.7988891601562,-9.392720353210833e+23,2910
146640,1007.7899780273438,-9.392720353210833e+23,2911
146660,1007.81494140625,-9.392720353210833e+23,2912
147540,1007.7606811523438,-9.392720353210833e+23,2912
147560,1007.7894897460938,-9.392720353210833e+23,2913
147600,1007.7653198242188,-9.392720353210833e+23,2912
147640,1007.7628173828125,-9.392720353210833e+23,2913
147670,1007.7615356445312,-9.392720353210833e+23,2912
148540,1007.7517700195312,-9.392720353210833e+23,2912
148570,1007.748779296875,-9.392720353210833e+23,2913
148600,1007.7492065429688,-9.392720353210833e+23,2913
148650,1007.7526245117188,-9.392720353210833e+23,2913
148670,1007.7356567382812,-9.392720353210833e+23,2913
149550,1007.80517578125,-9.392720353210833e+23,2914
149570,1007.8056030273438,-9.392720353210833e+23,2914
149600,1007.7703857421875,-9.392720353210833e+23,2914
149650,1007.7568359375,-9.392720353210833e+23,2914
149670,1007.7564086914062,-9.392720353210833e+23,2913
150550,1007.78271484375,-9.392720353210833e+23,2915
150570,1007.779296875,-9.392720353210833e+23,2915
150610,1007.78271484375,-9.392720353210833e+23,2915
150650,1007.7822875976562,-9.392720353210833e+23,2915
150680,1007.7517700195312,-9.392720353210833e+23,2915
151550,1007.8106689453125,-9.392720353210833e+23,2915
151580,1007.7788696289062,-9.392720353210833e+23,2915
151610,1007.7860717773438,-9.392720353210833e+23,2915
151660,1007.7852172851562,-9.392720353210833e+23,2914
151680,1007.7738037109375,-9.392720353210833e+23,2916
152560,1007.7970581054688,-9.392720353210833e+23,2917
152580,1007.7894287109375,-9.392720353210833e+23,2917
152610,1007.7767333984375,-9.392720353210833e+23,2917
152660,1007.7800903320312,-9.392720353210833e+23,2917
152690,1007.8009033203125,-9.392720353210833e+23,2918
153560,1007.7783813476562,-9.392720353210833e+23,2918
153590,1007.758056640625,-9.392720353210833e+23,2918
153620,1007.7826538085938,-9.392720353210833e+23,2919
153660,1007.7864379882812,-9.392720353210833e+23,2919
153690,1007.7826538085938,-9.392720353210833e+23,2919
154560,1007.78515625,-9.392720353210833e+23,2920
154590,1007.7783813476562,-9.392720353210833e+23,2920
154620,1007.7991333007812,-9.392720353210833e+23,2921
154670,1007.7919311523438,-9.392720353210833e+23,2920
154690,1007.7749633789062,-9.392720353210833e+23,2920
155570,1007.7618408203125,-9.392720353210833e+23,2921
155590,1007.7741088867188,-9.392720353210833e+23,2920
155620,1007.7809448242188,-9.392720353210833e+23,2920
155670,1007.7651977539062,-9.392720353210833e+23,2921
155690,1007.805908203125,-9.392720353210833e+23,2921
156590,1007.775390625,-9.392720353210833e+23,2921
156630,1007.7749633789062,-9.392720353210833e+23,2920
156670,1007.7987060546875,-9.392720353210833e+23,2920
156700,1007.780517578125,-9.392720353210833e+23,2920
157570,1007.8135986328125,-9.392720353210833e+23,2917
157570,1007.8135986328125,-9.392720353210833e+23,2917
157600,1007.822509765625,-9.392720353210833e+23,2916
157680,1007.8284912109375,-9.392720353210833e+23,2916
157700,1007.8441772460938,-9.392720353210833e+23,2915
158580,1007.7984619140625,-9.392720353210833e+23,2908
158600,1007.7772827148438,-9.392720353210833e+23,2907
158630,1007.7951049804688,-9.392720353210833e+23,2908
158690,1007.8251953125,-9.392720353210833e+23,2908
158700,1007.7870483398438,-9.392720353210833e+23,2907
159590,1007.7971801757812,-9.392720353210833e+23,2911
159600,1007.7848510742188,-9.392720353210833e+23,2912
159640,1007.7674560546875,-9.392720353210833e+23,2912
159690,1007.7894897460938,-9.392720353210833e+23,2913
159700,1007.7886962890625,-9.392720353210833e+23,2912
160590,1007.8145751953125,-9.392720353210833e+23,2909
160610,1007.807373046875,-9.392720353210833e+23,2909
160640,1007.8078002929688,-9.392720353210833e+23,2909
160690,1007.807373046875,-9.392720353210833e+23,2909
160710,1007.807373046875,-9.392720353210833e+23,2909
161590,1007.8323364257812,-9.392720353210833e+23,2914
161610,1007.8348999023438,-9.392720353210833e+23,2914
161640,1007.8314819335938,-9.392720353210833e+23,2914
161690,1007.8043212890625,-9.392720353210833e+23,2914
162700,1007.8255004882812,-9.392720353210833e+23,2916
162700,1007.8255004882812,-9.392720353210833e+23,2916
162710,1007.7564086914062,-9.392720353210833e+23,2915
163590,1007.8302001953125,-9.392720353210833e+23,2915
163650,1007.7470703125,-9.392720353210833e+23,2914
163700,1007.7780151367188,-9.392720353210833e+23,2914
163720,1007.7755126953125,-9.392720353210833e+23,2915
164600,1007.8480224609375,-9.392720353210833e+23,2915
164620,1007.8191528320312,-9.392720353210833e+23,2914
164650,1007.8102416992188,-9.392720353210833e+23,2915
164700,1007.793701171875,-9.392720353210833e+23,2915
164720,1007.793701171875,-9.392720353210833e+23,2915
165600,1007.759765625,-9.392720353210833e+23,2917
165660,1007.7491455078125,-9.392720353210833e+23,2917
165700,1007.7783813476562,-9.392720353210833e+23,2918
165720,1007.7606201171875,-9.392720353210833e+23,2918
166600,1007.7559814453125,-9.392720353210833e+23,2913
166620,1007.7241821289062,-9.392720353210833e+23,2912
166660,1007.7314453125,-9.392720353210833e+23,2912
166710,1007.6970825195312,-9.392720353210833e+23,2912
166730,1007.7466430664062,-9.392720353210833e+23,2914
167610,1007.7330322265625,-9.392720353210833e+23,2918
167630,1007.7262573242188,-9.392720353210833e+23,2918
167660,1007.7169189453125,-9.392720353210833e+23,2918
167710,1007.7699584960938,-9.392720353210833e+23,2917
167730,1007.7508544921875,-9.392720353210833e+23,2918
168610,1007.7605590820312,-9.392720353210833e+23,2920
168630,1007.7326049804688,-9.392720353210833e+23,2919
168670,1007.767333984375,-9.392720353210833e+23,2920
168710,1007.7614135742188,-9.392720353210833e+23,2920
168730,1007.7681884765625,-9.392720353210833e+23,2920
169610,1007.75927734375,-9.392720353210833e+23,2921
169630,1007.7525024414062,-9.392720353210833e+23,2921
169670,1007.7283325195312,-9.392720353210833e+23,2921
169720,1007.7520751953125,-9.392720353210833e+23,2921
169740,1007.7601318359375,-9.392720353210833e+23,2922
170620,1007.74609375,-9.392720353210833e+23,2921
170640,1007.7617797851562,-9.392720353210833e+23,2923
170670,1007.7685546875,-9.392720353210833e+23,2923
170720,1007.7388916015625,-9.392720353210833e+23,2923
170740,1007.72021484375,-9.392720353210833e+23,2922
171620,1007.7638549804688,-9.392720353210833e+23,2924
171640,1007.7770385742188,-9.392720353210833e+23,2924
171680,1007.7796020507812,-9.392720353210833e+23,2923
171720,1007.7592163085938,-9.392720353210833e+23,2923
171740,1007.7787475585938,-9.392720353210833e+23,2923
172620,1007.7520141601562,-9.392720353210833e+23,2923
172640,1007.7396850585938,-9.392720353210833e+23,2924
172680,1007.7630615234375,-9.392720353210833e+23,2923
172730,1007.7396850585938,-9.392720353210833e+23,2924
172750,1007.7566528320312,-9.392720353210833e+23,2924
173630,1007.7855224609375,-9.392720353210833e+23,2925
173650,1007.7719116210938,-9.392720353210833e+23,2925
173650,1007.7719116210938,-9.392720353210833e+23,2925
173690,1007.7659912109375,-9.392720353210833e+23,2925
173730,1007.7888793945312,-9.392720353210833e+23,2925
173750,1007.7888793945312,-9.392720353210833e+23,2925
174640,1007.7604370117188,-9.392720353210833e+23,2926
174660,1007.8155517578125,-9.392720353210833e+23,2926
174700,1007.7816162109375,-9.392720353210833e+23,2926
174740,1007.7892456054688,-9.392720353210833e+23,2927
174760,1007.7642822265625,-9.392720353210833e+23,2926
175640,1007.782470703125,-9.392720353210833e+23,2927
175660,1007.7315673828125,-9.392720353210833e+23,2927
175690,1007.7421875,-9.392720353210833e+23,2927
175740,1007.7625122070312,-9.392720353210833e+23,2927
175760,1007.7913818359375,-9.392720353210833e+23,2928
176640,1007.7672119140625,-9.392720353210833e+23,2928
176660,1007.7947387695312,-9.392720353210833e+23,2928
176700,1007.785400390625,-9.392720353210833e+23,2929
176740,1007.8057861328125,-9.392720353210833e+23,2929
176760,1007.7748413085938,-9.392720353210833e+23,2928
177640,1007.7943115234375,-9.392720353210833e+23,2930
177660,1007.7671508789062,-9.392720353210833e+23,2930
177700,1007.78369140625,-9.392720353210833e+23,2930
177740,1007.7802734375,-9.392720353210833e+23,2930
177760,1007.7633056640625,-9.392720353210833e+23,2930
178640,1007.7989501953125,-9.392720353210833e+23,2931
178660,1007.7849731445312,-9.392720353210833e+23,2930
178700,1007.7951049804688,-9.392720353210833e+23,2930
178750,1007.7900390625,-9.392720353210833e+23,2931
178770,1007.7921752929688,-9.392720353210833e+23,2931
179650,1007.7611694335938,-9.392720353210833e+23,2932
179670,1007.7886962890625,-9.392720353210833e+23,2933
179700,1007.8018798828125,-9.392720353210833e+23,2932
179750,1007.7395629882812,-9.392720353210833e+23,2932
179770,1007.8095092773438,-9.392720353210833e+23,2933
180650,1007.7958984375,-9.392720353210833e+23,2933
180670,1007.8023071289062,-9.392720353210833e+23,2933
180710,1007.8048706054688,-9.392720353210833e+23,2932
180760,1007.7857666015625,-9.392720353210833e+23,2933
180780,1007.7335815429688,-9.392720353210833e+23,2932
183660,1007.8043212890625,-9.392720353210833e+23,2936
183680,1007.7670288085938,-9.392720353210833e+23,2936
183720,1007.7864990234375,-9.392720353210833e+23,2935
183760,1007.7996826171875,-9.392720353210833e+23,2935
183790,1007.7979736328125,-9.392720353210833e+23,2936
184660,1007.7767333984375,-9.392720353210833e+23,2938
184690,1007.758056640625,-9.392720353210833e+23,2937
184720,1007.7886352539062,-9.392720353210833e+23,2937
184720,1007.7886352539062,-9.392720353210833e+23,2937
185190,1007.7652587890625,-9.392720353210833e+23,2937
185200,1007.7826538085938,-9.392720353210833e+23,2937
185670,1007.7962646484375,-9.392720353210833e+23,2937
186990,1007.7957763671875,-9.392720353210833e+23,2939
187000,1007.7957763671875,-9.392720353210833e+23,2939
187010,1007.8199462890625,-9.392720353210833e+23,2939
187020,1007.8199462890625,-9.392720353210833e+23,2939
187030,1007.8199462890625,-9.392720353210833e+23,2939
187040,1007.7890014648438,-9.392720353210833e+23,2939
187050,1007.7890014648438,-9.392720353210833e+23,2939
187060,1007.7962036132812,-9.392720353210833e+23,2939
187670,1007.8178100585938,-9.392720353210833e+23,2940
187700,1007.7906494140625,-9.392720353210833e+23,2940
187730,1007.7974243164062,-9.392720353210833e+23,2940
187780,1007.7991943359375,-9.392720353210833e+23,2939
187800,1007.7804565429688,-9.392720353210833e+23,2940
188690,1007.7630615234375,-9.392720353210833e+23,2940
190670,1007.7969360351562,-9.392720353210833e+23,2944
190670,1007.7659301757812,-9.392720353210833e+23,2944
190680,1007.7659301757812,-9.392720353210833e+23,2944
190700,1007.769775390625,-9.392720353210833e+23,2944
190710,1007.769775390625,-9.392720353210833e+23,2944
190720,1007.7557983398438,-9.392720353210833e+23,2944
190730,1007.7557983398438,-9.392720353210833e+23,2944
190730,1007.7557983398438,-9.392720353210833e+23,2944
190740,1007.7791137695312,-9.392720353210833e+23,2943
190750,1007.7791137695312,-9.392720353210833e+23,2943
190760,1007.7791137695312,-9.392720353210833e+23,2943
190790,1007.7417602539062,-9.392720353210833e+23,2943
190810,1007.769775390625,-9.392720353210833e+23,2944
191690,1007.8023681640625,-9.392720353210833e+23,2945
191710,1007.78759765625,-9.392720353210833e+23,2944
191740,1007.79052734375,-9.392720353210833e+23,2944
191790,1007.7765502929688,-9.392720353210833e+23,2944
191810,1007.7765502929688,-9.392720353210833e+23,2944
192690,1007.779052734375,-9.392720353210833e+23,2945
192710,1007.779052734375,-9.392720353210833e+23,2945
192750,1007.77734375,-9.392720353210833e+23,2946
192800,1007.7866821289062,-9.392720353210833e+23,2946
192810,1007.7976684570312,-9.392720353210833e+23,2946
193690,1007.767578125,-9.392720353210833e+23,2947
193720,1007.77734375,-9.392720353210833e+23,2946
193750,1007.7781372070312,-9.392720353210833e+23,2947
193800,1007.7603759765625,-9.392720353210833e+23,2946
193820,1007.7959594726562,-9.392720353210833e+23,2947
194690,1007.7933959960938,-9.392720353210833e+23,2948
194720,1007.7959594726562,-9.392720353210833e+23,2947
194750,1007.7764282226562,-9.392720353210833e+23,2948
194800,1007.7760009765625,-9.392720353210833e+23,2948
194820,1007.7620239257812,-9.392720353210833e+23,2947
195700,1007.7645263671875,-9.392720353210833e+23,2949
195720,1007.7916870117188,-9.392720353210833e+23,2949
195750,1007.7921142578125,-9.392720353210833e+23,2949
195800,1007.7852783203125,-9.392720353210833e+23,2949
195820,1007.7950439453125,-9.392720353210833e+23,2949
196830,1007.8306884765625,-9.392720353210833e+23,2950
197700,1007.7440795898438,-9.392720353210833e+23,2951
197730,1007.7928466796875,-9.392720353210833e+23,2952
197760,1007.819580078125,-9.392720353210833e+23,2951
197810,1007.8072509765625,-9.392720353210833e+23,2952
197830,1007.7984008789062,-9.392720353210833e+23,2951
198710,1007.780517578125,-9.392720353210833e+23,2952
198730,1007.79833984375,-9.392720353210833e+23,2953
198770,1007.8021240234375,-9.392720353210833e+23,2953
198810,1007.794921875,-9.392720353210833e+23,2953
198830,1007.79833984375,-9.392720353210833e+23,2953
199710,1007.77880859375,-9.392720353210833e+23,2953
199730,1007.7792358398438,-9.392720353210833e+23,2954
199770,1007.7860107421875,-9.392720353210833e+23,2954
199810,1007.7936401367188,-9.392720353210833e+23,2954
199840,1007.7987670898438,-9.392720353210833e+23,2953
200710,1007.8368530273438,-9.392720353210833e+23,2956
200740,1007.857666015625,-9.392720353210833e+23,2956
200770,1007.7850952148438,-9.392720353210833e+23,2955
200820,1007.7850952148438,-9.392720353210833e+23,2955
200850,1007.8088989257812,-9.392720353210833e+23,2955
200870,1007.8046264648438,-9.392720353210833e+23,2955
201720,1007.8338623046875,-9.392720353210833e+23,2956
201740,1007.792724609375,-9.392720353210833e+23,2956
201770,1007.7821044921875,-9.392720353210833e+23,2955
201820,1007.82666015625,-9.392720353210833e+23,2956
201840,1007.8309326171875,-9.392720353210833e+23,2956
202720,1007.8015747070312,-9.392720353210833e+23,2957
202740,1007.8325805664062,-9.392720353210833e+23,2957
202780,1007.776611328125,-9.392720353210833e+23,2956
202820,1007.7816772460938,-9.392720353210833e+23,2957
202840,1007.78759765625,-9.392720353210833e+23,2957
203730,1007.8121337890625,-9.392720353210833e+23,2959
204170,1007.753173828125,-9.392720353210833e+23,2958
204400,1007.730224609375,-9.392720353210833e+23,2959
204850,1007.7726440429688,-9.392720353210833e+23,2960
204890,1007.785400390625,-9.392720353210833e+23,2959
204900,1007.785400390625,-9.392720353210833e+23,2959
204910,1007.7794189453125,-9.392720353210833e+23,2960
204910,1007.7794189453125,-9.392720353210833e+23,2960
204920,1007.7794189453125,-9.392720353210833e+23,2960
204930,1007.7998046875,-9.392720353210833e+23,2960
204930,1007.7998046875,-9.392720353210833e+23,2960
205730,1007.8137817382812,-9.392720353210833e+23,2960
205750,1007.8171997070312,-9.392720353210833e+23,2960
205790,1007.8095703125,-9.392720353210833e+23,2960
205840,1007.8057861328125,-9.392720353210833e+23,2959
205860,1007.81298828125,-9.392720353210833e+23,2960
206730,1007.859130859375,-9.392720353210833e+23,2963
206760,1007.8972778320312,-9.392720353210833e+23,2963
206790,1007.8552856445312,-9.392720353210833e+23,2963
206840,1007.8506469726562,-9.392720353210833e+23,2962
206860,1007.8552856445312,-9.392720353210833e+23,2963
207740,1007.8947143554688,-9.392720353210833e+23,2964
207760,1007.887939453125,-9.392720353210833e+23,2964
207800,1007.8912963867188,-9.392720353210833e+23,2964
207840,1007.929931640625,-9.392720353210833e+23,2965
207860,1007.929931640625,-9.392720353210833e+23,2965
208740,1007.7716064453125,-9.392720353210833e+23,2966
208740,1007.7716064453125,-9.392720353210833e+23,2966
208760,1007.755859375,-9.392720353210833e+23,2966
208800,1007.7893676757812,-9.392720353210833e+23,2966
208840,1007.764404296875,-9.392720353210833e+23,2965
208870,1007.7550048828125,-9.392720353210833e+23,2966
209740,1007.763916015625,-9.392720353210833e+23,2967
209770,1007.7850952148438,-9.392720353210833e+23,2968
209800,1007.78466796875,-9.392720353210833e+23,2967
209850,1007.7914428710938,-9.392720353210833e+23,2967
209870,1007.7821044921875,-9.392720353210833e+23,2968
210750,1007.7943725585938,-9.392720353210833e+23,2969
210770,1007.7714233398438,-9.392720353210833e+23,2970
210800,1007.7833251953125,-9.392720353210833e+23,2969
210850,1007.8410034179688,-9.392720353210833e+23,2971
210870,1007.7811889648438,-9.392720353210833e+23,2969
211750,1007.8316650390625,-9.392720353210833e+23,2971
211770,1007.8240356445312,-9.392720353210833e+23,2971
211810,1007.779052734375,-9.392720353210833e+23,2970
211850,1007.8138427734375,-9.392720353210833e+23,2971
211870,1007.8142700195312,-9.392720353210833e+23,2971
212750,1007.778564453125,-9.392720353210833e+23,2972
212780,1007.794189453125,-9.392720353210833e+23,2973
212810,1007.7789916992188,-9.392720353210833e+23,2972
212860,1007.7819213867188,-9.392720353210833e+23,2972
212880,1007.8307495117188,-9.392720353210833e+23,2973
213760,1007.7916259765625,-9.392720353210833e+23,2974
213780,1007.8145751953125,-9.392720353210833e+23,2973
213810,1007.8060302734375,-9.392720353210833e+23,2974
213860,1007.7980346679688,-9.392720353210833e+23,2973
213890,1007.8170776367188,-9.392720353210833e+23,2975
214790,1007.774169921875,-9.392720353210833e+23,2975
214810,1007.7677612304688,-9.392720353210833e+23,2976
214860,1007.7572021484375,-9.392720353210833e+23,2975
214880,1007.787353515625,-9.392720353210833e+23,2975
215760,1007.773681640625,-9.392720353210833e+23,2977
215780,1007.7562866210938,-9.392720353210833e+23,2977
215820,1007.7880859375,-9.392720353210833e+23,2978
215860,1007.766845703125,-9.392720353210833e+23,2977
215890,1007.766845703125,-9.392720353210833e+23,2977
216770,1007.7252197265625,-9.392720353210833e+23,2979
216790,1007.7396240234375,-9.392720353210833e+23,2979
216820,1007.7498168945312,-9.392720353210833e+23,2979
216870,1007.7693481445312,-9.392720353210833e+23,2979
216900,1007.7774047851562,-9.392720353210833e+23,2979
217770,1007.7472534179688,-9.392720353210833e+23,2980
217800,1007.7637939453125,-9.392720353210833e+23,2979
217830,1007.77099609375,-9.392720353210833e+23,2980
217870,1007.732421875,-9.392720353210833e+23,2979
217900,1007.7090454101562,-9.392720353210833e+23,2979
218770,1007.7157592773438,-9.392720353210833e+23,2981
218800,1007.687744140625,-9.392720353210833e+23,2981
218830,1007.726318359375,-9.392720353210833e+23,2981
218880,1007.7387084960938,-9.392720353210833e+23,2981
218900,1007.74462890625,-9.392720353210833e+23,2980
219780,1007.7449951171875,-9.392720353210833e+23,2982
219800,1007.7271728515625,-9.392720353210833e+23,2982
219830,1007.73779296875,-9.392720353210833e+23,2982
219890,1007.7203979492188,-9.392720353210833e+23,2982
219900,1007.7203979492188,-9.392720353210833e+23,2982
220790,1007.777587890625,-9.392720353210833e+23,2984
220800,1007.777587890625,-9.392720353210833e+23,2984
220840,1007.76318359375,-9.392720353210833e+23,2983
220890,1007.7699584960938,-9.392720353210833e+23,2983
220900,1007.7666015625,-9.392720353210833e+23,2983
221790,1007.7487182617188,-9.392720353210833e+23,2985
221810,1007.7626953125,-9.392720353210833e+23,2985
221840,1007.7584838867188,-9.392720353210833e+23,2984
221890,1007.7550659179688,-9.392720353210833e+23,2984
222910,1007.7787475585938,-9.392720353210833e+23,2986
223790,1007.7774047851562,-9.392720353210833e+23,2988
223810,1007.7774047851562,-9.392720353210833e+23,2988
223850,1007.7252197265625,-9.392720353210833e+23,2987
223890,1007.76806640625,-9.392720353210833e+23,2988
223910,1007.7630004882812,-9.392720353210833e+23,2987
224790,1007.7901611328125,-9.392720353210833e+23,2987
224810,1007.796142578125,-9.392720353210833e+23,2987
224850,1007.7833862304688,-9.392720353210833e+23,2987
224900,1007.7515869140625,-9.392720353210833e+23,2986
224920,1007.7694091796875,-9.392720353210833e+23,2987
225800,1007.7523803710938,-9.392720353210833e+23,2987
225820,1007.7736206054688,-9.392720353210833e+23,2987
225900,1007.7362670898438,-9.392720353210833e+23,2987
225920,1007.7630004882812,-9.392720353210833e+23,2987
226800,1007.7679443359375,-9.392720353210833e+23,2990
226820,1007.7857666015625,-9.392720353210833e+23,2991
226860,1007.7637329101562,-9.392720353210833e+23,2990
226900,1007.7811279296875,-9.392720353210833e+23,2990
226920,1007.7989501953125,-9.392720353210833e+23,2990
227800,1007.8009643554688,-9.392720353210833e+23,2992
227820,1007.7920532226562,-9.392720353210833e+23,2993
227860,1007.7772216796875,-9.392720353210833e+23,2992
228810,1007.8124389648438,-9.392720353210833e+23,2993
228830,1007.7852172851562,-9.392720353210833e+23,2993
228860,1007.7728881835938,-9.392720353210833e+23,2993
228910,1007.7852172851562,-9.392720353210833e+23,2993
228940,1007.8030395507812,-9.392720353210833e+23,2993
228960,1007.81201171875,-9.392720353210833e+23,2992
229810,1007.8280639648438,-9.392720353210833e+23,2994
229830,1007.8140869140625,-9.392720353210833e+23,2994
229860,1007.8115234375,-9.392720353210833e+23,2994
229910,1007.8140869140625,-9.392720353210833e+23,2994
229930,1007.7941284179688,-9.392720353210833e+23,2994
230810,1007.8097534179688,-9.392720353210833e+23,2995
230830,1007.7689819335938,-9.392720353210833e+23,2995
230870,1007.7659912109375,-9.392720353210833e+23,2995
230920,1007.7991333007812,-9.392720353210833e+23,2995
230940,1007.7833862304688,-9.392720353210833e+23,2996
231820,1007.7884521484375,-9.392720353210833e+23,2997
231840,1007.78125,-9.392720353210833e+23,2996
231870,1007.8121948242188,-9.392720353210833e+23,2997
231920,1007.795654296875,-9.392720353210833e+23,2997
231940,1007.7820434570312,-9.392720353210833e+23,2997
232820,1007.7938842773438,-9.392720353210833e+23,2998
232840,1007.79345703125,-9.392720353210833e+23,2998
232880,1007.7730712890625,-9.392720353210833e+23,2998
232920,1007.7553100585938,-9.392720353210833e+23,2997
232940,1007.765869140625,-9.392720353210833e+23,2997
233820,1007.7989501953125,-9.392720353210833e+23,2999
233840,1007.7603149414062,-9.392720353210833e+23,2998
233880,1007.7879028320312,-9.392720353210833e+23,2998
233930,1007.78955078125,-9.392720353210833e+23,2999
233950,1007.77978515625,-9.392720353210833e+23,3000
234830,1007.8043823242188,-9.392720353210833e+23,3000
234850,1007.8078002929688,-9.392720353210833e+23,3000
234890,1007.8213500976562,-9.392720353210833e+23,3000
234930,1007.80859375,-9.392720353210833e+23,3001
234950,1007.810791015625,-9.392720353210833e+23,3000
235830,1007.7928466796875,-9.392720353210833e+23,3001
235850,1007.8060302734375,-9.392720353210833e+23,3001
235890,1007.7924194335938,-9.392720353210833e+23,3001
235930,1007.8204345703125,-9.392720353210833e+23,3002
235950,1007.7818603515625,-9.392720353210833e+23,3001
236830,1007.8153076171875,-9.392720353210833e+23,3003
236850,1007.822509765625,-9.392720353210833e+23,3003
236890,1007.8118896484375,-9.392720353210833e+23,3003
236940,1007.809326171875,-9.392720353210833e+23,3003
236960,1007.809326171875,-9.392720353210833e+23,3003
237840,1007.8121948242188,-9.392720353210833e+23,3005
237860,1007.8075561523438,-9.392720353210833e+23,3004
237890,1007.7765502929688,-9.392720353210833e+23,3004
237940,1007.8045654296875,-9.392720353210833e+23,3004
237960,1007.8173217773438,-9.392720353210833e+23,3004
238840,1007.7960205078125,-9.392720353210833e+23,3005
238860,1007.7820434570312,-9.392720353210833e+23,3005
238890,1007.7994384765625,-9.392720353210833e+23,3005
238940,1007.8168334960938,-9.392720353210833e+23,3006
238960,1007.7654418945312,-9.392720353210833e+23,3005
239840,1007.8218383789062,-9.392720353210833e+23,3007
239860,1007.7603149414062,-9.392720353210833e+23,3006
240850,1007.8107299804688,-9.392720353210833e+23,3008
240870,1007.8405151367188,-9.392720353210833e+23,3008
240900,1007.8001098632812,-9.392720353210833e+23,3008
240950,1007.8276977539062,-9.392720353210833e+23,3008
240970,1007.8209228515625,-9.392720353210833e+23,3008
241850,1007.7817993164062,-9.392720353210833e+23,3009
241870,1007.7711791992188,-9.392720353210833e+23,3009
241910,1007.7614135742188,-9.392720353210833e+23,3009
241950,1007.76904296875,-9.392720353210833e+23,3010
241950,1007.76904296875,-9.392720353210833e+23,3010
241970,1007.793212890625,-9.392720353210833e+23,3010
242850,1007.8450317382812,-9.392720353210833e+23,3010
242870,1007.7936401367188,-9.392720353210833e+23,3010
242910,1007.80126953125,-9.392720353210833e+23,3011
242950,1007.822021484375,-9.392720353210833e+23,3011
242970,1007.7948608398438,-9.392720353210833e+23,3011
243860,1007.78076171875,-9.392720353210833e+23,3013
243880,1007.80029296875,-9.392720353210833e+23,3012
243910,1007.7943115234375,-9.392720353210833e+23,3013
243960,1007.7943115234375,-9.392720353210833e+23,3013
243980,1007.7901000976562,-9.392720353210833e+23,3012
244860,1007.8031616210938,-9.392720353210833e+23,3014
244860,1007.8031616210938,-9.392720353210833e+23,3014
246880,1007.8038940429688,-9.392720353210833e+23,3016
246890,1007.8038940429688,-9.392720353210833e+23,3016
246910,1007.8009033203125,-9.392720353210833e+23,3017
