time_boot_ms,q1,q2,q3,q4,rollspeed,pitchspeed,yawspeed
0,-0.7396939992904663,0.603975236415863,-0.050498031079769135,0.2866169512271881,0.0,0.0,0.0
0,-0.7153754830360413,0.6745206713676453,-0.008976942859590054,0.172662153840065,0.0,0.0,0.0
0,-0.6830077171325684,0.7227739691734314,0.030841456726193428,0.08234518021345139,0.0,0.0,0.0
0,-0.6744604110717773,0.7290462255477905,0.03093733824789524,0.09628716111183167,0.0,0.0,0.0
0,-0.6886951923370361,0.6974026560783386,-0.004444933030754328,0.1895841658115387,0.0,0.0,0.0
0,-0.6991586089134216,0.6581318378448486,-0.031759101897478104,0.2714122235774994,0.0,0.0,0.0
0,-0.6901088953018188,0.6670650243759155,-0.013061012141406536,0.27429279685020447,0.0,0.0,0.0
0,-0.6462492942810059,0.7321757674217224,0.04077316075563431,0.20310448110103607,0.0,0.0,0.0
0,-0.5960164070129395,0.784578263759613,0.06563606858253479,0.14672115445137024,0.0,0.0,0.0
0,-0.557984471321106,0.8125511407852173,0.04595845937728882,0.1514458954334259,0.0,0.0,0.0
0,-0.5506714582443237,0.8027865886688232,0.001547378720715642,0.2211921364068985,0.0,0.0,0.0
0,-0.5596166253089905,0.7746527791023254,-0.01906576380133629,0.28811898827552795,0.0,0.0,0.0
0,-0.5646508932113647,0.7698325514793396,0.010518374852836132,0.29163411259651184,0.0,0.0,0.0
0,-0.5439798831939697,0.7997597455978394,0.06502359360456467,0.23848628997802734,0.0,0.0,0.0
0,-0.5439798831939697,0.7997597455978394,0.06502359360456467,0.23848628997802734,0.0,0.0,0.0
0,-0.43909183144569397,0.8564561009407043,0.013100284151732922,0.26484617590904236,0.0,0.0,0.0
0,-0.43992704153060913,0.8435442447662354,-0.018114935606718063,0.3019988536834717,0.0,0.0,0.0
0,-0.45219022035598755,0.843015730381012,-0.009753086604177952,0.2852843403816223,0.0,0.0,0.0
0,-0.4546849727630615,0.8594070076942444,0.027229513972997665,0.22488567233085632,0.0,0.0,0.0
0,-0.44283032417297363,0.8756957054138184,0.049723874777555466,0.17669233679771423,0.0,0.0,0.0
0,-0.4223809838294983,0.8840774893760681,0.02726108767092228,0.18945255875587463,0.0,0.0,0.0
0,-0.40062376856803894,0.8818353414535522,-0.01989545300602913,0.24105021357536316,0.0,0.0,0.0
0,-0.3771827220916748,0.8814252614974976,-0.05184834077954292,0.2734387218952179,0.0,0.0,0.0
0,-0.35371068120002747,0.8975441455841064,-0.039424680173397064,0.253738135099411,0.0,0.0,0.0
0,-0.33113205432891846,0.9191437363624573,0.0002379111247137189,0.2053297758102417,0.0,0.0,0.0
0,-0.30308228731155396,0.9329691529273987,0.0324140228331089,0.182464599609375,0.0,0.0,0.0
0,-0.271443247795105,0.936148464679718,0.03825024142861366,0.21240457892417908,0.0,0.0,0.0
0,-0.23987242579460144,0.9311704039573669,0.024251969531178474,0.267261803150177,0.0,0.0,0.0
0,-0.21743322908878326,0.9298672080039978,0.00435963599011302,0.29100701212882996,0.0,0.0,0.0
0,-0.2074407935142517,0.9410402774810791,-0.007514067925512791,0.2607472240924835,0.0,0.0,0.0
0,-0.19996914267539978,0.9554933905601501,-0.011835526674985886,0.20866000652313232,0.0,0.0,0.0
0,-0.19533009827136993,0.9616509079933167,-0.01995086297392845,0.18251048028469086,0.0,0.0,0.0
0,-0.18751874566078186,0.9585118889808655,-0.04011952877044678,0.20277181267738342,0.0,0.0,0.0
0,-0.1753525286912918,0.9504363536834717,-0.06535572558641434,0.24142345786094666,0.0,0.0,0.0
0,-0.16216421127319336,0.9483570456504822,-0.0799873024225235,0.2540827989578247,0.0,0.0,0.0
0,-0.14287251234054565,0.958690345287323,-0.07619378715753555,0.22655943036079407,0.0,0.0,0.0
0,-0.11240074783563614,0.9719572067260742,-0.06566798686981201,0.18704938888549805,0.0,0.0,0.0
0,-0.07667601853609085,0.9785599708557129,-0.05517570301890373,0.1735837161540985,0.0,0.0,0.0
0,-0.04282715171575546,0.9766290187835693,-0.046738140285015106,0.1970060169696808,0.0,0.0,0.0
0,-0.013378756120800972,0.9705359935760498,-0.04014573618769646,0.23000793159008026,0.0,0.0,0.0
0,0.013398765586316586,0.9688889384269714,-0.0369720421731472,0.23736506700515747,0.0,0.0,0.0
0,0.040072523057460785,0.9740313291549683,-0.03855793923139572,0.21167168021202087,0.0,0.0,0.0
0,0.06620412319898605,0.9789627194404602,-0.04326099902391434,0.1789187490940094,0.0,0.0,0.0
0,0.08991619199514389,0.9782373309135437,-0.04948921874165535,0.1707397997379303,0.0,0.0,0.0
0,0.1089790090918541,0.9720630645751953,-0.05583879351615906,0.19165931642055511,0.0,0.0,0.0
0,0.12409203499555588,0.9642874002456665,-0.06419675052165985,0.217403382062912,0.0,0.0,0.0
0,0.1382637917995453,0.9608442783355713,-0.0762951523065567,0.2201700061559677,0.0,0.0,0.0
0,0.15540711581707,0.9620077610015869,-0.09040436148643494,0.19710694253444672,0.0,0.0,0.0
0,0.17631995677947998,0.9622593522071838,-0.10232791304588318,0.17067991197109222,0.0,0.0,0.0
0,0.2268497198820114,0.9490190148353577,-0.10742790997028351,0.18164712190628052,0.0,0.0,0.0
0,0.24936315417289734,0.9405800104141235,-0.10692296922206879,0.19577834010124207,0.0,0.0,0.0
0,0.27155596017837524,0.9350718259811401,-0.1125982329249382,0.189351424574852,0.0,0.0,0.0
0,0.29435113072395325,0.9313240051269531,-0.12265945971012115,0.1660788506269455,0.0,0.0,0.0
0,0.3182944655418396,0.9255948066711426,-0.1307857781648636,0.14660237729549408,0.0,0.0,0.0
0,0.3429369032382965,0.916675865650177,-0.13255302608013153,0.14547717571258545,0.0,0.0,0.0
0,0.3429369032382965,0.916675865650177,-0.13255302608013153,0.14547717571258545,0.0,0.0,0.0
0,0.3664122521877289,0.9056971669197083,-0.13139373064041138,0.1575591117143631,0.0,0.0,0.0
0,0.3872946500778198,0.8950213193893433,-0.1350635439157486,0.16532348096370697,0.0,0.0,0.0
0,0.40589940547943115,0.8862256407737732,-0.147029846906662,0.15769065916538239,0.0,0.0,0.0
0,0.42388513684272766,0.8778389096260071,-0.1628284603357315,0.14085960388183594,0.0,0.0,0.0
0,0.44261395931243896,0.8680482506752014,-0.17468100786209106,0.129251629114151,0.0,0.0,0.0
0,0.4633561670780182,0.856051504611969,-0.17883194983005524,0.13088268041610718,0.0,0.0,0.0
0,0.4845053255558014,0.842799186706543,-0.17960645258426666,0.1389949768781662,0.0,0.0,0.0
0,0.5041767358779907,0.8299543261528015,-0.18420195579528809,0.14030443131923676,0.0,0.0,0.0
0,0.5234525799751282,0.817013144493103,-0.1954176425933838,0.1301264762878418,0.0,0.0,0.0
0,0.5432003736495972,0.8032206892967224,-0.20783105492591858,0.11493521928787231,0.0,0.0,0.0
0,0.5865334868431091,0.7718478441238403,-0.2147485762834549,0.10366491973400116,0.0,0.0,0.0
0,0.6072044968605042,0.7556818127632141,-0.2142930030822754,0.10469125956296921,0.0,0.0,0.0
0,0.625903844833374,0.7391575574874878,-0.21976794302463531,0.10112636536359787,0.0,0.0,0.0
0,0.625903844833374,0.7391575574874878,-0.21976794302463531,0.10112636536359787,0.0,0.0,0.0
0,0.6435707211494446,0.7215359807014465,-0.23117376863956451,0.09162463992834091,0.0,0.0,0.0
0,0.6615323424339294,0.7024430632591248,-0.24276131391525269,0.08154371380805969,0.0,0.0,0.0
0,0.6800827980041504,0.6827490329742432,-0.24941600859165192,0.0759391188621521,0.0,0.0,0.0
0,0.6981103420257568,0.6635656952857971,-0.2517680525779724,0.07462514191865921,0.0,0.0,0.0
0,0.7150934934616089,0.6441518068313599,-0.2548672556877136,0.07338966429233551,0.0,0.0,0.0
0,0.7329109907150269,0.6209895014762878,-0.2632168233394623,0.0675579160451889,0.0,0.0,0.0
0,0.7491026520729065,0.597916841506958,-0.27290770411491394,0.05912112072110176,0.0,0.0,0.0
0,0.7636809349060059,0.5767164826393127,-0.27958473563194275,0.05152755603194237,0.0,0.0,0.0
0,0.7796789407730103,0.553565502166748,-0.2833316922187805,0.04496964067220688,0.0,0.0,0.0
0,0.794912576675415,0.5304572582244873,-0.2859310507774353,0.040070004761219025,0.0,0.0,0.0
0,0.8106682896614075,0.5033513307571411,-0.2913585603237152,0.034604284912347794,0.0,0.0,0.0
0,0.8240323066711426,0.4769660532474518,-0.2987654507160187,0.02908799797296524,0.0,0.0,0.0
0,0.8364583253860474,0.450379341840744,-0.30588918924331665,0.02367609553039074,0.0,0.0,0.0
0,0.8484360575675964,0.42388591170310974,-0.3110501766204834,0.018904129043221474,0.0,0.0,0.0
0,0.8600520491600037,0.3969219923019409,-0.31495290994644165,0.014159605838358402,0.0,0.0,0.0
0,0.8711135983467102,0.368543803691864,-0.3192046284675598,0.008778451941907406,0.0,0.0,0.0
0,0.8711135983467102,0.368543803691864,-0.3192046284675598,0.008778451941907406,0.0,0.0,0.0
0,0.8812112808227539,0.3391392230987549,-0.324153333902359,0.002774051856249571,0.0,0.0,0.0
0,0.8904252648353577,0.3094766139984131,-0.3286159038543701,-0.003237382275983691,0.0,0.0,0.0
0,0.8988673686981201,0.2796275317668915,-0.33226755261421204,-0.008707874454557896,0.0,0.0,0.0
0,0.9064849019050598,0.2490287572145462,-0.33573612570762634,-0.013504796661436558,0.0,0.0,0.0
0,0.913163423538208,0.21770308911800385,-0.3391985297203064,-0.01770385541021824,0.0,0.0,0.0
0,0.9189342260360718,0.18621157109737396,-0.3421211242675781,-0.021659497171640396,0.0,0.0,0.0
0,0.923911988735199,0.1543855369091034,-0.3442750871181488,-0.02563757635653019,0.0,0.0,0.0
0,0.9279904961585999,0.12227143347263336,-0.34586167335510254,-0.029892293736338615,0.0,0.0,0.0
0,0.9312120079994202,0.0898762047290802,-0.34671175479888916,-0.034461189061403275,0.0,0.0,0.0
0,0.933647632598877,0.05759511888027191,-0.34655022621154785,-0.03896313160657883,0.0,0.0,0.0
0,0.9353892207145691,0.025686854496598244,-0.3451598286628723,-0.04338230937719345,0.0,0.0,0.0
0,0.9365841746330261,-0.005581737495958805,-0.34226688742637634,-0.047567181289196014,0.0,0.0,0.0
0,0.9374844431877136,-0.0349007286131382,-0.3374069929122925,-0.051885977387428284,0.0,0.0,0.0
0,0.9383469223976135,-0.060343027114868164,-0.33049842715263367,-0.057148102670907974,0.0,0.0,0.0
0,0.9389230608940125,-0.07988885790109634,-0.3233811855316162,-0.06401222199201584,0.0,0.0,0.0
0,0.9387598633766174,-0.09450995922088623,-0.3180769383907318,-0.07249708473682404,0.0,0.0,0.0
0,0.9378460645675659,-0.10677193850278854,-0.31466132402420044,-0.08162975311279297,0.0,0.0,0.0
0,0.9363696575164795,-0.1180930957198143,-0.31242331862449646,-0.0910380631685257,0.0,0.0,0.0
0,0.9344987869262695,-0.12897685170173645,-0.31084582209587097,-0.10041092336177826,0.0,0.0,0.0
0,0.93231600522995,-0.13966138660907745,-0.309556782245636,-0.1099395826458931,0.0,0.0,0.0
0,0.93231600522995,-0.13966138660907745,-0.309556782245636,-0.1099395826458931,0.0,0.0,0.0
0,0.9298284649848938,-0.15022584795951843,-0.30851805210113525,-0.11957588791847229,0.0,0.0,0.0
0,0.9270779490470886,-0.16076752543449402,-0.3075406849384308,-0.12934313714504242,0.0,0.0,0.0
0,0.9240983128547668,-0.17133910953998566,-0.30659985542297363,-0.13896803557872772,0.0,0.0,0.0
0,0.9206491112709045,-0.18290255963802338,-0.3054598569869995,-0.14925381541252136,0.0,0.0,0.0
0,0.9173622131347656,-0.19348256289958954,-0.30423691868782043,-0.1583721935749054,0.0,0.0,0.0
0,0.9138230085372925,-0.20403411984443665,-0.30305561423301697,-0.16758787631988525,0.0,0.0,0.0
0,0.910012423992157,-0.21467773616313934,-0.30182236433029175,-0.17698875069618225,0.0,0.0,0.0
0,0.9059866070747375,-0.22539258003234863,-0.30048879981040955,-0.1863436996936798,0.0,0.0,0.0
0,0.9017669558525085,-0.23607000708580017,-0.2990952730178833,-0.19560261070728302,0.0,0.0,0.0
0,0.8974355459213257,-0.24680979549884796,-0.2973782420158386,-0.20467408001422882,0.0,0.0,0.0
0,0.892903208732605,-0.25756967067718506,-0.2956289052963257,-0.2135796993970871,0.0,0.0,0.0
0,0.8881204128265381,-0.26835164427757263,-0.2938145101070404,-0.22256194055080414,0.0,0.0,0.0
0,0.8830963373184204,-0.27920424938201904,-0.29189708828926086,-0.231545552611351,0.0,0.0,0.0
0,0.8778842091560364,-0.29007288813591003,-0.28978103399276733,-0.2404899150133133,0.0,0.0,0.0
0,0.8724730610847473,-0.30091243982315063,-0.28759947419166565,-0.2493201196193695,0.0,0.0,0.0
0,0.8669096231460571,-0.3118622899055481,-0.2852781116962433,-0.2577941119670868,0.0,0.0,0.0
0,0.8613047003746033,-0.3227579593658447,-0.2827828526496887,-0.26579517126083374,0.0,0.0,0.0
0,0.8554823398590088,-0.33365193009376526,-0.2800712585449219,-0.27389439940452576,0.0,0.0,0.0
0,0.8493149876594543,-0.34462931752204895,-0.2772384285926819,-0.28225040435791016,0.0,0.0,0.0
0,0.8427850604057312,-0.35563644766807556,-0.2744522988796234,-0.29076457023620605,0.0,0.0,0.0
0,0.8360497355461121,-0.3666873276233673,-0.2714632451534271,-0.2991670072078705,0.0,0.0,0.0
0,0.8292657136917114,-0.37776708602905273,-0.26820313930511475,-0.30709898471832275,0.0,0.0,0.0
0,0.8224161863327026,-0.38875284790992737,-0.26478609442710876,-0.3146795928478241,0.0,0.0,0.0
0,0.8153078556060791,-0.39977142214775085,-0.26119035482406616,-0.3222852945327759,0.0,0.0,0.0
0,0.8078572154045105,-0.4108649492263794,-0.25752705335617065,-0.3299526274204254,0.0,0.0,0.0
0,0.8000732064247131,-0.4218640625476837,-0.2539183497428894,-0.33774420619010925,0.0,0.0,0.0
0,0.792034924030304,-0.4329521358013153,-0.25005656480789185,-0.3454521894454956,0.0,0.0,0.0
0,0.7838635444641113,-0.44398176670074463,-0.24603508412837982,-0.3528982400894165,0.0,0.0,0.0
0,0.7755545377731323,-0.4549463093280792,-0.24178116023540497,-0.3601577579975128,0.0,0.0,0.0
0,0.7670634984970093,-0.4659444987773895,-0.2373085767030716,-0.3671873211860657,0.0,0.0,0.0
0,0.7583345174789429,-0.47688132524490356,-0.2327844202518463,-0.37410852313041687,0.0,0.0,0.0
0,0.7493053078651428,-0.48783403635025024,-0.2281481921672821,-0.38097313046455383,0.0,0.0,0.0
0,0.7400360703468323,-0.49873214960098267,-0.22335681319236755,-0.387759268283844,0.0,0.0,0.0
0,0.7295827269554138,-0.5106664896011353,-0.21790575981140137,-0.39506790041923523,0.0,0.0,0.0
0,0.7198416590690613,-0.5214636325836182,-0.2127910554409027,-0.4015674889087677,0.0,0.0,0.0
0,0.7098673582077026,-0.532211184501648,-0.20753099024295807,-0.4079255759716034,0.0,0.0,0.0
0,0.6996679902076721,-0.5429072976112366,-0.202106311917305,-0.4141283631324768,0.0,0.0,0.0
0,0.6892378926277161,-0.5535339713096619,-0.19653645157814026,-0.42018765211105347,0.0,0.0,0.0
0,0.6786065101623535,-0.564083993434906,-0.19079481065273285,-0.42606666684150696,0.0,0.0,0.0
0,0.6677581667900085,-0.5745683908462524,-0.1848745197057724,-0.43176907300949097,0.0,0.0,0.0
0,0.6566898822784424,-0.5849534869194031,-0.17881909012794495,-0.43731510639190674,0.0,0.0,0.0
0,0.6454009413719177,-0.5952224135398865,-0.17260028421878815,-0.4427303969860077,0.0,0.0,0.0
0,0.6338346004486084,-0.6054278016090393,-0.16627366840839386,-0.4479924738407135,0.0,0.0,0.0
0,0.6220730543136597,-0.615544855594635,-0.1597515493631363,-0.4530368745326996,0.0,0.0,0.0
0,0.6100969910621643,-0.6255204081535339,-0.15305711328983307,-0.4579439163208008,0.0,0.0,0.0
0,0.597874641418457,-0.6354061365127563,-0.14625191688537598,-0.46265384554862976,0.0,0.0,0.0
0,0.585452139377594,-0.6451843976974487,-0.13927608728408813,-0.467138409614563,0.0,0.0,0.0
0,0.5728051662445068,-0.6548164486885071,-0.13215161859989166,-0.47146478295326233,0.0,0.0,0.0
0,0.5599296689033508,-0.6642850637435913,-0.12498487532138824,-0.4756219983100891,0.0,0.0,0.0
0,0.5468118190765381,-0.6736100912094116,-0.11763104051351547,-0.4796276390552521,0.0,0.0,0.0
0,0.5334879755973816,-0.6827653050422668,-0.11016098409891129,-0.4834461212158203,0.0,0.0,0.0
0,0.5199495553970337,-0.6917902827262878,-0.10248497873544693,-0.487041175365448,0.0,0.0,0.0
0,0.5062265396118164,-0.7006595134735107,-0.09463086724281311,-0.49039727449417114,0.0,0.0,0.0
0,0.4923178553581238,-0.7093467712402344,-0.08661404252052307,-0.49354010820388794,0.0,0.0,0.0
0,0.4782523214817047,-0.7178193926811218,-0.07852606475353241,-0.49646496772766113,0.0,0.0,0.0
0,0.46395930647850037,-0.7260873317718506,-0.07033117860555649,-0.4992256462574005,0.0,0.0,0.0
0,0.4494686424732208,-0.7341554760932922,-0.06200240179896355,-0.5017797350883484,0.0,0.0,0.0
0,0.4347321093082428,-0.7420387864112854,-0.053532008081674576,-0.5041371583938599,0.0,0.0,0.0
0,0.4197739064693451,-0.7497575879096985,-0.044927116483449936,-0.5062299966812134,0.0,0.0,0.0
0,0.4197739064693451,-0.7497575879096985,-0.044927116483449936,-0.5062299966812134,0.0,0.0,0.0
0,0.4046756625175476,-0.7572124004364014,-0.036274127662181854,-0.5081189870834351,0.0,0.0,0.0
0,0.389237642288208,-0.7644380927085876,-0.02754073776304722,-0.5099055767059326,0.0,0.0,0.0
0,0.3719930350780487,-0.7721192240715027,-0.017808571457862854,-0.5116342306137085,0.0,0.0,0.0
0,0.3561781346797943,-0.7788498997688293,-0.008812793530523777,-0.5129191279411316,0.0,0.0,0.0
0,0.34028539061546326,-0.7853034138679504,0.00040897034341469407,-0.5139437317848206,0.0,0.0,0.0
0,0.3242754340171814,-0.7914368510246277,0.009720107540488243,-0.5147935152053833,0.0,0.0,0.0
0,0.3080288767814636,-0.7973607182502747,0.019158003851771355,-0.5153647661209106,0.0,0.0,0.0
0,0.29158130288124084,-0.8030080795288086,0.028655217960476875,-0.515723705291748,0.0,0.0,0.0
0,0.27489471435546875,-0.8083857297897339,0.038245342671871185,-0.5158648490905762,0.0,0.0,0.0
0,0.25815147161483765,-0.8134363293647766,0.04797588661313057,-0.5157628059387207,0.0,0.0,0.0
0,0.24121810495853424,-0.8181411027908325,0.05774306505918503,-0.5155177712440491,0.0,0.0,0.0
0,0.22417518496513367,-0.8225647807121277,0.06763288378715515,-0.5149681568145752,0.0,0.0,0.0
0,0.20697377622127533,-0.8267381191253662,0.07756703346967697,-0.5140851140022278,0.0,0.0,0.0
0,0.1896543949842453,-0.8305371999740601,0.08761541545391083,-0.5130268335342407,0.0,0.0,0.0
0,0.1723054200410843,-0.8339852690696716,0.09771445393562317,-0.5117278099060059,0.0,0.0,0.0
0,0.15476633608341217,-0.8371496200561523,0.1078433245420456,-0.5101292133331299,0.0,0.0,0.0
0,0.13710549473762512,-0.8399393558502197,0.1181640550494194,-0.5083061456680298,0.0,0.0,0.0
0,0.11946386843919754,-0.8423475623130798,0.12843328714370728,-0.5062786936759949,0.0,0.0,0.0
0,0.10158506035804749,-0.8443478345870972,0.13887278735637665,-0.5040888786315918,0.0,0.0,0.0
0,0.08370156586170197,-0.8460777997970581,0.14927791059017181,-0.5014942288398743,0.0,0.0,0.0
0,0.06567342579364777,-0.8473693132400513,0.15975730121135712,-0.49876222014427185,0.0,0.0,0.0
0,0.04757498577237129,-0.848339855670929,0.1701688915491104,-0.49571433663368225,0.0,0.0,0.0
0,0.029319172725081444,-0.8489087820053101,0.1807217299938202,-0.4924106299877167,0.0,0.0,0.0
0,0.011053665541112423,-0.8490932583808899,0.19118520617485046,-0.4888772666454315,0.0,0.0,0.0
0,-0.007360797841101885,-0.8488690257072449,0.2016092985868454,-0.48513397574424744,0.0,0.0,0.0
0,-0.025832120329141617,-0.8482412099838257,0.21210652589797974,-0.48110756278038025,0.0,0.0,0.0
0,-0.04428287595510483,-0.8472003936767578,0.22265848517417908,-0.47680988907814026,0.0,0.0,0.0
0,-0.06270957738161087,-0.8456960916519165,0.23324467241764069,-0.47233104705810547,0.0,0.0,0.0
0,-0.08112283051013947,-0.8437896370887756,0.24388089776039124,-0.4675407111644745,0.0,0.0,0.0
0,-0.0995788723230362,-0.8414371013641357,0.2545030415058136,-0.46252548694610596,0.0,0.0,0.0
0,-0.11991970241069794,-0.8383890390396118,0.2659980356693268,-0.4567297399044037,0.0,0.0,0.0
0,-0.13845178484916687,-0.8351571559906006,0.276509165763855,-0.4511321783065796,0.0,0.0,0.0
0,-0.1569756716489792,-0.8314747214317322,0.28697577118873596,-0.4452948272228241,0.0,0.0,0.0
0,-0.17533791065216064,-0.8272950649261475,0.2973921000957489,-0.4393536448478699,0.0,0.0,0.0
0,-0.19371825456619263,-0.8226739168167114,0.3077388405799866,-0.4331417977809906,0.0,0.0,0.0
0,-0.21215128898620605,-0.817640483379364,0.31801655888557434,-0.4265623390674591,0.0,0.0,0.0
0,-0.2304675579071045,-0.8120961785316467,0.3282652795314789,-0.41983380913734436,0.0,0.0,0.0
0,-0.2486703097820282,-0.8060614466667175,0.33841320872306824,-0.4129631519317627,0.0,0.0,0.0
0,-0.2668519616127014,-0.7995126843452454,0.3485485911369324,-0.40585389733314514,0.0,0.0,0.0
0,-0.28482088446617126,-0.7925222516059875,0.3586365580558777,-0.39849627017974854,0.0,0.0,0.0
0,-0.302790105342865,-0.7850539684295654,0.36854299902915955,-0.3909205198287964,0.0,0.0,0.0
0,-0.3207623362541199,-0.7770888805389404,0.3783329725265503,-0.38307011127471924,0.0,0.0,0.0
0,-0.3385305106639862,-0.7686958312988281,0.38800862431526184,-0.37494945526123047,0.0,0.0,0.0
0,-0.3561953008174896,-0.7597540616989136,0.39758265018463135,-0.36668890714645386,0.0,0.0,0.0
0,-0.3736611306667328,-0.7502902150154114,0.40708261728286743,-0.3582734167575836,0.0,0.0,0.0
0,-0.39092332124710083,-0.7403615117073059,0.416457861661911,-0.34962916374206543,0.0,0.0,0.0
0,-0.408038467168808,-0.7299427390098572,0.42570504546165466,-0.3407307267189026,0.0,0.0,0.0
0,-0.4249940812587738,-0.7190133333206177,0.4347367584705353,-0.3317194879055023,0.0,0.0,0.0
0,-0.44173741340637207,-0.7076197862625122,0.44363799691200256,-0.32243070006370544,0.0,0.0,0.0
0,-0.45830848813056946,-0.6957567930221558,0.4523071050643921,-0.3129345178604126,0.0,0.0,0.0
0,-0.4746609628200531,-0.6834138035774231,0.46077850461006165,-0.3032488524913788,0.0,0.0,0.0
0,-0.49240347743034363,-0.6692560315132141,0.4698736071586609,-0.2923829257488251,0.0,0.0,0.0
0,-0.5067055225372314,-0.6572310924530029,0.47712570428848267,-0.2833404242992401,0.0,0.0,0.0
0,-0.5223390460014343,-0.643379271030426,0.4850170910358429,-0.27316156029701233,0.0,0.0,0.0
0,-0.537677526473999,-0.629095196723938,0.49263036251068115,-0.26285243034362793,0.0,0.0,0.0
0,-0.5528044104576111,-0.6143214106559753,0.4999762177467346,-0.2523372173309326,0.0,0.0,0.0
0,-0.5676704049110413,-0.598999559879303,0.5071290135383606,-0.24166862666606903,0.0,0.0,0.0
0,-0.5821082592010498,-0.5833185315132141,0.5140051245689392,-0.23091541230678558,0.0,0.0,0.0
0,-0.5963014960289001,-0.5670650005340576,0.5206217765808105,-0.22011007368564606,0.0,0.0,0.0
0,-0.6111969947814941,-0.5487133860588074,0.5278253555297852,-0.20829333364963531,0.0,0.0,0.0
0,-0.624348521232605,-0.531487762928009,0.53411865234375,-0.1976376473903656,0.0,0.0,0.0
0,-0.6371420621871948,-0.5136970281600952,0.5401740670204163,-0.18711203336715698,0.0,0.0,0.0
0,-0.6494086980819702,-0.4955601096153259,0.5460396409034729,-0.17653056979179382,0.0,0.0,0.0
0,-0.661693274974823,-0.47696974873542786,0.5512517690658569,-0.16558101773262024,0.0,0.0,0.0
0,-0.6739557385444641,-0.4581473767757416,0.5557484030723572,-0.1538248211145401,0.0,0.0,0.0
0,-0.6859368681907654,-0.43895652890205383,0.5598125457763672,-0.14160186052322388,0.0,0.0,0.0
0,-0.6973267793655396,-0.4195627272129059,0.5635735392570496,-0.1293099820613861,0.0,0.0,0.0
0,-0.7083055973052979,-0.39953792095184326,0.5670425891876221,-0.11733999848365784,0.0,0.0,0.0
0,-0.7187303900718689,-0.37930992245674133,0.5701088309288025,-0.10564052313566208,0.0,0.0,0.0
0,-0.7287882566452026,-0.3586254417896271,0.5727546811103821,-0.09402632713317871,0.0,0.0,0.0
0,-0.7383193373680115,-0.33780306577682495,0.5750284194946289,-0.08215520530939102,0.0,0.0,0.0
0,-0.7475659251213074,-0.31662073731422424,0.5767330527305603,-0.07006341218948364,0.0,0.0,0.0
0,-0.7562990188598633,-0.2952720820903778,0.5780039429664612,-0.058059461414813995,0.0,0.0,0.0
0,-0.7646249532699585,-0.2735953629016876,0.5787968039512634,-0.046063899993896484,0.0,0.0,0.0
0,-0.7725591659545898,-0.25161343812942505,0.579058051109314,-0.03417196497321129,0.0,0.0,0.0
0,-0.7800115942955017,-0.22953259944915771,0.5788167715072632,-0.022380514070391655,0.0,0.0,0.0
0,-0.7870348691940308,-0.20725592970848083,0.5780484080314636,-0.010691377334296703,0.0,0.0,0.0
0,-0.7935957312583923,-0.18492120504379272,0.576751172542572,0.0010553458705544472,0.0,0.0,0.0
0,-0.7997363805770874,-0.16236847639083862,0.574914813041687,0.012810157611966133,0.0,0.0,0.0
0,-0.8053330183029175,-0.13988515734672546,0.5726271867752075,0.024534761905670166,0.0,0.0,0.0
0,-0.8104625344276428,-0.11735851317644119,0.5698229670524597,0.036221425980329514,0.0,0.0,0.0
0,-0.8150556087493896,-0.09492289274930954,0.5665849447250366,0.04783996194601059,0.0,0.0,0.0
0,-0.8192262649536133,-0.07260436564683914,0.5627527236938477,0.059491753578186035,0.0,0.0,0.0
0,-0.8229093551635742,-0.05040380358695984,0.5584557056427002,0.07098974287509918,0.0,0.0,0.0
0,-0.8261154890060425,-0.028406230732798576,0.553683340549469,0.0824250802397728,0.0,0.0,0.0
0,-0.8288617134094238,-0.0066372728906571865,0.5484375357627869,0.09377327561378479,0.0,0.0,0.0
0,-0.8311266303062439,0.01483570784330368,0.5427719354629517,0.10507063567638397,0.0,0.0,0.0
0,-0.8330987095832825,0.0380718968808651,0.5360426902770996,0.11742282658815384,0.0,0.0,0.0
0,-0.8344377279281616,0.0588044673204422,0.529487133026123,0.1285766065120697,0.0,0.0,0.0
0,-0.8353305459022522,0.07911703735589981,0.5225772261619568,0.13967537879943848,0.0,0.0,0.0
0,-0.8357802033424377,0.09897224605083466,0.5153568983078003,0.15071792900562286,0.0,0.0,0.0
0,-0.8358221650123596,0.1183781549334526,0.5078321099281311,0.16163913905620575,0.0,0.0,0.0
0,-0.8354276418685913,0.1372693032026291,0.500090479850769,0.17251081764698029,0.0,0.0,0.0
0,-0.8346043825149536,0.1556321680545807,0.492157906293869,0.18337808549404144,0.0,0.0,0.0
0,-0.8333629965782166,0.17345425486564636,0.4840851128101349,0.19420123100280762,0.0,0.0,0.0
0,-0.8317133188247681,0.19072964787483215,0.4758968949317932,0.205012708902359,0.0,0.0,0.0
0,-0.8296765089035034,0.20751945674419403,0.46762198209762573,0.2157195657491684,0.0,0.0,0.0
0,-0.8272759914398193,0.22385439276695251,0.45927584171295166,0.22627869248390198,0.0,0.0,0.0
0,-0.824482798576355,0.23969541490077972,0.45093294978141785,0.23678310215473175,0.0,0.0,0.0
0,-0.8213034272193909,0.25505074858665466,0.4426097273826599,0.2472630739212036,0.0,0.0,0.0
0,-0.8177531957626343,0.26998889446258545,0.4343208968639374,0.2576499879360199,0.0,0.0,0.0
0,-0.8138325810432434,0.2845017910003662,0.42608100175857544,0.26799771189689636,0.0,0.0,0.0
0,-0.8095923066139221,0.29863211512565613,0.4179067313671112,0.27814701199531555,0.0,0.0,0.0
0,-0.8049951195716858,0.31244635581970215,0.40980133414268494,0.28819364309310913,0.0,0.0,0.0
0,-0.8000836968421936,0.325931191444397,0.40170449018478394,0.298162579536438,0.0,0.0,0.0
0,-0.7948336005210876,0.3390614688396454,0.39373067021369934,0.3080351650714874,0.0,0.0,0.0
0,-0.7891906499862671,0.3520161211490631,0.38576000928878784,0.31793835759162903,0.0,0.0,0.0
0,-0.7832025289535522,0.36467981338500977,0.37788912653923035,0.3277727961540222,0.0,0.0,0.0
0,-0.776922345161438,0.37710222601890564,0.3700723648071289,0.33743828535079956,0.0,0.0,0.0
0,-0.7704045176506042,0.3893876373767853,0.3621642291545868,0.3468775749206543,0.0,0.0,0.0
0,-0.7636224627494812,0.40139320492744446,0.3543543815612793,0.3561316728591919,0.0,0.0,0.0
0,-0.7564226388931274,0.4132186472415924,0.34652605652809143,0.3655509948730469,0.0,0.0,0.0
0,-0.7487855553627014,0.42493754625320435,0.3386920988559723,0.37505829334259033,0.0,0.0,0.0
0,-0.7408504486083984,0.436461865901947,0.3311023414134979,0.3842467665672302,0.0,0.0,0.0
0,-0.7326970100402832,0.4478801190853119,0.3234117925167084,0.3931872546672821,0.0,0.0,0.0
0,-0.7236678004264832,0.4602842628955841,0.3146592378616333,0.4025741517543793,0.0,0.0,0.0
0,-0.7153767943382263,0.4713291525840759,0.30672797560691833,0.41065269708633423,0.0,0.0,0.0
0,-0.7068995833396912,0.4824667274951935,0.29859575629234314,0.418320894241333,0.0,0.0,0.0
0,-0.6982136964797974,0.4933255612850189,0.29067209362983704,0.42575857043266296,0.0,0.0,0.0
0,-0.6892514824867249,0.5039812326431274,0.28264540433883667,0.43322044610977173,0.0,0.0,0.0
0,-0.6800921559333801,0.5145754814147949,0.2744691073894501,0.4404390752315521,0.0,0.0,0.0
0,-0.670605480670929,0.5251697897911072,0.26640260219573975,0.4473785161972046,0.0,0.0,0.0
0,-0.6607034206390381,0.5356181263923645,0.25845474004745483,0.4543331563472748,0.0,0.0,0.0
0,-0.6607034206390381,0.5356181263923645,0.25845474004745483,0.4543331563472748,0.0,0.0,0.0
0,-0.6503446102142334,0.5457189679145813,0.2502235472202301,0.46180492639541626,0.0,0.0,0.0
0,-0.6395722031593323,0.5557010769844055,0.24206845462322235,0.46923312544822693,0.0,0.0,0.0
0,-0.628537118434906,0.5658348202705383,0.233804389834404,0.4761730134487152,0.0,0.0,0.0
0,-0.617443859577179,0.5757690668106079,0.22546373307704926,0.48275497555732727,0.0,0.0,0.0
0,-0.6063808798789978,0.5854054093360901,0.2167525440454483,0.4891361594200134,0.0,0.0,0.0
0,-0.5952945351600647,0.5949338674545288,0.20794832706451416,0.4950443208217621,0.0,0.0,0.0
0,-0.5839516520500183,0.6043863892555237,0.19894351065158844,0.5007716417312622,0.0,0.0,0.0
0,-0.5721970796585083,0.6136562824249268,0.19006246328353882,0.5064840912818909,0.0,0.0,0.0
0,-0.5599530935287476,0.622873842716217,0.18113359808921814,0.5121567845344543,0.0,0.0,0.0
0,-0.5474858283996582,0.6319798231124878,0.1721259206533432,0.5175584554672241,0.0,0.0,0.0
0,-0.5348142981529236,0.6408327221870422,0.16310396790504456,0.5228169560432434,0.0,0.0,0.0
0,-0.5219217538833618,0.6495227813720703,0.15398621559143066,0.5278632640838623,0.0,0.0,0.0
0,-0.5088019371032715,0.6581600308418274,0.14464789628982544,0.532593846321106,0.0,0.0,0.0
0,-0.4954792559146881,0.666597306728363,0.13506890833377838,0.5371576547622681,0.0,0.0,0.0
0,-0.4820341467857361,0.6748495101928711,0.12552842497825623,0.5413845777511597,0.0,0.0,0.0
0,-0.46825656294822693,0.6831828951835632,0.11602695286273956,0.5451313853263855,0.0,0.0,0.0
0,-0.45435968041419983,0.6913638710975647,0.1064903512597084,0.5485131144523621,0.0,0.0,0.0
0,-0.44071510434150696,0.6990035176277161,0.09606466442346573,0.551878035068512,0.0,0.0,0.0
0,-0.42617642879486084,0.7064807415008545,0.08473522216081619,0.5556185245513916,0.0,0.0,0.0
0,-0.4121958017349243,0.7129034996032715,0.0741981789469719,0.5594565272331238,0.0,0.0,0.0
0,-0.398873895406723,0.7189992070198059,0.06516724079847336,0.5624293088912964,0.0,0.0,0.0
0,-0.381978839635849,0.7266597151756287,0.054297834634780884,0.5654585361480713,0.0,0.0,0.0
0,-0.3665860891342163,0.733135461807251,0.044350288808345795,0.5681493878364563,0.0,0.0,0.0
0,-0.3510536849498749,0.7391875386238098,0.03411661460995674,0.5708176493644714,0.0,0.0,0.0
0,-0.33549925684928894,0.7450785040855408,0.023467784747481346,0.5730456113815308,0.0,0.0,0.0
0,-0.32006654143333435,0.7507487535476685,0.012777813710272312,0.5748078227043152,0.0,0.0,0.0
0,-0.3046700954437256,0.7560665607452393,0.0017939088866114616,0.5763419270515442,0.0,0.0,0.0
0,-0.28912314772605896,0.761115312576294,-0.009235313162207603,0.5776329040527344,0.0,0.0,0.0
0,-0.27288007736206055,0.765896201133728,-0.020285939797759056,0.5789315700531006,0.0,0.0,0.0
0,-0.25591403245925903,0.7704169750213623,-0.030911896377801895,0.5802102088928223,0.0,0.0,0.0
0,-0.23817667365074158,0.7747809886932373,-0.0413084402680397,0.5813033580780029,0.0,0.0,0.0
0,-0.22004811465740204,0.7790839672088623,-0.051752664148807526,0.5818610191345215,0.0,0.0,0.0
0,-0.20251785218715668,0.7831365466117859,-0.06265914440155029,0.5817140936851501,0.0,0.0,0.0
0,-0.18622319400310516,0.7866920232772827,-0.0743805393576622,0.5809803605079651,0.0,0.0,0.0
0,-0.17085641622543335,0.7895954847335815,-0.08652346581220627,0.5800816416740417,0.0,0.0,0.0
0,-0.15577389299869537,0.792041540145874,-0.0989609807729721,0.5790037512779236,0.0,0.0,0.0
0,-0.14061535894870758,0.7943205833435059,-0.1112542599439621,0.5775279998779297,0.0,0.0,0.0
0,-0.12487032264471054,0.7963391542434692,-0.12353138625621796,0.575869083404541,0.0,0.0,0.0
0,-0.039192281663417816,0.802511990070343,-0.18185046315193176,0.5639174580574036,0.0,0.0,0.0
0,-0.02208891324698925,0.8025171160697937,-0.19369614124298096,0.560886800289154,0.0,0.0,0.0
0,-0.02208891324698925,0.8025171160697937,-0.19369614124298096,0.560886800289154,0.0,0.0,0.0
0,-0.004965176805853844,0.8022067546844482,-0.20558536052703857,0.5575017929077148,0.0,0.0,0.0
0,0.012380553409457207,0.8015838265419006,-0.21734914183616638,0.5538080930709839,0.0,0.0,0.0
0,0.029758375138044357,0.8005985617637634,-0.22899694740772247,0.5498642325401306,0.0,0.0,0.0
0,0.04710639268159866,0.7991979718208313,-0.24077919125556946,0.5456401109695435,0.0,0.0,0.0
0,0.0644228458404541,0.7973799109458923,-0.25258105993270874,0.5411763787269592,0.0,0.0,0.0
0,0.0835244208574295,0.794905960559845,-0.2655547857284546,0.5359689593315125,0.0,0.0,0.0
0,0.10086078196763992,0.7922753691673279,-0.2773090898990631,0.5309052467346191,0.0,0.0,0.0
0,0.11823983490467072,0.7892905473709106,-0.28894826769828796,0.5255308747291565,0.0,0.0,0.0
0,0.13550402224063873,0.7858597040176392,-0.3006158769130707,0.5199299454689026,0.0,0.0,0.0
0,0.15270473062992096,0.7820140719413757,-0.3121824264526367,0.5141122341156006,0.0,0.0,0.0
0,0.1699524074792862,0.7777366042137146,-0.32374072074890137,0.5080038905143738,0.0,0.0,0.0
0,0.18712005019187927,0.7731536030769348,-0.33515816926956177,0.5015203952789307,0.0,0.0,0.0
0,0.20428232848644257,0.7680562138557434,-0.3466111719608307,0.4948263168334961,0.0,0.0,0.0
0,0.22118249535560608,0.7625536918640137,-0.3579677939414978,0.4879378080368042,0.0,0.0,0.0
0,0.237960547208786,0.7566468715667725,-0.36926892399787903,0.4807649552822113,0.0,0.0,0.0
0,0.25465306639671326,0.7502961754798889,-0.38060370087623596,0.4732676148414612,0.0,0.0,0.0
0,0.27092301845550537,0.7436856627464294,-0.39187076687812805,0.46540701389312744,0.0,0.0,0.0
0,0.2868117094039917,0.7366055250167847,-0.403094619512558,0.4574933648109436,0.0,0.0,0.0
0,0.30302736163139343,0.7289507985115051,-0.413938045501709,0.4495491683483124,0.0,0.0,0.0
0,0.3196488320827484,0.7208765745162964,-0.4245287775993347,0.44110190868377686,0.0,0.0,0.0
0,0.3852064311504364,0.6846698522567749,-0.4646959602832794,0.40439435839653015,0.0,0.0,0.0
0,0.4007938504219055,0.6744441390037537,-0.4745909869670868,0.39482489228248596,0.0,0.0,0.0
0,0.4179631769657135,0.6627041101455688,-0.4849943518638611,0.38411515951156616,0.0,0.0,0.0
0,0.4320138394832611,0.6528228521347046,-0.49313369393348694,0.375019371509552,0.0,0.0,0.0
0,0.4320138394832611,0.6528228521347046,-0.49313369393348694,0.375019371509552,0.0,0.0,0.0
0,0.4474657475948334,0.6415275931358337,-0.5021260380744934,0.3643079996109009,0.0,0.0,0.0
0,0.4625781178474426,0.6296855807304382,-0.5110624432563782,0.35350626707077026,0.0,0.0,0.0
0,0.4773327708244324,0.6173439025878906,-0.5196300745010376,0.343013733625412,0.0,0.0,0.0
0,0.4917636215686798,0.6044699549674988,-0.5280644297599792,0.33251526951789856,0.0,0.0,0.0
0,0.5059376358985901,0.5911982655525208,-0.5363919734954834,0.321604460477829,0.0,0.0,0.0
0,0.5214397311210632,0.5761941075325012,-0.5451350808143616,0.30913200974464417,0.0,0.0,0.0
0,0.5352506041526794,0.5622457265853882,-0.5526736378669739,0.2976108193397522,0.0,0.0,0.0
0,0.5487577319145203,0.5478441715240479,-0.5599895715713501,0.2859674394130707,0.0,0.0,0.0
0,0.5618897080421448,0.5329951643943787,-0.5671141743659973,0.2742466926574707,0.0,0.0,0.0
0,0.5747026205062866,0.5177158117294312,-0.5739520192146301,0.2624884247779846,0.0,0.0,0.0
0,0.5872166156768799,0.5020583868026733,-0.5804721117019653,0.2505991756916046,0.0,0.0,0.0
0,0.599368691444397,0.48604947328567505,-0.5867154002189636,0.23856182396411896,0.0,0.0,0.0
0,0.6112882494926453,0.46962878108024597,-0.592597484588623,0.22635726630687714,0.0,0.0,0.0
0,0.6231015920639038,0.45285218954086304,-0.5978971719741821,0.21406038105487823,0.0,0.0,0.0
0,0.6345852017402649,0.43598270416259766,-0.602715015411377,0.20146775245666504,0.0,0.0,0.0
0,0.6457169651985168,0.41877681016921997,-0.6072670817375183,0.18850970268249512,0.0,0.0,0.0
0,0.6568483710289001,0.40116068720817566,-0.6112148761749268,0.17512935400009155,0.0,0.0,0.0
0,0.6680798530578613,0.38306233286857605,-0.6144877672195435,0.16115473210811615,0.0,0.0,0.0
0,0.6784369349479675,0.3644738793373108,-0.6179026961326599,0.14735077321529388,0.0,0.0,0.0
0,0.6868764758110046,0.3460886478424072,-0.6220036745071411,0.1347900778055191,0.0,0.0,0.0
0,0.6949346661567688,0.3271234631538391,-0.6257116198539734,0.12318529933691025,0.0,0.0,0.0
0,0.7035737037658691,0.30754148960113525,-0.6281363368034363,0.11171625554561615,0.0,0.0,0.0
0,0.7122010588645935,0.2878515422344208,-0.6297708749771118,0.09966639429330826,0.0,0.0,0.0
0,0.7202094197273254,0.2681795060634613,-0.6312571167945862,0.08675254136323929,0.0,0.0,0.0
0,0.7275015115737915,0.2489083707332611,-0.6325425505638123,0.07286688685417175,0.0,0.0,0.0
0,0.734675943851471,0.2292112559080124,-0.6331725716590881,0.05864771455526352,0.0,0.0,0.0
0,0.7414471507072449,0.20962901413440704,-0.6331948637962341,0.04482655972242355,0.0,0.0,0.0
0,0.7481151223182678,0.18935051560401917,-0.6325451731681824,0.03146449476480484,0.0,0.0,0.0
0,0.7542130351066589,0.16878318786621094,-0.6316369771957397,0.01851557567715645,0.0,0.0,0.0
0,0.7596646547317505,0.14859835803508759,-0.6304193139076233,0.005727369803935289,0.0,0.0,0.0
0,0.7649262547492981,0.12825031578540802,-0.6285083293914795,-0.0070974393747746944,0.0,0.0,0.0
0,0.7696301341056824,0.10786818712949753,-0.6263116002082825,-0.020022209733724594,0.0,0.0,0.0
0,0.7738835215568542,0.08737032860517502,-0.6237141489982605,-0.032931532710790634,0.0,0.0,0.0
0,0.7780808210372925,0.06486678868532181,-0.6203200817108154,-0.047103945165872574,0.0,0.0,0.0
0,0.7814818620681763,0.04459359496831894,-0.6166903376579285,-0.060198452323675156,0.0,0.0,0.0
0,0.7844031453132629,0.024324210360646248,-0.612724781036377,-0.07294920831918716,0.0,0.0,0.0
0,0.7867816686630249,0.004347751848399639,-0.6085519194602966,-0.0851675271987915,0.0,0.0,0.0
0,0.7888969779014587,-0.01572354882955551,-0.603786826133728,-0.09730803966522217,0.0,0.0,0.0
0,0.7904157638549805,-0.03552143648266792,-0.5988584160804749,-0.109466053545475,0.0,0.0,0.0
0,0.7918441295623779,-0.05508370324969292,-0.5931053161621094,-0.12168771028518677,0.0,0.0,0.0
0,0.7927607893943787,-0.07404755800962448,-0.5871964693069458,-0.13371877372264862,0.0,0.0,0.0
0,0.7933871746063232,-0.09309221804141998,-0.5807547569274902,-0.14569757878780365,0.0,0.0,0.0
0,0.7934697270393372,-0.11220680177211761,-0.5741435289382935,-0.15750454366207123,0.0,0.0,0.0
0,0.7931897640228271,-0.13082252442836761,-0.5671578645706177,-0.169412299990654,0.0,0.0,0.0
0,0.7926838397979736,-0.14868713915348053,-0.5595765709877014,-0.18180052936077118,0.0,0.0,0.0
0,0.791511058807373,-0.16617409884929657,-0.5519431233406067,-0.19464878737926483,0.0,0.0,0.0
0,0.7897230386734009,-0.1836356222629547,-0.5440472960472107,-0.20799247920513153,0.0,0.0,0.0
0,0.7873863577842712,-0.20070965588092804,-0.5360012650489807,-0.22152671217918396,0.0,0.0,0.0
0,0.7845699191093445,-0.21736718714237213,-0.5279557108879089,-0.234728142619133,0.0,0.0,0.0
0,0.7816344499588013,-0.23388098180294037,-0.5194747447967529,-0.24723751842975616,0.0,0.0,0.0
0,0.7786498665809631,-0.24987539649009705,-0.5107406377792358,-0.25892770290374756,0.0,0.0,0.0
0,0.7755375504493713,-0.2657366693019867,-0.5016459822654724,-0.2700180113315582,0.0,0.0,0.0
0,0.7719261050224304,-0.2811906039714813,-0.49272578954696655,-0.28092002868652344,0.0,0.0,0.0
0,0.7678457498550415,-0.29633572697639465,-0.4836846590042114,-0.29202741384506226,0.0,0.0,0.0
0,0.7633117437362671,-0.31093302369117737,-0.47470623254776,-0.3032535910606384,0.0,0.0,0.0
0,0.7582648992538452,-0.32524582743644714,-0.465689480304718,-0.3146675229072571,0.0,0.0,0.0
0,0.7529641389846802,-0.3393062353134155,-0.4564416706562042,-0.3258991241455078,0.0,0.0,0.0
0,0.7475196719169617,-0.3530115783214569,-0.4469708800315857,-0.3368188440799713,0.0,0.0,0.0
0,0.741845428943634,-0.36642271280288696,-0.43749284744262695,-0.3473224937915802,0.0,0.0,0.0
0,0.7358348965644836,-0.3796847462654114,-0.4279513359069824,-0.3575991094112396,0.0,0.0,0.0
0,0.7288175821304321,-0.3938896656036377,-0.4174865484237671,-0.36880069971084595,0.0,0.0,0.0
0,0.7219878435134888,-0.4065040349960327,-0.40796971321105957,-0.3790538012981415,0.0,0.0,0.0
0,0.7147241830825806,-0.4188712537288666,-0.39856579899787903,-0.3892230689525604,0.0,0.0,0.0
0,0.7072002291679382,-0.4309975504875183,-0.3890007436275482,-0.3992745876312256,0.0,0.0,0.0
0,0.699474036693573,-0.4429273009300232,-0.37935870885849,-0.408988356590271,0.0,0.0,0.0
0,0.6915206909179688,-0.4546133875846863,-0.36972761154174805,-0.41840237379074097,0.0,0.0,0.0
0,0.6832555532455444,-0.46611297130584717,-0.36002928018569946,-0.4276829659938812,0.0,0.0,0.0
0,0.674657940864563,-0.4773268699645996,-0.3503819406032562,-0.4368765652179718,0.0,0.0,0.0
0,0.6657595038414001,-0.4884388744831085,-0.3406391441822052,-0.44585853815078735,0.0,0.0,0.0
0,0.6566717028617859,-0.49928268790245056,-0.3309156596660614,-0.4545624852180481,0.0,0.0,0.0
0,0.6473870277404785,-0.5099678039550781,-0.3209971487522125,-0.46305155754089355,0.0,0.0,0.0
0,0.6378957629203796,-0.5204428434371948,-0.31110960245132446,-0.471245139837265,0.0,0.0,0.0
0,0.6280297636985779,-0.5307478308677673,-0.3011798858642578,-0.4793839752674103,0.0,0.0,0.0
0,0.6178581118583679,-0.5408831834793091,-0.29123204946517944,-0.4873538911342621,0.0,0.0,0.0
0,0.6074292063713074,-0.5507906079292297,-0.2812354862689972,-0.49517613649368286,0.0,0.0,0.0
0,0.5967525839805603,-0.5604798793792725,-0.2711193263530731,-0.5028679370880127,0.0,0.0,0.0
0,0.5859143733978271,-0.5700041055679321,-0.2610038220882416,-0.5102058053016663,0.0,0.0,0.0
0,0.5748417973518372,-0.5793566703796387,-0.250812828540802,-0.5173285603523254,0.0,0.0,0.0
0,0.563599705696106,-0.5886071920394897,-0.24042536318302155,-0.5241429805755615,0.0,0.0,0.0
0,0.5522475838661194,-0.5975713729858398,-0.23006843030452728,-0.5306908488273621,0.0,0.0,0.0
0,0.5406028032302856,-0.6063476204872131,-0.21960003674030304,-0.5371222496032715,0.0,0.0,0.0
0,0.5286967158317566,-0.6150991320610046,-0.2089558243751526,-0.5432343482971191,0.0,0.0,0.0
0,0.5167866349220276,-0.6236672401428223,-0.19835808873176575,-0.5488700270652771,0.0,0.0,0.0
0,0.5047162771224976,-0.6319738030433655,-0.18769805133342743,-0.5543224215507507,0.0,0.0,0.0
0,0.49240007996559143,-0.6401155591011047,-0.17684641480445862,-0.5596007108688354,0.0,0.0,0.0
0,0.47987210750579834,-0.648080050945282,-0.16596361994743347,-0.5646276473999023,0.0,0.0,0.0
0,0.4656805098056793,-0.6564919948577881,-0.15397122502326965,-0.5701631903648376,0.0,0.0,0.0
0,0.45228174328804016,-0.6639425754547119,-0.14307056367397308,-0.5751397013664246,0.0,0.0,0.0
0,0.43853870034217834,-0.6713261604309082,-0.13220535218715668,-0.5797931551933289,0.0,0.0,0.0
0,0.4246586561203003,-0.678482174873352,-0.12128201872110367,-0.5841671228408813,0.0,0.0,0.0
0,0.4110143184661865,-0.6853622794151306,-0.109914630651474,-0.5881310701370239,0.0,0.0,0.0
0,0.39767274260520935,-0.6919340491294861,-0.09851439297199249,-0.5916182398796082,0.0,0.0,0.0
0,0.3840271234512329,-0.6982958316802979,-0.08686842024326324,-0.594973623752594,0.0,0.0,0.0
0,0.3697066605091095,-0.704505980014801,-0.07542956620454788,-0.5982744097709656,0.0,0.0,0.0
0,0.3546989858150482,-0.7105448842048645,-0.06417752057313919,-0.6015223860740662,0.0,0.0,0.0
0,0.3393188416957855,-0.7163814306259155,-0.05284881219267845,-0.6045666933059692,0.0,0.0,0.0
0,0.3239208161830902,-0.7218976616859436,-0.04138275235891342,-0.6073386073112488,0.0,0.0,0.0
0,0.30861547589302063,-0.7271315455436707,-0.029644247144460678,-0.6097466349601746,0.0,0.0,0.0
0,0.29348286986351013,-0.7321135401725769,-0.017761163413524628,-0.6117154359817505,0.0,0.0,0.0
0,0.2784360945224762,-0.7367742657661438,-0.005737927742302418,-0.6133821606636047,0.0,0.0,0.0
0,0.2632865011692047,-0.7411762475967407,0.006362421438097954,-0.6147611141204834,0.0,0.0,0.0
0,0.24791713058948517,-0.7453716993331909,0.01848570629954338,-0.6158329844474792,0.0,0.0,0.0
0,0.23238177597522736,-0.7492876052856445,0.030616076663136482,-0.6166549324989319,0.0,0.0,0.0
0,0.216677725315094,-0.752903401851654,0.042799435555934906,-0.6172431707382202,0.0,0.0,0.0
0,0.20095175504684448,-0.7562389969825745,0.055068209767341614,-0.6175130009651184,0.0,0.0,0.0
0,0.18520766496658325,-0.7592717409133911,0.06742284446954727,-0.6174888014793396,0.0,0.0,0.0
0,0.16929829120635986,-0.7620682716369629,0.07980312407016754,-0.617134690284729,0.0,0.0,0.0
0,0.16929829120635986,-0.7620682716369629,0.07980312407016754,-0.617134690284729,0.0,0.0,0.0
0,0.1533864587545395,-0.7646912336349487,0.09217336773872375,-0.6163260340690613,0.0,0.0,0.0
0,0.13736383616924286,-0.7668734192848206,0.10452450066804886,-0.6154226660728455,0.0,0.0,0.0
0,0.1210634708404541,-0.7685908079147339,0.11705899238586426,-0.6144450306892395,0.0,0.0,0.0
0,0.10460614413022995,-0.7701227068901062,0.1294700801372528,-0.6130576133728027,0.0,0.0,0.0
0,0.10460614413022995,-0.7701227068901062,0.1294700801372528,-0.6130576133728027,0.0,0.0,0.0
0,0.08782228827476501,-0.7713212966918945,0.14192336797714233,-0.6114263534545898,0.0,0.0,0.0
0,0.08782228827476501,-0.7713212966918945,0.14192336797714233,-0.6114263534545898,0.0,0.0,0.0
0,0.07111895084381104,-0.7722524404525757,0.1541944444179535,-0.6094474792480469,0.0,0.0,0.0
0,0.052809957414865494,-0.7727875113487244,0.1679782271385193,-0.6069826483726501,0.0,0.0,0.0
0,0.03639698773622513,-0.7729153633117676,0.18053175508975983,-0.6044163107872009,0.0,0.0,0.0
0,0.019779808819293976,-0.772700846195221,0.19303983449935913,-0.6015909910202026,0.0,0.0,0.0
0,0.0029713676776736975,-0.7722152471542358,0.2055213451385498,-0.5983893871307373,0.0,0.0,0.0
0,-0.013636300340294838,-0.7713278532028198,0.2180362492799759,-0.5949466228485107,0.0,0.0,0.0
0,-0.03020021878182888,-0.7699969410896301,0.23062409460544586,-0.5913030505180359,0.0,0.0,0.0
0,-0.0467599481344223,-0.7684082984924316,0.24324065446853638,-0.5872222781181335,0.0,0.0,0.0
0,-0.0633765310049057,-0.7665159702301025,0.2556943893432617,-0.5828300714492798,0.0,0.0,0.0
0,-0.08014367520809174,-0.7642360925674438,0.26812607049942017,-0.5781545042991638,0.0,0.0,0.0
0,-0.09684894979000092,-0.7616597414016724,0.2804670035839081,-0.5731204748153687,0.0,0.0,0.0
0,-0.11352121084928513,-0.7588086128234863,0.29264509677886963,-0.5677278637886047,0.0,0.0,0.0
0,-0.13007549941539764,-0.7553237080574036,0.3050428330898285,-0.5622714757919312,0.0,0.0,0.0
0,-0.1462917923927307,-0.7514679431915283,0.3171484172344208,-0.556727409362793,0.0,0.0,0.0
0,-0.16277770698070526,-0.7468675971031189,0.3293306529521942,-0.5512417554855347,0.0,0.0,0.0
0,-0.1789732128381729,-0.7421168684959412,0.34139955043792725,-0.5452626347541809,0.0,0.0,0.0
0,-0.1954023540019989,-0.7370654344558716,0.35353419184684753,-0.5387022495269775,0.0,0.0,0.0
0,-0.21188169717788696,-0.7316972613334656,0.36543717980384827,-0.5318034291267395,0.0,0.0,0.0
0,-0.2282777577638626,-0.7261342406272888,0.3770067095756531,-0.5245171189308167,0.0,0.0,0.0
0,-0.244207963347435,-0.7199321985244751,0.3890227675437927,-0.5170642137527466,0.0,0.0,0.0
0,-0.25950220227241516,-0.7136714458465576,0.4005807340145111,-0.5094119906425476,0.0,0.0,0.0
0,-0.27485641837120056,-0.7065863013267517,0.4123980402946472,-0.5017486214637756,0.0,0.0,0.0
0,-0.2897791266441345,-0.6992051601409912,0.42417672276496887,-0.49380987882614136,0.0,0.0,0.0
0,-0.3044987916946411,-0.6916154623031616,0.43582016229629517,-0.48543110489845276,0.0,0.0,0.0
0,-0.3196913003921509,-0.6835073232650757,0.4469793438911438,-0.4769262969493866,0.0,0.0,0.0
0,-0.3353317677974701,-0.6751314401626587,0.4574640691280365,-0.46809259057044983,0.0,0.0,0.0
0,-0.35096806287765503,-0.666368842124939,0.4679631292819977,-0.45871391892433167,0.0,0.0,0.0
0,-0.3664644658565521,-0.6572808623313904,0.4785066545009613,-0.44872140884399414,0.0,0.0,0.0
0,-0.3832509517669678,-0.6468477249145508,0.4896566867828369,-0.43769481778144836,0.0,0.0,0.0
0,-0.3985193371772766,-0.6369463205337524,0.49919581413269043,-0.4276905059814453,0.0,0.0,0.0
0,-0.41387268900871277,-0.6263792514801025,0.5087264776229858,-0.41736024618148804,0.0,0.0,0.0
0,-0.4286864399909973,-0.6156412363052368,0.5182521939277649,-0.4065245985984802,0.0,0.0,0.0
0,-0.4429962933063507,-0.6043745875358582,0.527782678604126,-0.3956828713417053,0.0,0.0,0.0
0,-0.4570213258266449,-0.5928139090538025,0.5367758870124817,-0.3849787712097168,0.0,0.0,0.0
0,-0.4710792005062103,-0.5804752111434937,0.5456202626228333,-0.3742530047893524,0.0,0.0,0.0
0,-0.4845178425312042,-0.568049430847168,0.5542657375335693,-0.36329811811447144,0.0,0.0,0.0
0,-0.4979880750179291,-0.555088222026825,0.5627220273017883,-0.35194143652915955,0.0,0.0,0.0
0,-0.5109396576881409,-0.5420519709587097,0.5709505677223206,-0.340249240398407,0.0,0.0,0.0
0,-0.523836612701416,-0.5285384058952332,0.5788376331329346,-0.3283644914627075,0.0,0.0,0.0
0,-0.5365766286849976,-0.514581561088562,0.5863250494003296,-0.3164615035057068,0.0,0.0,0.0
0,-0.5488721132278442,-0.5004488825798035,0.5935619473457336,-0.30431637167930603,0.0,0.0,0.0
0,-0.5611409544944763,-0.4857601225376129,0.6005484461784363,-0.2917763888835907,0.0,0.0,0.0
0,-0.573007345199585,-0.47103336453437805,0.6070237159729004,-0.2791885733604431,0.0,0.0,0.0
0,-0.584500789642334,-0.4559159576892853,0.6132315397262573,-0.2666087746620178,0.0,0.0,0.0
0,-0.5957525372505188,-0.4402267634868622,0.6192575097084045,-0.25383681058883667,0.0,0.0,0.0
0,-0.6066086888313293,-0.4242657721042633,0.6249582767486572,-0.24100913107395172,0.0,0.0,0.0
0,-0.6181007623672485,-0.40633657574653625,0.6308602690696716,-0.22691647708415985,0.0,0.0,0.0
0,-0.6272722482681274,-0.39147257804870605,0.6352835297584534,-0.2152376025915146,0.0,0.0,0.0
0,-0.6372691988945007,-0.37474897503852844,0.6397938132286072,-0.20186308026313782,0.0,0.0,0.0
0,-0.6562916040420532,-0.3406173586845398,0.6476940512657166,-0.17431917786598206,0.0,0.0,0.0
0,-0.6653714776039124,-0.32306984066963196,0.650944173336029,-0.1606607735157013,0.0,0.0,0.0
0,-0.6739369034767151,-0.3053050935268402,0.6539125442504883,-0.1470709592103958,0.0,0.0,0.0
0,-0.6821432709693909,-0.28729236125946045,0.6565014719963074,-0.13335317373275757,0.0,0.0,0.0
0,-0.6821432709693909,-0.28729236125946045,0.6565014719963074,-0.13335317373275757,0.0,0.0,0.0
0,-0.6899933218955994,-0.2691505253314972,0.6586456298828125,-0.11952709406614304,0.0,0.0,0.0
0,-0.6982092261314392,-0.2490246444940567,0.6605111956596375,-0.10415887087583542,0.0,0.0,0.0
0,-0.7052626013755798,-0.2303992658853531,0.6618157625198364,-0.09030021727085114,0.0,0.0,0.0
0,-0.7118633985519409,-0.2117372304201126,0.6627185344696045,-0.07652213424444199,0.0,0.0,0.0
0,-0.7182006239891052,-0.1929502636194229,0.6630715727806091,-0.06267111003398895,0.0,0.0,0.0
0,-0.7241232395172119,-0.17403215169906616,0.6630405783653259,-0.04867130517959595,0.0,0.0,0.0
0,-0.7296056747436523,-0.15502521395683289,0.6626297235488892,-0.034613486379384995,0.0,0.0,0.0
0,-0.7347733378410339,-0.13596001267433167,0.6616904139518738,-0.020547671243548393,0.0,0.0,0.0
0,-0.7395210266113281,-0.11681006103754044,0.6603443026542664,-0.00654715346172452,0.0,0.0,0.0
0,-0.7438446879386902,-0.0975540354847908,0.6586034893989563,0.007281748577952385,0.0,0.0,0.0
0,-0.7477654814720154,-0.07833219319581985,0.6564282178878784,0.021122755482792854,0.0,0.0,0.0
0,-0.751288890838623,-0.059123143553733826,0.6538125872612,0.035100918263196945,0.0,0.0,0.0
0,-0.7543657422065735,-0.04003032669425011,0.6507999897003174,0.04921889677643776,0.0,0.0,0.0
0,-0.7571339011192322,-0.02095915749669075,0.6472505927085876,0.06331705302000046,0.0,0.0,0.0
0,-0.7595584988594055,-0.0019233892671763897,0.6432223916053772,0.07723665982484818,0.0,0.0,0.0
0,-0.7615259885787964,0.017047692090272903,0.6388677954673767,0.09093254059553146,0.0,0.0,0.0
0,-0.7631117701530457,0.03592265397310257,0.6341098546981812,0.10444065183401108,0.0,0.0,0.0
0,-0.7642975449562073,0.05465374141931534,0.6289562582969666,0.11793820559978485,0.0,0.0,0.0
0,-0.76506507396698,0.07320888340473175,0.6234228014945984,0.13150323927402496,0.0,0.0,0.0
0,-0.7653923630714417,0.0915260910987854,0.6175558567047119,0.14510507881641388,0.0,0.0,0.0
0,-0.7653872966766357,0.10964605957269669,0.6112539768218994,0.158625066280365,0.0,0.0,0.0
0,-0.7650339603424072,0.12755124270915985,0.6045553088188171,0.17204652726650238,0.0,0.0,0.0
0,-0.764218807220459,0.14530937373638153,0.5975911617279053,0.18539898097515106,0.0,0.0,0.0
0,-0.7630256414413452,0.1628338247537613,0.5903359055519104,0.1985282450914383,0.0,0.0,0.0
0,-0.7614855170249939,0.18013720214366913,0.5827295780181885,0.21154168248176575,0.0,0.0,0.0
0,-0.7595951557159424,0.1971224695444107,0.5748748183250427,0.22429881989955902,0.0,0.0,0.0
0,-0.7573142051696777,0.2139141857624054,0.5667327046394348,0.23698799312114716,0.0,0.0,0.0
0,-0.7546341419219971,0.23036520183086395,0.5583628416061401,0.2496463656425476,0.0,0.0,0.0
0,-0.7515877485275269,0.24652786552906036,0.5497594475746155,0.26217854022979736,0.0,0.0,0.0
0,-0.7478330135345459,0.26399871706962585,0.5400314331054688,0.27577099204063416,0.0,0.0,0.0
0,-0.744043231010437,0.279526948928833,0.5310220122337341,0.2879461348056793,0.0,0.0,0.0
0,-0.7399090528488159,0.2948167324066162,0.5217721462249756,0.30000749230384827,0.0,0.0,0.0
0,-0.7354654669761658,0.3097648024559021,0.512367308139801,0.311847984790802,0.0,0.0,0.0
0,-0.730701208114624,0.3244146406650543,0.5027599930763245,0.3235679864883423,0.0,0.0,0.0
0,-0.7255557179450989,0.338727742433548,0.4930667579174042,0.3351878821849823,0.0,0.0,0.0
0,-0.7199954390525818,0.35274243354797363,0.48327749967575073,0.34677854180336,0.0,0.0,0.0
0,-0.7141016721725464,0.36647510528564453,0.47336265444755554,0.358211874961853,0.0,0.0,0.0
0,-0.7079111933708191,0.37992948293685913,0.46325618028640747,0.3695160150527954,0.0,0.0,0.0
0,-0.7014044523239136,0.3930913507938385,0.4531145393848419,0.38056671619415283,0.0,0.0,0.0
0,-0.6946240663528442,0.4060596823692322,0.44287317991256714,0.3912917375564575,0.0,0.0,0.0
0,-0.6875981092453003,0.41864460706710815,0.43252986669540405,0.4018663763999939,0.0,0.0,0.0
0,-0.6802238821983337,0.4310152530670166,0.4220605194568634,0.41233399510383606,0.0,0.0,0.0
0,-0.6725037097930908,0.44313132762908936,0.41157951951026917,0.4226214587688446,0.0,0.0,0.0
0,-0.6644800305366516,0.45501652359962463,0.40101173520088196,0.43272268772125244,0.0,0.0,0.0
0,-0.6562156081199646,0.46664875745773315,0.3903651535511017,0.4425700008869171,0.0,0.0,0.0
0,-0.6476989984512329,0.47799190878868103,0.3796846568584442,0.4521971344947815,0.0,0.0,0.0
0,-0.6388728022575378,0.4891432523727417,0.36890506744384766,0.46165210008621216,0.0,0.0,0.0
0,-0.6298274993896484,0.5000343918800354,0.35807210206985474,0.4708506762981415,0.0,0.0,0.0
0,-0.6204783916473389,0.5107052326202393,0.34717968106269836,0.4798813760280609,0.0,0.0,0.0
0,-0.6108234524726868,0.5211383104324341,0.33625054359436035,0.48875173926353455,0.0,0.0,0.0
0,-0.6008977293968201,0.5313578844070435,0.32525402307510376,0.4974171817302704,0.0,0.0,0.0
0,-0.5907976627349854,0.5413085222244263,0.31416845321655273,0.5058406591415405,0.0,0.0,0.0
0,-0.5805044174194336,0.551034688949585,0.30302783846855164,0.5139872431755066,0.0,0.0,0.0
0,-0.5805044174194336,0.551034688949585,0.30302783846855164,0.5139872431755066,0.0,0.0,0.0
0,-0.5699384212493896,0.5605995655059814,0.2918567359447479,0.5218726992607117,0.0,0.0,0.0
0,-0.5591094493865967,0.569976270198822,0.28059121966362,0.5295520424842834,0.0,0.0,0.0
0,-0.5591094493865967,0.569976270198822,0.28059121966362,0.5295520424842834,0.0,0.0,0.0
0,-0.5470070838928223,0.5799611806869507,0.26813969016075134,0.5377384424209595,0.0,0.0,0.0
0,-0.5357006788253784,0.5888428092002869,0.2568160593509674,0.5449472665786743,0.0,0.0,0.0
0,-0.5240932703018188,0.5976058840751648,0.24534058570861816,0.5519373416900635,0.0,0.0,0.0
0,-0.5124216675758362,0.6061169505119324,0.23380078375339508,0.5585847496986389,0.0,0.0,0.0
0,-0.5005140900611877,0.6143839359283447,0.22237518429756165,0.5649784207344055,0.0,0.0,0.0
0,-0.48856639862060547,0.6227065920829773,0.21042975783348083,0.5708695650100708,0.0,0.0,0.0
0,-0.4767877459526062,0.6306324005126953,0.19924244284629822,0.5761179327964783,0.0,0.0,0.0
0,-0.464781254529953,0.6381158828735352,0.18773888051509857,0.5815272331237793,0.0,0.0,0.0
0,-0.45274028182029724,0.6457231640815735,0.17586678266525269,0.5863207578659058,0.0,0.0,0.0
0,-0.4404168128967285,0.6531591415405273,0.163435161113739,0.5910485982894897,0.0,0.0,0.0
0,-0.4282013475894928,0.6599456667900085,0.15121543407440186,0.5957202315330505,0.0,0.0,0.0
0,-0.4153222441673279,0.6664087772369385,0.1392100304365158,0.6005504727363586,0.0,0.0,0.0
0,-0.40180525183677673,0.6730558276176453,0.12711426615715027,0.6049990653991699,0.0,0.0,0.0
0,-0.3880791962146759,0.6796098947525024,0.115236297249794,0.6089984178543091,0.0,0.0,0.0
0,-0.37395739555358887,0.6856099367141724,0.10310813039541245,0.6132675409317017,0.0,0.0,0.0
0,-0.35943642258644104,0.6912317872047424,0.0911935418844223,0.617512047290802,0.0,0.0,0.0
0,-0.34523341059684753,0.6971028447151184,0.07886101305484772,0.6207061409950256,0.0,0.0,0.0
0,-0.3316304087638855,0.7027971744537354,0.06627099961042404,0.6231686472892761,0.0,0.0,0.0
0,-0.31811338663101196,0.7077709436416626,0.053558867424726486,0.6258026957511902,0.0,0.0,0.0
0,-0.3038179278373718,0.7122454047203064,0.04087396711111069,0.6287797093391418,0.0,0.0,0.0
0,-0.28864046931266785,0.7168957591056824,0.028481075540184975,0.6313236951828003,0.0,0.0,0.0
0,-0.27299055457115173,0.7215712666511536,0.01624012365937233,0.6333885192871094,0.0,0.0,0.0
0,-0.2571667432785034,0.72584068775177,0.004009123891592026,0.6353251338005066,0.0,0.0,0.0
0,-0.24119699001312256,0.729640007019043,-0.008307617157697678,0.6371924877166748,0.0,0.0,0.0
0,-0.22520530223846436,0.7332409024238586,-0.020829614251852036,0.6386235356330872,0.0,0.0,0.0
0,-0.2080603986978531,0.7370031476020813,-0.03479248657822609,0.6395001411437988,0.0,0.0,0.0
0,-0.19286030530929565,0.7399313449859619,-0.04787980765104294,0.6400372385978699,0.0,0.0,0.0
0,-0.17756067216396332,0.742381751537323,-0.06095052510499954,0.6405156254768372,0.0,0.0,0.0
0,-0.1618604063987732,0.7447209358215332,-0.07371620088815689,0.6406180262565613,0.0,0.0,0.0
0,-0.14597877860069275,0.7470037937164307,-0.0868353471159935,0.6401318907737732,0.0,0.0,0.0
0,-0.13070251047611237,0.7491533756256104,-0.09962107241153717,0.6390582323074341,0.0,0.0,0.0
0,-0.11607898026704788,0.7506426572799683,-0.11289253830909729,0.6379266977310181,0.0,0.0,0.0
0,-0.10202600061893463,0.7516735196113586,-0.12677836418151855,0.6365049481391907,0.0,0.0,0.0
0,-0.08713360875844955,0.7522141933441162,-0.14064525067806244,0.635164737701416,0.0,0.0,0.0
0,-0.07071808725595474,0.7523428201675415,-0.1534702628850937,0.6340819001197815,0.0,0.0,0.0
0,-0.0531310997903347,0.7525779604911804,-0.16567037999629974,0.6324481964111328,0.0,0.0,0.0
0,-0.03484832122921944,0.7532389760017395,-0.1774739772081375,0.6297248005867004,0.0,0.0,0.0
0,-0.015686310827732086,0.7534641623497009,-0.18951454758644104,0.6267086267471313,0.0,0.0,0.0
0,0.005433708894997835,0.752707302570343,-0.2028087079524994,0.6236222386360168,0.0,0.0,0.0
0,0.021931979805231094,0.751684844493866,-0.21387144923210144,0.6207911372184753,0.0,0.0,0.0
0,0.03894181177020073,0.7503997087478638,-0.22604577243328094,0.6171879768371582,0.0,0.0,0.0
0,0.0551297627389431,0.7486969232559204,-0.23902910947799683,0.613116979598999,0.0,0.0,0.0
0,0.07076449692249298,0.7462421655654907,-0.2527005672454834,0.6090085506439209,0.0,0.0,0.0
0,0.08591244369745255,0.743288516998291,-0.26633837819099426,0.6048462986946106,0.0,0.0,0.0
0,0.10095339268445969,0.7403396368026733,-0.2790580689907074,0.6003884077072144,0.0,0.0,0.0
0,0.1506389081478119,0.7292644381523132,-0.31690940260887146,0.5845370888710022,0.0,0.0,0.0
0,0.16750963032245636,0.7248444557189941,-0.3293459415435791,0.5785379409790039,0.0,0.0,0.0
0,0.18401144444942474,0.7201575636863708,-0.3411637246608734,0.5724980235099792,0.0,0.0,0.0
0,0.201846644282341,0.7144655585289001,-0.3547472655773163,0.5653185844421387,0.0,0.0,0.0
0,0.2174777090549469,0.7088057398796082,-0.36751046776771545,0.5584511756896973,0.0,0.0,0.0
0,0.23266156017780304,0.7032963633537292,-0.37947237491607666,0.5512505769729614,0.0,0.0,0.0
