time_boot_ms,press_abs,press_diff,temperature
184250,1007.76953125,-1.066796037779996e+31,3063
184270,1007.7487182617188,-1.066796037779996e+31,3062
184300,1007.78955078125,-1.066796037779996e+31,3062
184350,1007.7813720703125,-1.066796037779996e+31,3064
184370,1007.7771606445312,-1.066796037779996e+31,3063
185250,1007.774169921875,-1.066796037779996e+31,3063
185270,1007.7915649414062,-1.066796037779996e+31,3064
185310,1007.7911376953125,-1.066796037779996e+31,3063
185350,1007.7923583984375,-1.066796037779996e+31,3064
185370,1007.7677612304688,-1.066796037779996e+31,3064
186250,1007.7591552734375,-1.066796037779996e+31,3065
186280,1007.7901611328125,-1.066796037779996e+31,3065
186310,1007.7939453125,-1.066796037779996e+31,3065
186360,1007.7659301757812,-1.066796037779996e+31,3065
186380,1007.7685546875,-1.066796037779996e+31,3064
187260,1007.772216796875,-1.066796037779996e+31,3066
187280,1007.7815551757812,-1.066796037779996e+31,3066
187310,1007.7680053710938,-1.066796037779996e+31,3066
187360,1007.7539672851562,-1.066796037779996e+31,3066
187380,1007.7739868164062,-1.066796037779996e+31,3065
188260,1007.7661743164062,-1.066796037779996e+31,3067
188290,1007.7649536132812,-1.066796037779996e+31,3066
188320,1007.745361328125,-1.066796037779996e+31,3067
188360,1007.768798828125,-1.066796037779996e+31,3066
188390,1007.8040161132812,-1.066796037779996e+31,3067
188410,1007.78662109375,-1.066796037779996e+31,3067
189260,1007.7606201171875,-1.066796037779996e+31,3068
189290,1007.7371826171875,-1.066796037779996e+31,3068
189320,1007.7919921875,-1.066796037779996e+31,3068
189370,1007.7410278320312,-1.066796037779996e+31,3068
189390,1007.7504272460938,-1.066796037779996e+31,3068
190270,1007.7711791992188,-1.066796037779996e+31,3068
190290,1007.7648315429688,-1.066796037779996e+31,3068
190320,1007.7651977539062,-1.066796037779996e+31,3068
190390,1007.7515869140625,-1.066796037779996e+31,3068
191270,1007.7740478515625,-1.066796037779996e+31,3070
191290,1007.73583984375,-1.066796037779996e+31,3069
191330,1007.7252197265625,-1.066796037779996e+31,3069
191370,1007.7880249023438,-1.066796037779996e+31,3070
191400,1007.7740478515625,-1.066796037779996e+31,3070
192270,1007.7570190429688,-1.066796037779996e+31,3070
192300,1007.7604370117188,-1.066796037779996e+31,3070
192330,1007.7616577148438,-1.066796037779996e+31,3070
192380,1007.7442016601562,-1.066796037779996e+31,3070
192400,1007.7574462890625,-1.066796037779996e+31,3070
193280,1007.7496337890625,-1.066796037779996e+31,3071
193300,1007.7666625976562,-1.066796037779996e+31,3071
193330,1007.7734375,-1.066796037779996e+31,3071
193390,1007.7462768554688,-1.066796037779996e+31,3071
193400,1007.7564697265625,-1.066796037779996e+31,3071
194280,1007.7696533203125,-1.066796037779996e+31,3071
194300,1007.7806396484375,-1.066796037779996e+31,3072
194340,1007.7886962890625,-1.066796037779996e+31,3073
194390,1007.7772827148438,-1.066796037779996e+31,3072
194400,1007.7444458007812,-1.066796037779996e+31,3073
195290,1007.7826538085938,-1.066796037779996e+31,3073
195310,1007.7678833007812,-1.066796037779996e+31,3072
195340,1007.7678833007812,-1.066796037779996e+31,3072
195390,1007.758056640625,-1.066796037779996e+31,3073
195410,1007.779296875,-1.066796037779996e+31,3073
196290,1007.7597045898438,-1.066796037779996e+31,3074
196310,1007.7597045898438,-1.066796037779996e+31,3074
196340,1007.7774658203125,-1.066796037779996e+31,3074
196390,1007.773681640625,-1.066796037779996e+31,3074
196410,1007.7838745117188,-1.066796037779996e+31,3074
197290,1007.802490234375,-1.066796037779996e+31,3075
197320,1007.8021240234375,-1.066796037779996e+31,3075
197350,1007.8051147460938,-1.066796037779996e+31,3074
197400,1007.753662109375,-1.066796037779996e+31,3074
197420,1007.776123046875,-1.066796037779996e+31,3075
198300,1007.782470703125,-1.066796037779996e+31,3075
198320,1007.7710571289062,-1.066796037779996e+31,3074
198350,1007.7752685546875,-1.066796037779996e+31,3075
198400,1007.77490234375,-1.066796037779996e+31,3075
198420,1007.7553100585938,-1.066796037779996e+31,3075
199300,1007.7216796875,-1.066796037779996e+31,3075
199320,1007.7603149414062,-1.066796037779996e+31,3076
199350,1007.7734985351562,-1.066796037779996e+31,3076
199400,1007.7803344726562,-1.066796037779996e+31,3076
199420,1007.7450561523438,-1.066796037779996e+31,3075
200300,1007.7747192382812,-1.066796037779996e+31,3077
200320,1007.7772827148438,-1.066796037779996e+31,3076
200360,1007.8155517578125,-1.066796037779996e+31,3077
200410,1007.7875366210938,-1.066796037779996e+31,3076
200430,1007.7811279296875,-1.066796037779996e+31,3076
201300,1007.7937622070312,-1.066796037779996e+31,3078
201320,1007.797119140625,-1.066796037779996e+31,3078
201360,1007.7899169921875,-1.066796037779996e+31,3078
201410,1007.8035278320312,-1.066796037779996e+31,3078
201430,1007.8099365234375,-1.066796037779996e+31,3077
202310,1007.7809448242188,-1.066796037779996e+31,3078
202330,1007.7975463867188,-1.066796037779996e+31,3078
202360,1007.7775268554688,-1.066796037779996e+31,3078
202410,1007.7813110351562,-1.066796037779996e+31,3079
202430,1007.8085327148438,-1.066796037779996e+31,3079
203310,1007.799560546875,-1.066796037779996e+31,3079
203330,1007.8135375976562,-1.066796037779996e+31,3080
203370,1007.8237915039062,-1.066796037779996e+31,3080
203410,1007.802978515625,-1.066796037779996e+31,3079
203430,1007.8059692382812,-1.066796037779996e+31,3079
204310,1007.8063354492188,-1.066796037779996e+31,3079
204330,1007.7825317382812,-1.066796037779996e+31,3079
204370,1007.8067626953125,-1.066796037779996e+31,3080
204420,1007.7871704101562,-1.066796037779996e+31,3080
204440,1007.7931518554688,-1.066796037779996e+31,3080
205320,1007.8053588867188,-1.066796037779996e+31,3081
205340,1007.7981567382812,-1.066796037779996e+31,3081
205370,1007.7841796875,-1.066796037779996e+31,3080
205420,1007.8023681640625,-1.066796037779996e+31,3081
205440,1007.8023681640625,-1.066796037779996e+31,3081
206320,1007.7959594726562,-1.066796037779996e+31,3081
206340,1007.7959594726562,-1.066796037779996e+31,3081
206380,1007.81298828125,-1.066796037779996e+31,3081
206420,1007.7747802734375,-1.066796037779996e+31,3081
206440,1007.788330078125,-1.066796037779996e+31,3081
207320,1007.76953125,-1.066796037779996e+31,3082
207340,1007.7691650390625,-1.066796037779996e+31,3082
207390,1007.7937622070312,-1.066796037779996e+31,3082
207430,1007.7869873046875,-1.066796037779996e+31,3082
207450,1007.7767333984375,-1.066796037779996e+31,3082
208330,1007.8222045898438,-1.066796037779996e+31,3083
208350,1007.787353515625,-1.066796037779996e+31,3082
208390,1007.7805786132812,-1.066796037779996e+31,3082
208430,1007.767333984375,-1.066796037779996e+31,3083
208450,1007.7503662109375,-1.066796037779996e+31,3083
209330,1007.8187866210938,-1.066796037779996e+31,3083
209350,1007.7881469726562,-1.066796037779996e+31,3083
209390,1007.7991943359375,-1.066796037779996e+31,3083
209430,1007.8302001953125,-1.066796037779996e+31,3084
209460,1007.7715454101562,-1.066796037779996e+31,3083
209490,1007.799560546875,-1.066796037779996e+31,3084
210330,1007.8272094726562,-1.066796037779996e+31,3084
210350,1007.82421875,-1.066796037779996e+31,3084
210390,1007.7969970703125,-1.066796037779996e+31,3084
210440,1007.7901611328125,-1.066796037779996e+31,3084
210460,1007.8079833984375,-1.066796037779996e+31,3085
211340,1007.8092041015625,-1.066796037779996e+31,3085
211360,1007.8121948242188,-1.066796037779996e+31,3085
211390,1007.78076171875,-1.066796037779996e+31,3085
211440,1007.8114013671875,-1.066796037779996e+31,3085
211460,1007.80078125,-1.066796037779996e+31,3084
212340,1007.8338012695312,-1.066796037779996e+31,3086
212360,1007.8300170898438,-1.066796037779996e+31,3086
212400,1007.8023681640625,-1.066796037779996e+31,3085
212440,1007.8262329101562,-1.066796037779996e+31,3085
212460,1007.8330078125,-1.066796037779996e+31,3085
213340,1007.7946166992188,-1.066796037779996e+31,3087
213370,1007.7938232421875,-1.066796037779996e+31,3086
213400,1007.8218383789062,-1.066796037779996e+31,3087
213450,1007.8005981445312,-1.066796037779996e+31,3086
213470,1007.7938232421875,-1.066796037779996e+31,3086
214350,1007.7669677734375,-1.066796037779996e+31,3087
214370,1007.7572021484375,-1.066796037779996e+31,3087
214400,1007.7542114257812,-1.066796037779996e+31,3087
214450,1007.73974609375,-1.066796037779996e+31,3087
214470,1007.760986328125,-1.066796037779996e+31,3087
215350,1007.7855834960938,-1.066796037779996e+31,3088
215370,1007.7872314453125,-1.066796037779996e+31,3089
215410,1007.7936401367188,-1.066796037779996e+31,3088
215460,1007.8182373046875,-1.066796037779996e+31,3089
215480,1007.7999877929688,-1.066796037779996e+31,3088
216350,1007.7808227539062,-1.066796037779996e+31,3089
216370,1007.7808227539062,-1.066796037779996e+31,3089
217360,1007.7824096679688,-1.066796037779996e+31,3090
217390,1007.8024291992188,-1.066796037779996e+31,3090
217410,1007.7824096679688,-1.066796037779996e+31,3090
217460,1007.806640625,-1.066796037779996e+31,3090
217490,1007.81005859375,-1.066796037779996e+31,3090
218360,1007.7551879882812,-1.066796037779996e+31,3090
218390,1007.7658081054688,-1.066796037779996e+31,3090
218390,1007.7658081054688,-1.066796037779996e+31,3090
218420,1007.7836303710938,-1.066796037779996e+31,3091
218470,1007.7593994140625,-1.066796037779996e+31,3090
218490,1007.755615234375,-1.066796037779996e+31,3090
219360,1007.7814331054688,-1.066796037779996e+31,3091
219390,1007.8056030273438,-1.066796037779996e+31,3092
219420,1007.8078002929688,-1.066796037779996e+31,3091
219470,1007.7911987304688,-1.066796037779996e+31,3091
219490,1007.7780151367188,-1.066796037779996e+31,3091
220370,1007.771240234375,-1.066796037779996e+31,3091
220390,1007.777587890625,-1.066796037779996e+31,3091
220430,1007.7950439453125,-1.066796037779996e+31,3091
220470,1007.7545776367188,-1.066796037779996e+31,3092
220490,1007.7860107421875,-1.066796037779996e+31,3092
221380,1007.7822265625,-1.066796037779996e+31,3092
221410,1007.76220703125,-1.066796037779996e+31,3092
221430,1007.7736206054688,-1.066796037779996e+31,3093
221490,1007.7872314453125,-1.066796037779996e+31,3093
221500,1007.7936401367188,-1.066796037779996e+31,3093
222370,1007.7936401367188,-1.066796037779996e+31,3093
222400,1007.773193359375,-1.066796037779996e+31,3093
222430,1007.7770385742188,-1.066796037779996e+31,3093
222480,1007.7808227539062,-1.066796037779996e+31,3093
222500,1007.756591796875,-1.066796037779996e+31,3093
223380,1007.7994384765625,-1.066796037779996e+31,3094
223400,1007.7774047851562,-1.066796037779996e+31,3093
223440,1007.7846069335938,-1.066796037779996e+31,3093
223490,1007.7645874023438,-1.066796037779996e+31,3094
223510,1007.7816162109375,-1.066796037779996e+31,3094
223530,1007.8028564453125,-1.066796037779996e+31,3094
224390,1007.7946166992188,-1.066796037779996e+31,3095
224400,1007.7946166992188,-1.066796037779996e+31,3095
224440,1007.7752075195312,-1.066796037779996e+31,3094
224490,1007.7666015625,-1.066796037779996e+31,3095
224510,1007.77001953125,-1.066796037779996e+31,3095
225390,1007.7628173828125,-1.066796037779996e+31,3095
225410,1007.7662353515625,-1.066796037779996e+31,3095
225440,1007.7814331054688,-1.066796037779996e+31,3096
225490,1007.7984619140625,-1.066796037779996e+31,3096
225510,1007.7908325195312,-1.066796037779996e+31,3095
226390,1007.7542114257812,-1.066796037779996e+31,3096
226410,1007.7542114257812,-1.066796037779996e+31,3096
226440,1007.747802734375,-1.066796037779996e+31,3096
226510,1007.798828125,-1.066796037779996e+31,3096
226510,1007.798828125,-1.066796037779996e+31,3096
227390,1007.8038330078125,-1.066796037779996e+31,3097
227410,1007.8038330078125,-1.066796037779996e+31,3097
227450,1007.7762451171875,-1.066796037779996e+31,3097
227490,1007.7830200195312,-1.066796037779996e+31,3097
227510,1007.7894287109375,-1.066796037779996e+31,3096
228390,1007.7650146484375,-1.066796037779996e+31,3098
228420,1007.77099609375,-1.066796037779996e+31,3098
228450,1007.7816162109375,-1.066796037779996e+31,3098
228500,1007.77783203125,-1.066796037779996e+31,3098
228520,1007.795654296875,-1.066796037779996e+31,3098
229400,1007.7540283203125,-1.066796037779996e+31,3098
229420,1007.768798828125,-1.066796037779996e+31,3098
229420,1007.768798828125,-1.066796037779996e+31,3098
229450,1007.7752075195312,-1.066796037779996e+31,3098
229500,1007.779052734375,-1.066796037779996e+31,3098
229520,1007.7884521484375,-1.066796037779996e+31,3098
230400,1007.7862548828125,-1.066796037779996e+31,3099
230420,1007.7946166992188,-1.066796037779996e+31,3100
230460,1007.77685546875,-1.066796037779996e+31,3099
230500,1007.7874145507812,-1.066796037779996e+31,3100
230530,1007.804443359375,-1.066796037779996e+31,3100
231400,1007.8294677734375,-1.066796037779996e+31,3100
231430,1007.8154296875,-1.066796037779996e+31,3100
231460,1007.7908325195312,-1.066796037779996e+31,3100
231510,1007.7640380859375,-1.066796037779996e+31,3100
231530,1007.8090209960938,-1.066796037779996e+31,3100
232410,1007.7928466796875,-1.066796037779996e+31,3101
232430,1007.8242797851562,-1.066796037779996e+31,3101
232460,1007.8094482421875,-1.066796037779996e+31,3101
232510,1007.8102416992188,-1.066796037779996e+31,3101
232530,1007.7750244140625,-1.066796037779996e+31,3100
233410,1007.7838134765625,-1.066796037779996e+31,3102
233430,1007.7493896484375,-1.066796037779996e+31,3101
233460,1007.7744140625,-1.066796037779996e+31,3102
233510,1007.7914428710938,-1.066796037779996e+31,3102
233530,1007.773193359375,-1.066796037779996e+31,3101
234410,1007.78125,-1.066796037779996e+31,3102
234430,1007.7680053710938,-1.066796037779996e+31,3102
234470,1007.7717895507812,-1.066796037779996e+31,3103
234510,1007.7838134765625,-1.066796037779996e+31,3102
234540,1007.77099609375,-1.066796037779996e+31,3102
235420,1007.7726440429688,-1.066796037779996e+31,3103
235440,1007.806640625,-1.066796037779996e+31,3103
235440,1007.806640625,-1.066796037779996e+31,3103
235470,1007.7730102539062,-1.066796037779996e+31,3103
235520,1007.768798828125,-1.066796037779996e+31,3103
235550,1007.7578125,-1.066796037779996e+31,3102
235570,1007.7445678710938,-1.066796037779996e+31,3103
235570,1007.7445678710938,-1.066796037779996e+31,3103
236420,1007.8036499023438,-1.066796037779996e+31,3103
236440,1007.78662109375,-1.066796037779996e+31,3103
236480,1007.7449951171875,-1.066796037779996e+31,3103
236520,1007.7703857421875,-1.066796037779996e+31,3104
236540,1007.7623901367188,-1.066796037779996e+31,3103
237420,1007.7567749023438,-1.066796037779996e+31,3104
237440,1007.7848510742188,-1.066796037779996e+31,3104
237480,1007.764404296875,-1.066796037779996e+31,3104
237520,1007.7666015625,-1.066796037779996e+31,3104
237550,1007.7564086914062,-1.066796037779996e+31,3104
238430,1007.7920532226562,-1.066796037779996e+31,3105
238430,1007.7920532226562,-1.066796037779996e+31,3105
238450,1007.8116455078125,-1.066796037779996e+31,3104
238490,1007.7924194335938,-1.066796037779996e+31,3105
238530,1007.814453125,-1.066796037779996e+31,3106
238550,1007.8128662109375,-1.066796037779996e+31,3105
239430,1007.793212890625,-1.066796037779996e+31,3105
239450,1007.8208618164062,-1.066796037779996e+31,3106
239490,1007.800048828125,-1.066796037779996e+31,3105
239530,1007.8004150390625,-1.066796037779996e+31,3106
239550,1007.8004150390625,-1.066796037779996e+31,3106
240430,1007.8182373046875,-1.066796037779996e+31,3106
240450,1007.81103515625,-1.066796037779996e+31,3106
240490,1007.8118286132812,-1.066796037779996e+31,3106
240540,1007.8216552734375,-1.066796037779996e+31,3106
240560,1007.8182373046875,-1.066796037779996e+31,3106
241440,1007.812255859375,-1.066796037779996e+31,3107
241460,1007.830078125,-1.066796037779996e+31,3107
241490,1007.815673828125,-1.066796037779996e+31,3107
241540,1007.7982177734375,-1.066796037779996e+31,3106
241560,1007.7947998046875,-1.066796037779996e+31,3106
242440,1007.8126220703125,-1.066796037779996e+31,3107
242460,1007.7880249023438,-1.066796037779996e+31,3106
242500,1007.8164672851562,-1.066796037779996e+31,3107
242540,1007.8138427734375,-1.066796037779996e+31,3108
242560,1007.8062133789062,-1.066796037779996e+31,3107
243440,1007.804443359375,-1.066796037779996e+31,3108
243460,1007.8036499023438,-1.066796037779996e+31,3108
243500,1007.8218383789062,-1.066796037779996e+31,3108
243550,1007.83544921875,-1.066796037779996e+31,3108
243570,1007.8180541992188,-1.066796037779996e+31,3108
244450,1007.8108520507812,-1.066796037779996e+31,3108
244470,1007.8108520507812,-1.066796037779996e+31,3108
244500,1007.8074340820312,-1.066796037779996e+31,3108
244550,1007.7980346679688,-1.066796037779996e+31,3108
244570,1007.7942504882812,-1.066796037779996e+31,3108
245450,1007.7750244140625,-1.066796037779996e+31,3109
245470,1007.7605590820312,-1.066796037779996e+31,3108
245500,1007.7783813476562,-1.066796037779996e+31,3109
245550,1007.7916259765625,-1.066796037779996e+31,3109
245570,1007.8128051757812,-1.066796037779996e+31,3109
246510,1007.8136596679688,-1.066796037779996e+31,3110
246560,1007.8056030273438,-1.066796037779996e+31,3109
246590,1007.8030395507812,-1.066796037779996e+31,3109
247450,1007.8174438476562,-1.066796037779996e+31,3110
247480,1007.8026123046875,-1.066796037779996e+31,3109
247510,1007.7936401367188,-1.066796037779996e+31,3110
247560,1007.76220703125,-1.066796037779996e+31,3109
247590,1007.7830200195312,-1.066796037779996e+31,3110
248460,1007.7637939453125,-1.066796037779996e+31,3110
248490,1007.7739868164062,-1.066796037779996e+31,3110
248510,1007.8016357421875,-1.066796037779996e+31,3111
248560,1007.793212890625,-1.066796037779996e+31,3110
248590,1007.7969970703125,-1.066796037779996e+31,3110
249460,1007.7994384765625,-1.066796037779996e+31,3111
249480,1007.7947998046875,-1.066796037779996e+31,3111
249520,1007.767578125,-1.066796037779996e+31,3111
249570,1007.7952270507812,-1.066796037779996e+31,3111
249590,1007.7827758789062,-1.066796037779996e+31,3112
250470,1007.7896118164062,-1.066796037779996e+31,3112
250490,1007.8244018554688,-1.066796037779996e+31,3112
250520,1007.7921752929688,-1.066796037779996e+31,3111
250570,1007.7835693359375,-1.066796037779996e+31,3112
250590,1007.7968139648438,-1.066796037779996e+31,3112
251470,1007.77978515625,-1.066796037779996e+31,3112
251490,1007.7835693359375,-1.066796037779996e+31,3112
251520,1007.7738037109375,-1.066796037779996e+31,3112
251570,1007.7635498046875,-1.066796037779996e+31,3112
251600,1007.7699584960938,-1.066796037779996e+31,3112
252470,1007.7805786132812,-1.066796037779996e+31,3112
252500,1007.7817993164062,-1.066796037779996e+31,3113
252530,1007.8056030273438,-1.066796037779996e+31,3113
252580,1007.7711791992188,-1.066796037779996e+31,3113
252600,1007.7813720703125,-1.066796037779996e+31,3113
253470,1007.8140258789062,-1.066796037779996e+31,3114
253500,1007.7860107421875,-1.066796037779996e+31,3114
253530,1007.809814453125,-1.066796037779996e+31,3114
253580,1007.8135986328125,-1.066796037779996e+31,3114
253580,1007.8135986328125,-1.066796037779996e+31,3114
253600,1007.7996215820312,-1.066796037779996e+31,3114
258490,1007.8278198242188,-1.066796037779996e+31,3116
258510,1007.8422241210938,-1.066796037779996e+31,3117
258550,1007.7877807617188,-1.066796037779996e+31,3117
258590,1007.8005981445312,-1.066796037779996e+31,3116
258620,1007.8167724609375,-1.066796037779996e+31,3116
258640,1007.7903442382812,-1.066796037779996e+31,3116
259490,1007.7971801757812,-1.066796037779996e+31,3116
259520,1007.8115844726562,-1.066796037779996e+31,3117
259550,1007.8017578125,-1.066796037779996e+31,3117
259600,1007.79833984375,-1.066796037779996e+31,3117
259620,1007.787353515625,-1.066796037779996e+31,3117
260500,1007.78515625,-1.066796037779996e+31,3117
260520,1007.7787475585938,-1.066796037779996e+31,3118
260550,1007.7575073242188,-1.066796037779996e+31,3117
260600,1007.7681274414062,-1.066796037779996e+31,3117
260620,1007.7749633789062,-1.066796037779996e+31,3117
261500,1007.7413330078125,-1.066796037779996e+31,3118
261520,1007.799560546875,-1.066796037779996e+31,3118
261560,1007.7731323242188,-1.066796037779996e+31,3118
261600,1007.7893676757812,-1.066796037779996e+31,3118
261620,1007.779541015625,-1.066796037779996e+31,3118
262500,1007.7935791015625,-1.066796037779996e+31,3118
262530,1007.8079833984375,-1.066796037779996e+31,3119
262560,1007.8045654296875,-1.066796037779996e+31,3119
262610,1007.8087768554688,-1.066796037779996e+31,3119
262630,1007.8087768554688,-1.066796037779996e+31,3119
263510,1007.7781372070312,-1.066796037779996e+31,3119
263530,1007.741455078125,-1.066796037779996e+31,3120
263560,1007.7501220703125,-1.066796037779996e+31,3119
263610,1007.7785034179688,-1.066796037779996e+31,3120
263630,1007.7509155273438,-1.066796037779996e+31,3119
264510,1007.7929077148438,-1.066796037779996e+31,3120
264530,1007.8065795898438,-1.066796037779996e+31,3120
264570,1007.7869262695312,-1.066796037779996e+31,3121
264610,1007.7933349609375,-1.066796037779996e+31,3120
264630,1007.78271484375,-1.066796037779996e+31,3120
265510,1007.7831420898438,-1.066796037779996e+31,3120
265540,1007.7728881835938,-1.066796037779996e+31,3120
265570,1007.8107299804688,-1.066796037779996e+31,3121
265620,1007.7733154296875,-1.066796037779996e+31,3121
265640,1007.7728881835938,-1.066796037779996e+31,3120
266520,1007.7975463867188,-1.066796037779996e+31,3121
266540,1007.780517578125,-1.066796037779996e+31,3121
266570,1007.8111572265625,-1.066796037779996e+31,3121
266620,1007.7706909179688,-1.066796037779996e+31,3121
266640,1007.763916015625,-1.066796037779996e+31,3121
267520,1007.7881469726562,-1.066796037779996e+31,3121
267540,1007.8085327148438,-1.066796037779996e+31,3121
267580,1007.8077392578125,-1.066796037779996e+31,3121
267620,1007.8195190429688,-1.066796037779996e+31,3122
267640,1007.7855224609375,-1.066796037779996e+31,3122
268520,1007.7965087890625,-1.066796037779996e+31,3122
268540,1007.7919311523438,-1.066796037779996e+31,3122
268590,1007.8229370117188,-1.066796037779996e+31,3122
268630,1007.8029174804688,-1.066796037779996e+31,3122
268650,1007.79052734375,-1.066796037779996e+31,3123
269530,1007.8074951171875,-1.066796037779996e+31,3123
269550,1007.805908203125,-1.066796037779996e+31,3122
269590,1007.8165283203125,-1.066796037779996e+31,3122
269630,1007.8199462890625,-1.066796037779996e+31,3122
269650,1007.7866821289062,-1.066796037779996e+31,3123
270530,1007.82275390625,-1.066796037779996e+31,3124
270550,1007.8329467773438,-1.066796037779996e+31,3124
270590,1007.818115234375,-1.066796037779996e+31,3123
270630,1007.821533203125,-1.066796037779996e+31,3123
270650,1007.8662109375,-1.066796037779996e+31,3123
271530,1007.9713134765625,-1.066796037779996e+31,3123
271550,1008.0125732421875,-1.066796037779996e+31,3123
271590,1007.9873046875,-1.066796037779996e+31,3125
271640,1008.0618286132812,-1.066796037779996e+31,3124
271660,1008.03076171875,-1.066796037779996e+31,3124
272540,1007.6903686523438,-1.066796037779996e+31,3124
272560,1007.6929931640625,-1.066796037779996e+31,3124
272590,1007.6997680664062,-1.066796037779996e+31,3124
272640,1007.6941528320312,-1.066796037779996e+31,3124
272660,1007.6669311523438,-1.066796037779996e+31,3124
273540,1007.2619018554688,-1.066796037779996e+31,3124
273560,1007.2520751953125,-1.066796037779996e+31,3125
273600,1007.1699829101562,-1.066796037779996e+31,3124
273640,1007.1287231445312,-1.066796037779996e+31,3124
273660,1007.1052856445312,-1.066796037779996e+31,3124
274540,1006.5308837890625,-1.066796037779996e+31,3125
274560,1006.5282592773438,-1.066796037779996e+31,3125
274600,1006.4707641601562,-1.066796037779996e+31,3126
274650,1006.4760131835938,-1.066796037779996e+31,3125
274670,1006.4711303710938,-1.066796037779996e+31,3126
274700,1006.453369140625,-1.066796037779996e+31,3125
275550,1005.7802124023438,-1.066796037779996e+31,3126
275570,1005.7874145507812,-1.066796037779996e+31,3126
275600,1005.7265014648438,-1.066796037779996e+31,3127
275650,1005.7291259765625,-1.066796037779996e+31,3126
275670,1005.6917114257812,-1.066796037779996e+31,3126
276550,1005.0934448242188,-1.066796037779996e+31,3127
276570,1005.1010131835938,-1.066796037779996e+31,3127
276610,1005.046142578125,-1.066796037779996e+31,3127
276650,1005.0347900390625,-1.066796037779996e+31,3126
276670,1005.01171875,-1.066796037779996e+31,3127
277550,1004.536376953125,-1.066796037779996e+31,3127
277570,1004.5057373046875,-1.066796037779996e+31,3127
277610,1004.5057373046875,-1.066796037779996e+31,3127
277660,1004.444091796875,-1.066796037779996e+31,3127
277680,1004.4577026367188,-1.066796037779996e+31,3127
278560,1004.1907348632812,-1.066796037779996e+31,3128
278580,1004.1419067382812,-1.066796037779996e+31,3128
278610,1004.1351318359375,-1.066796037779996e+31,3128
278660,1004.1279296875,-1.066796037779996e+31,3127
278690,1004.1487426757812,-1.066796037779996e+31,3128
279560,1004.1290893554688,-1.066796037779996e+31,3128
279590,1004.1945190429688,-1.066796037779996e+31,3129
279620,1004.1502685546875,-1.066796037779996e+31,3129
279660,1004.1669311523438,-1.066796037779996e+31,3128
279690,1004.1604614257812,-1.066796037779996e+31,3129
280560,1004.0319213867188,-1.066796037779996e+31,3129
280590,1004.0481567382812,-1.066796037779996e+31,3129
280620,1004.0402221679688,-1.066796037779996e+31,3128
280670,1004.0440063476562,-1.066796037779996e+31,3128
280690,1003.992919921875,-1.066796037779996e+31,3128
281570,1003.4695434570312,-1.066796037779996e+31,3129
281590,1003.4669189453125,-1.066796037779996e+31,3129
281620,1003.4120483398438,-1.066796037779996e+31,3129
281670,1003.3851928710938,-1.066796037779996e+31,3129
281690,1003.4044799804688,-1.066796037779996e+31,3128
282570,1002.8565063476562,-1.066796037779996e+31,3128
282590,1002.8554077148438,-1.066796037779996e+31,3130
282630,1002.8580322265625,-1.066796037779996e+31,3129
282670,1002.8209838867188,-1.066796037779996e+31,3130
282700,1002.8171997070312,-1.066796037779996e+31,3129
283570,1002.3281860351562,-1.066796037779996e+31,3130
283600,1002.3312377929688,-1.066796037779996e+31,3130
283630,1002.2900390625,-1.066796037779996e+31,3130
283680,1002.279052734375,-1.066796037779996e+31,3129
283700,1002.2900390625,-1.066796037779996e+31,3130
284580,1001.9927978515625,-1.066796037779996e+31,3129
284600,1001.9931640625,-1.066796037779996e+31,3129
284630,1001.9757690429688,-1.066796037779996e+31,3129
284680,1001.99658203125,-1.066796037779996e+31,3129
284700,1001.989013671875,-1.066796037779996e+31,3129
285580,1001.7008056640625,-1.066796037779996e+31,3129
285600,1001.7310791015625,-1.066796037779996e+31,3129
285640,1001.7450561523438,-1.066796037779996e+31,3129
285690,1001.7722778320312,-1.066796037779996e+31,3129
285700,1001.7722778320312,-1.066796037779996e+31,3129
286590,1001.951904296875,-1.066796037779996e+31,3131
286600,1001.951904296875,-1.066796037779996e+31,3131
286640,1001.94921875,-1.066796037779996e+31,3132
286690,1001.951904296875,-1.066796037779996e+31,3131
286710,1001.94775390625,-1.066796037779996e+31,3131
287590,1001.923583984375,-1.066796037779996e+31,3130
287610,1001.9371948242188,-1.066796037779996e+31,3130
287640,1001.9700927734375,-1.066796037779996e+31,3130
287690,1002.0252685546875,-1.066796037779996e+31,3130
288590,1002.29150390625,-1.066796037779996e+31,3131
288610,1002.2888793945312,-1.066796037779996e+31,3131
288640,1002.2816772460938,-1.066796037779996e+31,3131
288690,1002.2952880859375,-1.066796037779996e+31,3131
288710,1002.2952880859375,-1.066796037779996e+31,3131
289600,1002.2415771484375,-1.066796037779996e+31,3131
289610,1002.2415771484375,-1.066796037779996e+31,3131
289650,1002.248779296875,-1.066796037779996e+31,3132
289700,1002.2763671875,-1.066796037779996e+31,3132
289720,1002.2559204101562,-1.066796037779996e+31,3132
290600,1002.3104248046875,-1.066796037779996e+31,3132
290620,1002.3757934570312,-1.066796037779996e+31,3132
290650,1002.2699584960938,-1.066796037779996e+31,3132
290700,1002.2393188476562,-1.066796037779996e+31,3132
290720,1002.283935546875,-1.066796037779996e+31,3132
291600,1002.314208984375,-1.066796037779996e+31,3132
291620,1002.3595581054688,-1.066796037779996e+31,3133
291660,1002.3209838867188,-1.066796037779996e+31,3132
291700,1002.3206176757812,-1.066796037779996e+31,3132
291720,1002.3206176757812,-1.066796037779996e+31,3132
292600,1002.3463134765625,-1.066796037779996e+31,3133
292620,1002.3871459960938,-1.066796037779996e+31,3133
292660,1002.3800048828125,-1.066796037779996e+31,3133
292710,1002.3565063476562,-1.066796037779996e+31,3133
292730,1002.3656005859375,-1.066796037779996e+31,3132
293610,1002.265380859375,-1.066796037779996e+31,3134
293630,1002.2369995117188,-1.066796037779996e+31,3133
293660,1002.2506103515625,-1.066796037779996e+31,3133
293710,1002.2793579101562,-1.066796037779996e+31,3134
293730,1002.2721557617188,-1.066796037779996e+31,3134
294610,1002.354248046875,-1.066796037779996e+31,3134
294630,1002.3697509765625,-1.066796037779996e+31,3133
294660,1002.3709106445312,-1.066796037779996e+31,3134
294710,1002.4049072265625,-1.066796037779996e+31,3134
294730,1002.3247680664062,-1.066796037779996e+31,3132
295610,1002.4260864257812,-1.066796037779996e+31,3134
295630,1002.4673461914062,-1.066796037779996e+31,3134
295670,1002.4226684570312,-1.066796037779996e+31,3134
295720,1002.5047607421875,-1.066796037779996e+31,3134
295740,1002.4775390625,-1.066796037779996e+31,3134
296620,1002.81298828125,-1.066796037779996e+31,3133
296640,1003.0013427734375,-1.066796037779996e+31,3134
296670,1003.0350341796875,-1.066796037779996e+31,3134
296720,1002.9552001953125,-1.066796037779996e+31,3133
296740,1002.86328125,-1.066796037779996e+31,3133
297620,1003.4873046875,-1.066796037779996e+31,3129
297640,1003.5633544921875,-1.066796037779996e+31,3130
297680,1003.6004028320312,-1.066796037779996e+31,3130
297720,1003.5599365234375,-1.066796037779996e+31,3130
297740,1003.5213623046875,-1.066796037779996e+31,3129
298620,1004.454345703125,-1.066796037779996e+31,3129
298650,1004.4656372070312,-1.066796037779996e+31,3128
298690,1004.5802612304688,-1.066796037779996e+31,3129
298730,1004.5965576171875,-1.066796037779996e+31,3129
298750,1004.6249389648438,-1.066796037779996e+31,3130
299630,1005.5821533203125,-1.066796037779996e+31,3130
299650,1005.5908203125,-1.066796037779996e+31,3129
299690,1005.6154174804688,-1.066796037779996e+31,3130
299730,1005.6563110351562,-1.066796037779996e+31,3130
299750,1005.6525268554688,-1.066796037779996e+31,3129
300630,1006.6532592773438,-1.066796037779996e+31,3129
300650,1006.6312866210938,-1.066796037779996e+31,3128
300690,1006.6403198242188,-1.066796037779996e+31,3128
300730,1006.68310546875,-1.066796037779996e+31,3129
300760,1006.7193603515625,-1.066796037779996e+31,3128
301630,1007.7481689453125,-1.066796037779996e+31,3129
301660,1007.7191162109375,-1.066796037779996e+31,3130
301740,1007.724365234375,-1.066796037779996e+31,3129
301760,1007.7137451171875,-1.066796037779996e+31,3128
441090,1007.8305053710938,-1.066796037779996e+31,3159
441150,1007.808837890625,-1.066796037779996e+31,3159
442090,1007.71728515625,-1.066796037779996e+31,3159
443150,1007.7044677734375,-1.066796037779996e+31,3159
449240,1007.7427368164062,-1.066796037779996e+31,3160
451120,1007.71923828125,-1.066796037779996e+31,3160
451140,1007.688232421875,-1.066796037779996e+31,3160
451180,1007.7222900390625,-1.066796037779996e+31,3160
451220,1007.7302856445312,-1.066796037779996e+31,3161
451250,1007.71923828125,-1.066796037779996e+31,3160
460610,1007.6602172851562,-1.066796037779996e+31,3159
460720,1007.6851806640625,-1.066796037779996e+31,3160
464160,1007.64208984375,-1.066796037779996e+31,3161
464190,1007.6519165039062,-1.066796037779996e+31,3161
466300,1007.6707763671875,-1.066796037779996e+31,3160
467170,1007.6681518554688,-1.066796037779996e+31,3160
467200,1007.6829833984375,-1.066796037779996e+31,3161
467230,1007.7034301757812,-1.066796037779996e+31,3161
467280,1007.6856079101562,-1.066796037779996e+31,3160
467300,1007.723876953125,-1.066796037779996e+31,3161
468180,1007.6697387695312,-1.066796037779996e+31,3161
468200,1007.6409301757812,-1.066796037779996e+31,3160
468230,1007.6931762695312,-1.066796037779996e+31,3161
468290,1007.693603515625,-1.066796037779996e+31,3161
468300,1007.67919921875,-1.066796037779996e+31,3161
469240,1007.6617431640625,-1.066796037779996e+31,3160
469290,1007.6818237304688,-1.066796037779996e+31,3160
469300,1007.64697265625,-1.066796037779996e+31,3160
470190,1007.6890258789062,-1.066796037779996e+31,3160
470210,1007.7034301757812,-1.066796037779996e+31,3161
470240,1007.69580078125,-1.066796037779996e+31,3160
470290,1007.6685791015625,-1.066796037779996e+31,3160
470290,1007.6685791015625,-1.066796037779996e+31,3160
470310,1007.7098388671875,-1.066796037779996e+31,3161
471190,1007.6810302734375,-1.066796037779996e+31,3160
471210,1007.6741943359375,-1.066796037779996e+31,3160
471240,1007.6856079101562,-1.066796037779996e+31,3160
471290,1007.6761474609375,-1.066796037779996e+31,3161
471310,1007.6541748046875,-1.066796037779996e+31,3160
472190,1007.69921875,-1.066796037779996e+31,3160
472210,1007.7056274414062,-1.066796037779996e+31,3160
472250,1007.7117919921875,-1.066796037779996e+31,3162
472290,1007.7446899414062,-1.066796037779996e+31,3161
472320,1007.7272338867188,-1.066796037779996e+31,3161
472340,1007.7162475585938,-1.066796037779996e+31,3160
473190,1007.7086791992188,-1.066796037779996e+31,3160
473220,1007.718505859375,-1.066796037779996e+31,3160
473250,1007.7393188476562,-1.066796037779996e+31,3160
473300,1007.7018432617188,-1.066796037779996e+31,3160
473320,1007.7257080078125,-1.066796037779996e+31,3160
474200,1007.7396850585938,-1.066796037779996e+31,3160
474220,1007.718505859375,-1.066796037779996e+31,3160
474260,1007.7018432617188,-1.066796037779996e+31,3160
474300,1007.7249145507812,-1.066796037779996e+31,3159
474330,1007.6904296875,-1.066796037779996e+31,3159
475200,1007.6840209960938,-1.066796037779996e+31,3159
475220,1007.7086791992188,-1.066796037779996e+31,3160
475260,1007.7044677734375,-1.066796037779996e+31,3159
475300,1007.7090454101562,-1.066796037779996e+31,3160
475320,1007.7090454101562,-1.066796037779996e+31,3160
476200,1007.6586303710938,-1.066796037779996e+31,3158
476230,1007.6722412109375,-1.066796037779996e+31,3158
476260,1007.7138671875,-1.066796037779996e+31,3159
476310,1007.7105102539062,-1.066796037779996e+31,3159
476330,1007.69189453125,-1.066796037779996e+31,3158
477210,1007.7222900390625,-1.066796037779996e+31,3160
477230,1007.6912231445312,-1.066796037779996e+31,3160
477260,1007.72265625,-1.066796037779996e+31,3160
477310,1007.73291015625,-1.066796037779996e+31,3160
477330,1007.73291015625,-1.066796037779996e+31,3160
478210,1007.6481323242188,-1.066796037779996e+31,3160
478230,1007.7068481445312,-1.066796037779996e+31,3161
478270,1007.6818237304688,-1.066796037779996e+31,3160
479270,1007.6204833984375,-1.066796037779996e+31,3160
479320,1007.6481323242188,-1.066796037779996e+31,3160
479340,1007.64697265625,-1.066796037779996e+31,3160
480220,1007.6964721679688,-1.066796037779996e+31,3159
480240,1007.6764526367188,-1.066796037779996e+31,3159
480270,1007.6661987304688,-1.066796037779996e+31,3159
480320,1007.688232421875,-1.066796037779996e+31,3160
480340,1007.6840209960938,-1.066796037779996e+31,3159
481220,1007.702880859375,-1.066796037779996e+31,3158
481240,1007.6858520507812,-1.066796037779996e+31,3158
481280,1007.66845703125,-1.066796037779996e+31,3158
481320,1007.6764526367188,-1.066796037779996e+31,3159
481350,1007.672607421875,-1.066796037779996e+31,3159
481370,1007.6922607421875,-1.066796037779996e+31,3158
482220,1007.6654052734375,-1.066796037779996e+31,3158
482240,1007.658203125,-1.066796037779996e+31,3158
482280,1007.6696166992188,-1.066796037779996e+31,3159
482330,1007.6411743164062,-1.066796037779996e+31,3158
482350,1007.6956787109375,-1.066796037779996e+31,3158
483230,1007.7433471679688,-1.066796037779996e+31,3158
483250,1007.7335205078125,-1.066796037779996e+31,3158
483290,1007.7327270507812,-1.066796037779996e+31,3158
483330,1007.7156982421875,-1.066796037779996e+31,3158
483350,1007.7002563476562,-1.066796037779996e+31,3159
484230,1007.7164916992188,-1.066796037779996e+31,3158
484250,1007.7195434570312,-1.066796037779996e+31,3158
484290,1007.77099609375,-1.066796037779996e+31,3158
484330,1007.7156982421875,-1.066796037779996e+31,3158
484350,1007.7089233398438,-1.066796037779996e+31,3158
486240,1007.61279296875,-1.066796037779996e+31,3157
486260,1007.6264038085938,-1.066796037779996e+31,3157
486300,1007.6400146484375,-1.066796037779996e+31,3157
486340,1007.640380859375,-1.066796037779996e+31,3158
486360,1007.6331787109375,-1.066796037779996e+31,3157
487240,1007.6475830078125,-1.066796037779996e+31,3158
487260,1007.65966796875,-1.066796037779996e+31,3157
487300,1007.6748657226562,-1.066796037779996e+31,3158
487340,1007.68505859375,-1.066796037779996e+31,3158
487360,1007.6680297851562,-1.066796037779996e+31,3158
488240,1007.6842651367188,-1.066796037779996e+31,3157
488260,1007.736572265625,-1.066796037779996e+31,3158
488300,1007.6801147460938,-1.066796037779996e+31,3157
488350,1007.6660766601562,-1.066796037779996e+31,3157
488370,1007.6865234375,-1.066796037779996e+31,3157
489250,1007.6865234375,-1.066796037779996e+31,3157
489270,1007.7005004882812,-1.066796037779996e+31,3157
489300,1007.67626953125,-1.066796037779996e+31,3157
489350,1007.6929321289062,-1.066796037779996e+31,3156
489370,1007.6907348632812,-1.066796037779996e+31,3157
490250,1007.6834716796875,-1.066796037779996e+31,3157
490270,1007.67626953125,-1.066796037779996e+31,3157
490310,1007.667236328125,-1.066796037779996e+31,3157
490350,1007.7039184570312,-1.066796037779996e+31,3157
490370,1007.6838989257812,-1.066796037779996e+31,3157
491380,1007.7141723632812,-1.066796037779996e+31,3157
492260,1007.7672119140625,-1.066796037779996e+31,3158
492280,1007.7660522460938,-1.066796037779996e+31,3157
492310,1007.7451782226562,-1.066796037779996e+31,3157
492360,1007.7758178710938,-1.066796037779996e+31,3157
492380,1007.7587890625,-1.066796037779996e+31,3157
493260,1007.7413940429688,-1.066796037779996e+31,3157
493290,1007.744384765625,-1.066796037779996e+31,3157
493310,1007.7376098632812,-1.066796037779996e+31,3157
493360,1007.724365234375,-1.066796037779996e+31,3157
493380,1007.7515869140625,-1.066796037779996e+31,3157
494260,1007.7630004882812,-1.066796037779996e+31,3158
494290,1007.7557983398438,-1.066796037779996e+31,3157
494320,1007.7376098632812,-1.066796037779996e+31,3157
494370,1007.7119140625,-1.066796037779996e+31,3158
494390,1007.7702026367188,-1.066796037779996e+31,3158
495270,1007.7459716796875,-1.066796037779996e+31,3158
495290,1007.7562255859375,-1.066796037779996e+31,3158
495320,1007.7349853515625,-1.066796037779996e+31,3157
495370,1007.7728271484375,-1.066796037779996e+31,3157
495390,1007.7485961914062,-1.066796037779996e+31,3157
496270,1007.7341918945312,-1.066796037779996e+31,3157
496300,1007.717529296875,-1.066796037779996e+31,3157
496330,1007.74560546875,-1.066796037779996e+31,3157
496370,1007.7345581054688,-1.066796037779996e+31,3157
496400,1007.7213745117188,-1.066796037779996e+31,3157
497270,1007.7490234375,-1.066796037779996e+31,3157
497300,1007.720947265625,-1.066796037779996e+31,3157
497330,1007.73876953125,-1.066796037779996e+31,3157
497380,1007.7217407226562,-1.066796037779996e+31,3157
497400,1007.6903076171875,-1.066796037779996e+31,3157
498280,1007.6903076171875,-1.066796037779996e+31,3157
498300,1007.7191162109375,-1.066796037779996e+31,3158
498330,1007.6945190429688,-1.066796037779996e+31,3157
498390,1007.7039184570312,-1.066796037779996e+31,3157
498400,1007.7111206054688,-1.066796037779996e+31,3157
499280,1007.6842651367188,-1.066796037779996e+31,3157
499300,1007.6804809570312,-1.066796037779996e+31,3157
499330,1007.6903076171875,-1.066796037779996e+31,3157
499390,1007.7119140625,-1.066796037779996e+31,3158
499400,1007.7119140625,-1.066796037779996e+31,3158
500290,1007.7391967773438,-1.066796037779996e+31,3158
500310,1007.7391967773438,-1.066796037779996e+31,3158
500340,1007.7285766601562,-1.066796037779996e+31,3157
500410,1007.6889038085938,-1.066796037779996e+31,3158
501290,1007.7005004882812,-1.066796037779996e+31,3157
501310,1007.6937255859375,-1.066796037779996e+31,3157
501340,1007.6868896484375,-1.066796037779996e+31,3157
501400,1007.7119140625,-1.066796037779996e+31,3158
501410,1007.68310546875,-1.066796037779996e+31,3157
502290,1007.6801147460938,-1.066796037779996e+31,3157
502310,1007.6911010742188,-1.066796037779996e+31,3157
502340,1007.6770629882812,-1.066796037779996e+31,3157
502400,1007.6770629882812,-1.066796037779996e+31,3157
502410,1007.6770629882812,-1.066796037779996e+31,3157
503290,1007.6937255859375,-1.066796037779996e+31,3157
503310,1007.6759033203125,-1.066796037779996e+31,3156
503350,1007.6948852539062,-1.066796037779996e+31,3158
503400,1007.7145385742188,-1.066796037779996e+31,3157
503420,1007.6804809570312,-1.066796037779996e+31,3157
504290,1007.6668701171875,-1.066796037779996e+31,3157
504320,1007.6634521484375,-1.066796037779996e+31,3157
504350,1007.6694946289062,-1.066796037779996e+31,3157
504400,1007.667236328125,-1.066796037779996e+31,3157
504420,1007.641845703125,-1.066796037779996e+31,3156
505300,1007.6660766601562,-1.066796037779996e+31,3157
505320,1007.6400146484375,-1.066796037779996e+31,3157
505350,1007.6911010742188,-1.066796037779996e+31,3157
505400,1007.650634765625,-1.066796037779996e+31,3158
505420,1007.6744384765625,-1.066796037779996e+31,3158
506300,1007.6634521484375,-1.066796037779996e+31,3157
506320,1007.6566772460938,-1.066796037779996e+31,3157
506360,1007.65283203125,-1.066796037779996e+31,3157
506410,1007.6536254882812,-1.066796037779996e+31,3157
506430,1007.6331787109375,-1.066796037779996e+31,3157
506450,1007.6226196289062,-1.066796037779996e+31,3157
507300,1007.6804809570312,-1.066796037779996e+31,3157
507330,1007.670654296875,-1.066796037779996e+31,3157
507360,1007.6668701171875,-1.066796037779996e+31,3157
507410,1007.6646118164062,-1.066796037779996e+31,3158
507440,1007.6664428710938,-1.066796037779996e+31,3157
507460,1007.6714477539062,-1.066796037779996e+31,3158
508310,1007.6945190429688,-1.066796037779996e+31,3157
508330,1007.68994140625,-1.066796037779996e+31,3157
508360,1007.6737060546875,-1.066796037779996e+31,3157
509310,1007.6192016601562,-1.066796037779996e+31,3157
509330,1007.6290283203125,-1.066796037779996e+31,3157
509370,1007.6267700195312,-1.066796037779996e+31,3158
509410,1007.6267700195312,-1.066796037779996e+31,3158
509440,1007.613525390625,-1.066796037779996e+31,3158
509460,1007.6192016601562,-1.066796037779996e+31,3157
510310,1007.6241455078125,-1.066796037779996e+31,3158
510340,1007.627197265625,-1.066796037779996e+31,3158
510370,1007.6301879882812,-1.066796037779996e+31,3158
510420,1007.6408081054688,-1.066796037779996e+31,3158
510440,1007.6146240234375,-1.066796037779996e+31,3156
511320,1007.5957641601562,-1.066796037779996e+31,3157
511340,1007.6199951171875,-1.066796037779996e+31,3158
511370,1007.643798828125,-1.066796037779996e+31,3158
511420,1007.6336059570312,-1.066796037779996e+31,3158
511440,1007.6097412109375,-1.066796037779996e+31,3158
512320,1007.5775146484375,-1.066796037779996e+31,3157
512340,1007.5851440429688,-1.066796037779996e+31,3157
512380,1007.5855102539062,-1.066796037779996e+31,3157
512430,1007.627197265625,-1.066796037779996e+31,3158
512430,1007.627197265625,-1.066796037779996e+31,3158
512450,1007.5923461914062,-1.066796037779996e+31,3157
513330,1007.613525390625,-1.066796037779996e+31,3158
513350,1007.5897216796875,-1.066796037779996e+31,3158
513390,1007.5851440429688,-1.066796037779996e+31,3157
513430,1007.6025390625,-1.066796037779996e+31,3157
513450,1007.6336059570312,-1.066796037779996e+31,3158
514330,1007.6105346679688,-1.066796037779996e+31,3158
514350,1007.6245727539062,-1.066796037779996e+31,3158
514390,1007.6207885742188,-1.066796037779996e+31,3158
514430,1007.6253662109375,-1.066796037779996e+31,3159
514450,1007.6041259765625,-1.066796037779996e+31,3158
515330,1007.6143188476562,-1.066796037779996e+31,3158
515350,1007.5697021484375,-1.066796037779996e+31,3158
515390,1007.6083374023438,-1.066796037779996e+31,3159
515440,1007.6215209960938,-1.066796037779996e+31,3159
515460,1007.6275634765625,-1.066796037779996e+31,3158
516330,1007.6044921875,-1.066796037779996e+31,3159
516360,1007.5841064453125,-1.066796037779996e+31,3159
516390,1007.5662841796875,-1.066796037779996e+31,3158
516440,1007.566650390625,-1.066796037779996e+31,3158
516460,1007.6041259765625,-1.066796037779996e+31,3158
518340,1007.6159057617188,-1.066796037779996e+31,3159
518360,1007.6109619140625,-1.066796037779996e+31,3158
518400,1007.5939331054688,-1.066796037779996e+31,3158
518450,1007.5761108398438,-1.066796037779996e+31,3158
518470,1007.5841064453125,-1.066796037779996e+31,3159
518470,1007.5841064453125,-1.066796037779996e+31,3159
519350,1007.5828857421875,-1.066796037779996e+31,3158
519370,1007.6087036132812,-1.066796037779996e+31,3159
519400,1007.5692749023438,-1.066796037779996e+31,3158
519450,1007.596923828125,-1.066796037779996e+31,3158
521380,1007.5965576171875,-1.066796037779996e+31,3158
521490,1007.6083374023438,-1.066796037779996e+31,3159
521590,1007.6129150390625,-1.066796037779996e+31,3160
522340,1007.6140747070312,-1.066796037779996e+31,3160
522360,1007.6072387695312,-1.066796037779996e+31,3160
522370,1007.6140747070312,-1.066796037779996e+31,3160
522380,1007.6140747070312,-1.066796037779996e+31,3160
522390,1007.6072387695312,-1.066796037779996e+31,3160
522410,1007.6072387695312,-1.066796037779996e+31,3160
522430,1007.6201171875,-1.066796037779996e+31,3160
522440,1007.62353515625,-1.066796037779996e+31,3160
522450,1007.62353515625,-1.066796037779996e+31,3160
522460,1007.600830078125,-1.066796037779996e+31,3161
522480,1007.600830078125,-1.066796037779996e+31,3161
523360,1007.5728149414062,-1.066796037779996e+31,3160
523390,1007.6068725585938,-1.066796037779996e+31,3160
523420,1007.6030883789062,-1.066796037779996e+31,3160
523460,1007.5996704101562,-1.066796037779996e+31,3160
523480,1007.5928344726562,-1.066796037779996e+31,3160
524360,1007.6034545898438,-1.066796037779996e+31,3160
524390,1007.6072387695312,-1.066796037779996e+31,3160
524420,1007.6030883789062,-1.066796037779996e+31,3160
524460,1007.6065063476562,-1.066796037779996e+31,3160
524490,1007.5780639648438,-1.066796037779996e+31,3159
525370,1007.6165771484375,-1.066796037779996e+31,3158
525390,1007.6131591796875,-1.066796037779996e+31,3158
525420,1007.6233520507812,-1.066796037779996e+31,3158
525470,1007.6051635742188,-1.066796037779996e+31,3157
525490,1007.6226196289062,-1.066796037779996e+31,3157
526370,1007.5582885742188,-1.066796037779996e+31,3157
526390,1007.600341796875,-1.066796037779996e+31,3158
528400,1007.5908813476562,-1.066796037779996e+31,3159
528430,1007.5958862304688,-1.066796037779996e+31,3160
528480,1007.5848999023438,-1.066796037779996e+31,3159
528500,1007.6083374023438,-1.066796037779996e+31,3159
529390,1007.5950927734375,-1.066796037779996e+31,3159
529400,1007.5950927734375,-1.066796037779996e+31,3159
529430,1007.5993041992188,-1.066796037779996e+31,3160
529490,1007.6333618164062,-1.066796037779996e+31,3160
529500,1007.6333618164062,-1.066796037779996e+31,3160
530390,1007.6072387695312,-1.066796037779996e+31,3160
531370,1007.6034545898438,-1.066796037779996e+31,3160
531380,1007.6034545898438,-1.066796037779996e+31,3160
531390,1007.6049194335938,-1.066796037779996e+31,3159
531410,1007.6060791015625,-1.066796037779996e+31,3160
531420,1007.6060791015625,-1.066796037779996e+31,3160
531430,1007.5886840820312,-1.066796037779996e+31,3159
531440,1007.5886840820312,-1.066796037779996e+31,3159
531490,1007.58984375,-1.066796037779996e+31,3160
531510,1007.58984375,-1.066796037779996e+31,3160
532390,1007.6140747070312,-1.066796037779996e+31,3160
532410,1007.6140747070312,-1.066796037779996e+31,3160
532450,1007.6217041015625,-1.066796037779996e+31,3161
532500,1007.6004638671875,-1.066796037779996e+31,3160
532510,1007.5906372070312,-1.066796037779996e+31,3161
533410,1007.5868530273438,-1.066796037779996e+31,3160
533450,1007.5902099609375,-1.066796037779996e+31,3160
533490,1007.6217041015625,-1.066796037779996e+31,3161
533520,1007.6137084960938,-1.066796037779996e+31,3160
534400,1007.6284790039062,-1.066796037779996e+31,3161
534420,1007.614501953125,-1.066796037779996e+31,3161
534450,1007.59326171875,-1.066796037779996e+31,3160
534500,1007.614501953125,-1.066796037779996e+31,3161
534530,1007.6315307617188,-1.066796037779996e+31,3161
534550,1007.6348876953125,-1.066796037779996e+31,3161
535400,1007.604248046875,-1.066796037779996e+31,3161
535420,1007.6356811523438,-1.066796037779996e+31,3161
535450,1007.6220703125,-1.066796037779996e+31,3161
535500,1007.60205078125,-1.066796037779996e+31,3161
535530,1007.6050415039062,-1.066796037779996e+31,3161
535550,1007.6068725585938,-1.066796037779996e+31,3160
536400,1007.6281127929688,-1.066796037779996e+31,3161
536460,1007.6390991210938,-1.066796037779996e+31,3161
536500,1007.607666015625,-1.066796037779996e+31,3161
536530,1007.5940551757812,-1.066796037779996e+31,3161
537400,1007.5986328125,-1.066796037779996e+31,3161
537430,1007.5989990234375,-1.066796037779996e+31,3162
537460,1007.5948486328125,-1.066796037779996e+31,3161
537510,1007.607666015625,-1.066796037779996e+31,3161
537530,1007.64208984375,-1.066796037779996e+31,3161
537560,1007.611083984375,-1.066796037779996e+31,3161
538410,1007.604248046875,-1.066796037779996e+31,3161
538430,1007.611083984375,-1.066796037779996e+31,3161
538460,1007.6034545898438,-1.066796037779996e+31,3160
538510,1007.6038818359375,-1.066796037779996e+31,3160
538530,1007.6284790039062,-1.066796037779996e+31,3161
539410,1007.6004638671875,-1.066796037779996e+31,3160
539430,1007.6148681640625,-1.066796037779996e+31,3161
539470,1007.5910034179688,-1.066796037779996e+31,3161
539510,1007.6284790039062,-1.066796037779996e+31,3161
541690,1007.5548706054688,-1.066796037779996e+31,3164
541690,1007.5548706054688,-1.066796037779996e+31,3164
543290,1007.6119995117188,-1.066796037779996e+31,3163
543300,1007.6119995117188,-1.066796037779996e+31,3163
543310,1007.6119995117188,-1.066796037779996e+31,3163
543310,1007.5775146484375,-1.066796037779996e+31,3163
543320,1007.5775146484375,-1.066796037779996e+31,3163
543330,1007.5775146484375,-1.066796037779996e+31,3163
543340,1007.5983276367188,-1.066796037779996e+31,3163
543350,1007.5983276367188,-1.066796037779996e+31,3163
