time_boot_ms,time_boot_s,luminosity
514940,514.94,0
515350,515.35,0
515490,515.49,0
515620,515.62,0
515750,515.75,0
515890,515.89,0
516020,516.02,0
516150,516.15,0
516290,516.29,0
516420,516.42,0
516550,516.55,0
516690,516.69,0
516830,516.83,0
516960,516.96,0
517090,517.09,0
517220,517.22,0
517350,517.35,0
517480,517.48,0
517610,517.61,0
517740,517.74,0
517880,517.88,0
518010,518.01,0
518170,518.17,0
518300,518.3,0
518430,518.43,0
518560,518.56,0
518690,518.69,0
518820,518.82,0
518960,518.96,0
519090,519.09,0
519220,519.22,0
519350,519.35,0
519490,519.49,0
519620,519.62,0
519750,519.75,0
519880,519.88,0
520010,520.01,0
520140,520.14,0
520290,520.29,0
520430,520.43,0
520560,520.56,0
520690,520.69,0
520830,520.83,0
520960,520.96,0
521090,521.09,0
521220,521.22,0
521360,521.36,0
521490,521.49,0
521620,521.62,0
521750,521.75,0
521880,521.88,0
522010,522.01,0
522150,522.15,0
522290,522.29,0
522420,522.42,0
522550,522.55,0
522680,522.68,0
522810,522.81,0
522940,522.94,0
523080,523.08,0
523220,523.22,0
523350,523.35,0
523490,523.49,0
523620,523.62,0
523750,523.75,0
523880,523.88,0
524010,524.01,0
524140,524.14,0
524290,524.29,0
524420,524.42,0
524550,524.55,0
524680,524.68,0
524820,524.82,0
524960,524.96,0
525090,525.09,0
525220,525.22,0
525350,525.35,0
525500,525.5,0
525630,525.63,0
525770,525.77,0
525910,525.91,0
526040,526.04,0
526180,526.18,0
526310,526.31,0
526440,526.44,0
526570,526.57,0
526700,526.7,0
526830,526.83,0
526960,526.96,0
527090,527.09,0
527220,527.22,0
527360,527.36,0
527500,527.5,0
527630,527.63,0
527770,527.77,0
527900,527.9,0
528030,528.03,0
528170,528.17,0
528300,528.3,0
528430,528.43,0
528560,528.56,0
528690,528.69,0
528830,528.83,0
528970,528.97,0
529100,529.1,0
529250,529.25,0
529380,529.38,0
529520,529.52,0
529650,529.65,0
529790,529.79,0
529920,529.92,0
530210,530.21,0
530340,530.34,0
530470,530.47,0
530610,530.61,0
530740,530.74,0
530870,530.87,0
531000,531,0
531130,531.13,0
531270,531.27,0
531400,531.4,0
531540,531.54,0
531910,531.91,0
532040,532.04,0
532170,532.17,0
532300,532.3,0
532430,532.43,0
532560,532.56,0
532690,532.69,0
532820,532.82,0
532950,532.95,0
533110,533.11,0
533240,533.24,0
533390,533.39,0
533520,533.52,0
533650,533.65,0
533780,533.78,0
533910,533.91,0
534040,534.04,0
534170,534.17,0
534310,534.31,0
534450,534.45,0
534580,534.58,0
534710,534.71,0
534840,534.84,0
534970,534.97,0
535100,535.1,0
535240,535.24,0
535390,535.39,0
535520,535.52,0
535650,535.65,0
535790,535.79,0
535930,535.93,0
536070,536.07,0
536200,536.2,0
536330,536.33,0
536460,536.46,0
536590,536.59,0
536720,536.72,0
536880,536.88,0
537010,537.01,0
537150,537.15,0
537280,537.28,0
537410,537.41,0
537540,537.54,0
537670,537.67,0
537800,537.8,0
537930,537.93,0
538060,538.06,0
538190,538.19,0
538320,538.32,0
538460,538.46,0
538590,538.59,0
538730,538.73,0
538870,538.87,0
539000,539,0
539130,539.13,0
539680,539.68,0
539820,539.82,0
539950,539.95,0
540100,540.1,0
540230,540.23,0
540370,540.37,0
540520,540.52,0
540650,540.65,0
540780,540.78,0
540910,540.91,0
541040,541.04,0
541180,541.18,0
541310,541.31,0
541440,541.44,0
541570,541.57,0
541700,541.7,0
541830,541.83,0
541960,541.96,0
542100,542.1,0
542230,542.23,0
542370,542.37,0
542510,542.51,0
542640,542.64,0
542770,542.77,0
542900,542.9,0
543030,543.03,0
543160,543.16,0
543300,543.3,0
543430,543.43,0
543560,543.56,0
543690,543.69,0
543830,543.83,0
543960,543.96,0
544110,544.11,0
544240,544.24,0
544400,544.4,0
544530,544.53,0
544670,544.67,0
544810,544.81,0
544940,544.94,0
545070,545.07,0
545210,545.21,0
545340,545.34,0
545480,545.48,0
545610,545.61,0
545740,545.74,0
545890,545.89,0
546020,546.02,0
546150,546.15,0
546280,546.28,0
546410,546.41,0
546550,546.55,0
546680,546.68,0
546810,546.81,0
546940,546.94,0
547070,547.07,0
547200,547.2,0
547340,547.34,0
547470,547.47,0
547600,547.6,0
547730,547.73,0
547910,547.91,0
548040,548.04,0
548180,548.18,0
548310,548.31,0
548440,548.44,0
548580,548.58,0
548710,548.71,0
548840,548.84,0
548980,548.98,0
549110,549.11,0
549250,549.25,0
549400,549.4,0
549530,549.53,0
549660,549.66,0
549790,549.79,0
549920,549.92,0
550050,550.05,0
550180,550.18,0
550310,550.31,0
550440,550.44,0
550580,550.58,0
550720,550.72,0
550850,550.85,0
550980,550.98,0
551110,551.11,0
551240,551.24,0
551390,551.39,0
551540,551.54,0
551670,551.67,0
551800,551.8,0
551940,551.94,0
552070,552.07,0
552200,552.2,0
552330,552.33,0
552460,552.46,0
552590,552.59,0
552720,552.72,0
552870,552.87,0
553000,553,0
553130,553.13,0
553270,553.27,0
553400,553.4,0
553530,553.53,0
553660,553.66,0
553790,553.79,0
553920,553.92,0
554060,554.06,0
554190,554.19,0
554320,554.32,0
554450,554.45,0
554590,554.59,0
554720,554.72,0
554850,554.85,0
554980,554.98,0
555110,555.11,0
555260,555.26,0
555390,555.39,0
555520,555.52,0
555650,555.65,0
555780,555.78,0
555920,555.92,0
556050,556.05,0
556180,556.18,0
556310,556.31,0
556440,556.44,0
556570,556.57,0
556700,556.7,0
556830,556.83,0
556970,556.97,0
557100,557.1,0
557240,557.24,0
557390,557.39,0
557520,557.52,0
557650,557.65,0
557780,557.78,0
557910,557.91,0
558040,558.04,0
558170,558.17,0
558300,558.3,0
558430,558.43,0
558570,558.57,0
558710,558.71,0
558840,558.84,0
558970,558.97,0
559100,559.1,0
559230,559.23,0
559370,559.37,0
559500,559.5,0
559630,559.63,0
559760,559.76,0
559900,559.9,0
560030,560.03,0
560160,560.16,0
560290,560.29,0
560420,560.42,0
560550,560.55,0
560680,560.68,0
560810,560.81,0
560940,560.94,0
561070,561.07,0
561220,561.22,0
561350,561.35,0
561480,561.48,0
561610,561.61,0
561740,561.74,0
561890,561.89,0
562020,562.02,0
562150,562.15,0
562280,562.28,0
562410,562.41,0
562570,562.57,0
562700,562.7,0
562830,562.83,0
562960,562.96,0
563090,563.09,0
563220,563.22,0
563370,563.37,0
563500,563.5,0
563630,563.63,0
563760,563.76,0
563900,563.9,0
564030,564.03,0
564160,564.16,0
564290,564.29,0
564420,564.42,0
564550,564.55,0
564680,564.68,0
564810,564.81,0
564940,564.94,0
565070,565.07,0
565210,565.21,0
565350,565.35,0
565480,565.48,0
565610,565.61,0
565740,565.74,0
565890,565.89,0
566020,566.02,0
566150,566.15,0
566300,566.3,0
566430,566.43,0
566570,566.57,0
566700,566.7,0
566830,566.83,0
566960,566.96,0
567090,567.09,0
567220,567.22,0
567350,567.35,0
567480,567.48,0
567610,567.61,0
567740,567.74,0
567910,567.91,0
568040,568.04,0
568170,568.17,0
568300,568.3,0
568430,568.43,0
568570,568.57,0
568700,568.7,0
568830,568.83,0
568960,568.96,0
569090,569.09,0
569230,569.23,0
569370,569.37,0
569510,569.51,0
569640,569.64,0
569770,569.77,0
569910,569.91,0
570040,570.04,0
570170,570.17,0
570300,570.3,0
570440,570.44,0
570580,570.58,0
570710,570.71,0
570840,570.84,0
570970,570.97,0
571100,571.1,0
571230,571.23,0
571370,571.37,0
571500,571.5,0
571630,571.63,0
571760,571.76,0
571900,571.9,0
572030,572.03,0
572160,572.16,0
572290,572.29,0
572420,572.42,0
572560,572.56,0
572690,572.69,0
572820,572.82,0
572950,572.95,0
573080,573.08,0
573220,573.22,0
573350,573.35,0
573500,573.5,0
573630,573.63,0
573770,573.77,0
573900,573.9,0
574030,574.03,0
574160,574.16,0
574290,574.29,0
574420,574.42,0
574560,574.56,0
574690,574.69,0
574820,574.82,0
574960,574.96,0
575090,575.09,0
575220,575.22,0
575350,575.35,0
575480,575.48,0
575610,575.61,0
575740,575.74,0
575900,575.9,0
576030,576.03,0
576160,576.16,0
576290,576.29,0
576420,576.42,0
576550,576.55,0
576680,576.68,0
576810,576.81,0
576940,576.94,0
577100,577.1,0
577250,577.25,0
577390,577.39,0
577520,577.52,0
577650,577.65,0
577780,577.78,0
577920,577.92,0
578050,578.05,0
578180,578.18,0
578310,578.31,0
578440,578.44,0
578580,578.58,0
578710,578.71,0
578840,578.84,0
578970,578.97,0
579100,579.1,0
579230,579.23,0
579370,579.37,0
579510,579.51,0
579650,579.65,0
579780,579.78,0
579920,579.92,0
580050,580.05,0
580180,580.18,0
580310,580.31,0
580450,580.45,0
580580,580.58,0
580710,580.71,0
581580,581.58,0
581710,581.71,0
581850,581.85,0
581980,581.98,0
582110,582.11,0
582250,582.25,0
582390,582.39,0
582520,582.52,0
582660,582.66,0
582790,582.79,0
582920,582.92,0
583050,583.05,0
583190,583.19,0
583320,583.32,0
583450,583.45,0
583580,583.58,0
583710,583.71,0
583840,583.84,0
583990,583.99,0
584120,584.12,0
584250,584.25,0
584410,584.41,0
584540,584.54,0
584670,584.67,0
584800,584.8,0
584930,584.93,0
585060,585.06,0
585190,585.19,0
585330,585.33,0
585460,585.46,0
585590,585.59,0
585730,585.73,0
585870,585.87,0
586000,586,0
586130,586.13,0
586260,586.26,0
586400,586.4,0
586770,586.77,0
586910,586.91,0
587040,587.04,0
587170,587.17,0
587300,587.3,0
587430,587.43,0
587570,587.57,0
587700,587.7,0
587830,587.83,0
587960,587.96,0
588090,588.09,0
588230,588.23,0
588380,588.38,0
588510,588.51,0
588640,588.64,0
588780,588.78,0
588910,588.91,0
589040,589.04,0
589170,589.17,0
589300,589.3,0
589430,589.43,0
589580,589.58,0
589710,589.71,0
589840,589.84,0
589970,589.97,0
590100,590.1,0
590230,590.23,0
590360,590.36,0
590490,590.49,0
590620,590.62,0
590760,590.76,0
590900,590.9,0
591030,591.03,0
591160,591.16,0
591300,591.3,0
591430,591.43,0
591570,591.57,0
591700,591.7,0
591830,591.83,0
591990,591.99,0
592120,592.12,0
592260,592.26,0
592390,592.39,0
592520,592.52,0
592650,592.65,0
592790,592.79,0
592920,592.92,0
593050,593.05,0
593180,593.18,0
593320,593.32,0
593450,593.45,0
593600,593.6,0
593730,593.73,0
593860,593.86,0
593990,593.99,0
594120,594.12,0
594250,594.25,0
594380,594.38,0
594510,594.51,0
594640,594.64,0
594770,594.77,0
594910,594.91,0
595050,595.05,0
595180,595.18,0
595320,595.32,0
595450,595.45,0
595610,595.61,0
595740,595.74,0
595870,595.87,0
596010,596.01,0
596140,596.14,0
596280,596.28,0
596410,596.41,0
596540,596.54,0
596670,596.67,0
596800,596.8,0
596930,596.93,0
597070,597.07,0
597200,597.2,0
597330,597.33,0
597460,597.46,0
597600,597.6,0
597730,597.73,0
597870,597.87,0
598000,598,0
598130,598.13,0
598260,598.26,0
598390,598.39,0
598520,598.52,0
598650,598.65,0
598780,598.78,0
598920,598.92,0
599050,599.05,0
599210,599.21,0
599340,599.34,0
599470,599.47,0
599600,599.6,0
599730,599.73,0
599860,599.86,0
599990,599.99,0
600180,600.18,0
600320,600.32,0
600450,600.45,0
600590,600.59,0
600730,600.73,0
600860,600.86,0
600990,600.99,0
601190,601.19,0
601320,601.32,0
601460,601.46,0
601590,601.59,0
601730,601.73,0
601860,601.86,0
601990,601.99,0
602190,602.19,0
602320,602.32,0
602450,602.45,0
602600,602.6,0
602730,602.73,0
602860,602.86,0
603010,603.01,0
603150,603.15,0
603280,603.28,0
603410,603.41,0
603540,603.54,0
603670,603.67,0
603800,603.8,0
603930,603.93,0
604070,604.07,0
604200,604.2,0
604330,604.33,0
604470,604.47,0
604600,604.6,0
604730,604.73,0
604870,604.87,0
605000,605,0
605130,605.13,0
605260,605.26,0
605390,605.39,0
605530,605.53,0
605670,605.67,0
605810,605.81,0
605940,605.94,0
606090,606.09,0
606220,606.22,0
606350,606.35,0
606480,606.48,0
606630,606.63,0
606760,606.76,0
606890,606.89,0
607020,607.02,0
607170,607.17,0
607300,607.3,0
607430,607.43,0
607570,607.57,0
607700,607.7,0
607840,607.84,0
607970,607.97,0
608100,608.1,0
608230,608.23,0
608360,608.36,0
608500,608.5,0
608630,608.63,0
608760,608.76,0
608890,608.89,0
609020,609.02,0
609160,609.16,0
609290,609.29,0
609420,609.42,0
609550,609.55,0
609680,609.68,0
609820,609.82,0
609950,609.95,0
610100,610.1,0
610250,610.25,0
610380,610.38,0
610510,610.51,0
610640,610.64,0
610770,610.77,0
610910,610.91,0
611040,611.04,0
611180,611.18,0
611310,611.31,0
611440,611.44,0
611590,611.59,0
611720,611.72,0
611850,611.85,0
611990,611.99,0
612120,612.12,0
612250,612.25,0
612380,612.38,0
612520,612.52,0
612650,612.65,0
612780,612.78,0
612910,612.91,0
613040,613.04,0
613170,613.17,0
613300,613.3,0
613430,613.43,0
613570,613.57,0
613700,613.7,0
613860,613.86,0
613990,613.99,0
614120,614.12,0
614250,614.25,0
614380,614.38,0
614510,614.51,0
614640,614.64,0
614780,614.78,0
614910,614.91,0
615040,615.04,0
615190,615.19,0
615320,615.32,0
615450,615.45,0
615590,615.59,0
615720,615.72,0
615850,615.85,0
615980,615.98,0
616140,616.14,0
616270,616.27,0
617410,617.41,0
617570,617.57,0
617700,617.7,0
617830,617.83,0
617970,617.97,0
618100,618.1,0
618230,618.23,0
618360,618.36,0
618490,618.49,0
618620,618.62,0
618750,618.75,0
618880,618.88,0
619010,619.01,0
619140,619.14,0
619280,619.28,0
619420,619.42,0
619560,619.56,0
619690,619.69,0
619820,619.82,0
619950,619.95,0
620090,620.09,0
620220,620.22,0
620360,620.36,0
620500,620.5,0
620640,620.64,0
620780,620.78,0
620910,620.91,0
621040,621.04,0
621180,621.18,0
621310,621.31,0
621440,621.44,0
621590,621.59,0
621720,621.72,0
621850,621.85,0
621990,621.99,0
622120,622.12,0
622250,622.25,0
622380,622.38,0
622510,622.51,0
622640,622.64,0
622770,622.77,0
622900,622.9,0
623030,623.03,0
623160,623.16,0
623300,623.3,0
623430,623.43,0
623570,623.57,0
623700,623.7,0
623830,623.83,0
623960,623.96,0
624100,624.1,0
624230,624.23,0
624360,624.36,0
624490,624.49,0
624660,624.66,0
624790,624.79,0
624920,624.92,0
625050,625.05,0
625180,625.18,0
625320,625.32,0
625450,625.45,0
625590,625.59,0
625720,625.72,0
625850,625.85,0
625990,625.99,0
626120,626.12,0
626250,626.25,0
626380,626.38,0
626510,626.51,0
626640,626.64,0
626770,626.77,0
626900,626.9,0
627030,627.03,0
627170,627.17,0
627310,627.31,0
627440,627.44,0
627590,627.59,0
627720,627.72,0
627850,627.85,0
627980,627.98,0
628130,628.13,0
628280,628.28,0
628410,628.41,0
628540,628.54,0
628690,628.69,0
628830,628.83,0
628970,628.97,0
629100,629.1,0
629230,629.23,0
629360,629.36,0
629490,629.49,0
629620,629.62,0
629760,629.76,0
629900,629.9,0
630040,630.04,0
630170,630.17,0
630300,630.3,0
630430,630.43,0
630570,630.57,0
630700,630.7,0
630830,630.83,0
630960,630.96,0
631090,631.09,0
631220,631.22,0
631360,631.36,0
631490,631.49,0
631620,631.62,0
631770,631.77,0
631900,631.9,0
632030,632.03,0
632160,632.16,0
632290,632.29,0
632420,632.42,0
632550,632.55,0
632690,632.69,0
632820,632.82,0
632950,632.95,0
633100,633.1,0
633230,633.23,0
633370,633.37,0
633500,633.5,0
633630,633.63,0
633760,633.76,0
633890,633.89,0
634030,634.03,0
634160,634.16,0
634290,634.29,0
634430,634.43,0
634570,634.57,0
634700,634.7,0
634830,634.83,0
634970,634.97,0
635100,635.1,0
635230,635.23,0
635390,635.39,0
635520,635.52,0
635650,635.65,0
635780,635.78,0
635910,635.91,0
636040,636.04,0
636170,636.17,0
636300,636.3,0
636430,636.43,0
637290,637.29,0
637420,637.42,0
637560,637.56,0
637690,637.69,0
637820,637.82,0
637950,637.95,0
638110,638.11,0
638240,638.24,0
638380,638.38,0
638510,638.51,0
638640,638.64,0
638770,638.77,0
638900,638.9,0
639070,639.07,0
639200,639.2,0
639330,639.33,0
639470,639.47,0
639600,639.6,0
639730,639.73,0
639860,639.86,0
639990,639.99,0
640120,640.12,0
640250,640.25,0
640380,640.38,0
640510,640.51,0
640640,640.64,0
640780,640.78,0
640910,640.91,0
641040,641.04,0
641170,641.17,0
641300,641.3,0
641430,641.43,0
641580,641.58,0
641710,641.71,0
642060,642.06,0
642190,642.19,0
642330,642.33,0
642460,642.46,0
642590,642.59,0
642740,642.74,0
642880,642.88,0
643010,643.01,0
643140,643.14,0
643290,643.29,0
643420,643.42,0
643550,643.55,0
643700,643.7,0
643830,643.83,0
643960,643.96,0
644090,644.09,0
644220,644.22,0
644350,644.35,0
644480,644.48,0
644610,644.61,0
644740,644.74,0
644870,644.87,0
645010,645.01,0
645140,645.14,0
645290,645.29,0
645430,645.43,0
645560,645.56,0
645690,645.69,0
645830,645.83,0
645960,645.96,0
646090,646.09,0
646220,646.22,0
646360,646.36,0
646490,646.49,0
646620,646.62,0
646750,646.75,0
646880,646.88,0
647010,647.01,0
647140,647.14,0
647290,647.29,0
647420,647.42,0
647560,647.56,0
647700,647.7,0
647830,647.83,0
647970,647.97,0
648100,648.1,0
648240,648.24,0
648370,648.37,0
648500,648.5,0
648630,648.63,0
648770,648.77,0
648900,648.9,0
649040,649.04,0
649170,649.17,0
649300,649.3,0
649430,649.43,0
649560,649.56,0
649690,649.69,0
649840,649.84,0
649980,649.98,0
650110,650.11,0
650240,650.24,0
650380,650.38,0
650510,650.51,0
650640,650.64,0
650790,650.79,0
650920,650.92,0
651050,651.05,0
651180,651.18,0
651310,651.31,0
651450,651.45,0
651580,651.58,0
651720,651.72,0
651850,651.85,0
651980,651.98,0
652110,652.11,0
652250,652.25,0
652380,652.38,0
652510,652.51,0
652640,652.64,0
652790,652.79,0
652920,652.92,0
653060,653.06,0
653190,653.19,0
653340,653.34,0
653470,653.47,0
653600,653.6,0
653730,653.73,0
653860,653.86,0
653990,653.99,0
654120,654.12,0
654270,654.27,0
654410,654.41,0
654540,654.54,0
654670,654.67,0
654800,654.8,0
654930,654.93,0
655060,655.06,0
655190,655.19,0
655320,655.32,0
655450,655.45,0
655580,655.58,0
655720,655.72,0
655850,655.85,0
655980,655.98,0
656110,656.11,0
656240,656.24,0
656370,656.37,0
656510,656.51,0
656640,656.64,0
656790,656.79,0
656940,656.94,0
657080,657.08,0
657210,657.21,0
657340,657.34,0
657470,657.47,0
657600,657.6,0
657730,657.73,0
657860,657.86,0
657990,657.99,0
658120,658.12,0
658250,658.25,0
658400,658.4,0
658530,658.53,0
658660,658.66,0
658790,658.79,0
658920,658.92,0
659050,659.05,0
659180,659.18,0
659310,659.31,0
659440,659.44,0
659570,659.57,0
659710,659.71,0
659840,659.84,0
659980,659.98,0
660110,660.11,0
660240,660.24,0
660400,660.4,0
660530,660.53,0
660660,660.66,0
660790,660.79,0
660920,660.92,0
661060,661.06,0
661190,661.19,0
661320,661.32,0
661460,661.46,0
661590,661.59,0
661720,661.72,0
661850,661.85,0
661980,661.98,0
662110,662.11,0
662240,662.24,0
662410,662.41,0
662550,662.55,0
662680,662.68,0
662810,662.81,0
662940,662.94,0
663070,663.07,0
663200,663.2,0
663330,663.33,0
663460,663.46,0
663590,663.59,0
663730,663.73,0
663880,663.88,0
664010,664.01,0
664140,664.14,0
664290,664.29,0
664420,664.42,0
664550,664.55,0
664680,664.68,0
664810,664.81,0
664940,664.94,0
665080,665.08,0
665210,665.21,0
665340,665.34,0
665470,665.47,0
665600,665.6,0
665730,665.73,0
665860,665.86,0
665990,665.99,0
666130,666.13,0
666270,666.27,0
666410,666.41,0
666540,666.54,0
666670,666.67,0
666820,666.82,0
666950,666.95,0
667080,667.08,0
667210,667.21,0
667340,667.34,0
667500,667.5,0
667630,667.63,0
667780,667.78,0
667910,667.91,0
668040,668.04,0
668170,668.17,0
668300,668.3,0
668430,668.43,0
668570,668.57,0
668700,668.7,0
668830,668.83,0
668960,668.96,0
669100,669.1,0
669230,669.23,0
669360,669.36,0
669490,669.49,0
669620,669.62,0
669750,669.75,0
669880,669.88,0
670010,670.01,0
670140,670.14,0
670290,670.29,0
670430,670.43,0
670560,670.56,0
670690,670.69,0
670830,670.83,0
670990,670.99,0
671120,671.12,0
671250,671.25,0
671380,671.38,0
671510,671.51,0
671640,671.64,0
671800,671.8,0
671930,671.93,0
672060,672.06,0
672190,672.19,0
672320,672.32,0
672450,672.45,0
672580,672.58,0
672710,672.71,0
672840,672.84,0
672970,672.97,0
673110,673.11,0
673240,673.24,0
673370,673.37,0
673500,673.5,0
673630,673.63,0
673770,673.77,0
673900,673.9,0
674030,674.03,0
674160,674.16,0
674290,674.29,0
674460,674.46,0
674590,674.59,0
674720,674.72,0
674850,674.85,0
674980,674.98,0
675110,675.11,0
675250,675.25,0
675400,675.4,0
675530,675.53,0
675660,675.66,0
675800,675.8,0
675930,675.93,0
676060,676.06,0
676190,676.19,0
676320,676.32,0
676450,676.45,0
676580,676.58,0
676710,676.71,0
676840,676.84,0
676970,676.97,0
677110,677.11,0
677240,677.24,0
677370,677.37,0
677500,677.5,0
677630,677.63,0
677770,677.77,0
677900,677.9,0
678060,678.06,0
678190,678.19,0
678320,678.32,0
678460,678.46,0
678590,678.59,0
678720,678.72,0
678850,678.85,0
678980,678.98,0
679110,679.11,0
679240,679.24,0
679380,679.38,0
679510,679.51,0
679640,679.64,0
679800,679.8,0
679940,679.94,0
680080,680.08,0
680210,680.21,0
680340,680.34,0
680480,680.48,0
680610,680.61,0
680740,680.74,0
680870,680.87,0
681000,681,0
681140,681.14,0
681290,681.29,0
681420,681.42,0
681570,681.57,0
681700,681.7,0
681830,681.83,0
681960,681.96,0
682090,682.09,0
682220,682.22,0
682350,682.35,0
682490,682.49,0
682620,682.62,0
682750,682.75,0
682880,682.88,0
683010,683.01,0
683290,683.29,0
683420,683.42,0
683550,683.55,0
683690,683.69,0
683830,683.83,0
683960,683.96,0
684090,684.09,0
684220,684.22,0
684350,684.35,0
684490,684.49,0
684620,684.62,0
684770,684.77,0
684900,684.9,0
685060,685.06,0
685200,685.2,0
685330,685.33,0
685460,685.46,0
685590,685.59,0
685720,685.72,0
685850,685.85,0
685980,685.98,0
686110,686.11,0
686240,686.24,0
686370,686.37,0
686510,686.51,0
686640,686.64,0
686790,686.79,0
686920,686.92,0
687050,687.05,0
687180,687.18,0
687310,687.31,0
687440,687.44,0
687570,687.57,0
687700,687.7,0
687850,687.85,0
687980,687.98,0
688110,688.11,0
688240,688.24,0
688370,688.37,0
688520,688.52,0
688650,688.65,0
688790,688.79,0
688920,688.92,0
689060,689.06,0
689200,689.2,0
689340,689.34,0
689470,689.47,0
689600,689.6,0
689730,689.73,0
689870,689.87,0
690000,690,0
690130,690.13,0
690270,690.27,0
690400,690.4,0
690540,690.54,0
690670,690.67,0
690800,690.8,0
690930,690.93,0
691060,691.06,0
691190,691.19,0
691320,691.32,0
691480,691.48,0
691610,691.61,0
691740,691.74,0
691880,691.88,0
692040,692.04,0
692170,692.17,0
692300,692.3,0
692430,692.43,0
692560,692.56,0
692690,692.69,0
692820,692.82,0
692950,692.95,0
693080,693.08,0
693220,693.22,0
693360,693.36,0
693490,693.49,0
693630,693.63,0
693770,693.77,0
693900,693.9,0
694040,694.04,0
694170,694.17,0
694300,694.3,0
694430,694.43,0
694570,694.57,0
694700,694.7,0
694830,694.83,0
694960,694.96,0
695090,695.09,0
695220,695.22,0
695350,695.35,0
695480,695.48,0
695630,695.63,0
695770,695.77,0
695910,695.91,0
696040,696.04,0
696170,696.17,0
696300,696.3,0
696430,696.43,0
696560,696.56,0
696690,696.69,0
697020,697.02,0
697150,697.15,0
697280,697.28,0
697420,697.42,0
697550,697.55,0
697680,697.68,0
697810,697.81,0
697940,697.94,0
698070,698.07,0
698200,698.2,0
698340,698.34,0
698490,698.49,0
698620,698.62,0
698770,698.77,0
698900,698.9,0
699030,699.03,0
699160,699.16,0
699320,699.32,0
699450,699.45,0
699590,699.59,0
699720,699.72,0
699850,699.85,0
699990,699.99,0
700130,700.13,0
700260,700.26,0
700400,700.4,0
700540,700.54,0
700670,700.67,0
700800,700.8,0
700930,700.93,0
701060,701.06,0
701190,701.19,0
701320,701.32,0
701460,701.46,0
701590,701.59,0
701720,701.72,0
701850,701.85,0
701990,701.99,0
702120,702.12,0
702250,702.25,0
703000,703,0
703130,703.13,0
703260,703.26,0
703390,703.39,0
703530,703.53,0
703660,703.66,0
703790,703.79,0
703920,703.92,0
704050,704.05,0
704190,704.19,0
704320,704.32,0
704450,704.45,0
704580,704.58,0
704720,704.72,0
704850,704.85,0
704990,704.99,0
705120,705.12,0
705250,705.25,0
705380,705.38,0
705520,705.52,0
705650,705.65,0
705780,705.78,0
705910,705.91,0
706040,706.04,0
706200,706.2,0
706330,706.33,0
706470,706.47,0
706600,706.6,0
706730,706.73,0
706870,706.87,0
707000,707,0
707130,707.13,0
707270,707.27,0
707400,707.4,0
707530,707.53,0
707660,707.66,0
707790,707.79,0
707920,707.92,0
708050,708.05,0
708200,708.2,0
708330,708.33,0
708470,708.47,0
708600,708.6,0
708730,708.73,0
708860,708.86,0
709000,709,0
709130,709.13,0
709260,709.26,0
709390,709.39,0
709550,709.55,0
709710,709.71,0
709840,709.84,0
709980,709.98,0
710110,710.11,0
710240,710.24,0
710370,710.37,0
710500,710.5,0
710630,710.63,0
710770,710.77,0
710910,710.91,0
711040,711.04,0
711170,711.17,0
711300,711.3,0
711430,711.43,0
711570,711.57,0
711700,711.7,0
711830,711.83,0
711970,711.97,0
712100,712.1,0
712240,712.24,0
712370,712.37,0
712500,712.5,0
712630,712.63,0
712760,712.76,0
712910,712.91,0
713040,713.04,0
713170,713.17,0
713340,713.34,0
713490,713.49,0
713630,713.63,0
713760,713.76,0
713890,713.89,0
714020,714.02,0
714160,714.16,0
714290,714.29,0
714420,714.42,0
714550,714.55,0
714680,714.68,0
714810,714.81,0
714950,714.95,0
715080,715.08,0
715210,715.21,0
715340,715.34,0
715490,715.49,0
715620,715.62,0
715750,715.75,0
715880,715.88,0
716010,716.01,0
716140,716.14,0
716280,716.28,0
716410,716.41,0
716550,716.55,0
716710,716.71,0
716840,716.84,0
716990,716.99,0
717120,717.12,0
717250,717.25,0
717380,717.38,0
717530,717.53,0
717670,717.67,0
717800,717.8,0
717930,717.93,0
718060,718.06,0
718190,718.19,0
718320,718.32,0
718450,718.45,0
718580,718.58,0
718710,718.71,0
718840,718.84,0
719000,719,0
719130,719.13,0
719260,719.26,0
719400,719.4,0
719530,719.53,0
719660,719.66,0
719790,719.79,0
719920,719.92,0
720050,720.05,0
720210,720.21,0
720350,720.35,0
720490,720.49,0
720620,720.62,0
720750,720.75,0
720880,720.88,0
721010,721.01,0
721150,721.15,0
721280,721.28,0
721410,721.41,0
721540,721.54,0
721690,721.69,0
721820,721.82,0
721960,721.96,0
722090,722.09,0
722230,722.23,0
722360,722.36,0
722490,722.49,0
722620,722.62,0
722750,722.75,0
722880,722.88,0
723020,723.02,0
723150,723.15,0
723280,723.28,0
723410,723.41,0
723540,723.54,0
723700,723.7,0
723830,723.83,0
723970,723.97,0
724100,724.1,0
724230,724.23,0
724370,724.37,0
724500,724.5,0
724630,724.63,0
724760,724.76,0
724890,724.89,0
725020,725.02,0
725150,725.15,0
725280,725.28,0
725420,725.42,0
725550,725.55,0
725700,725.7,0
725830,725.83,0
725980,725.98,0
726110,726.11,0
726240,726.24,0
726370,726.37,0
726500,726.5,0
726630,726.63,0
726760,726.76,0
726900,726.9,0
727070,727.07,0
727200,727.2,0
727330,727.33,0
727470,727.47,0
727600,727.6,0
727730,727.73,0
727860,727.86,0
727990,727.99,0
728120,728.12,0
728250,728.25,0
728390,728.39,0
728520,728.52,0
728650,728.65,0
728780,728.78,0
728910,728.91,0
729040,729.04,0
729170,729.17,0
729300,729.3,0
729430,729.43,0
729570,729.57,0
729710,729.71,0
729840,729.84,0
729990,729.99,0
730130,730.13,0
730270,730.27,0
730400,730.4,0
730560,730.56,0
730690,730.69,0
730820,730.82,0
730950,730.95,0
731090,731.09,0
731220,731.22,0
731360,731.36,0
731500,731.5,0
731630,731.63,0
731760,731.76,0
731890,731.89,0
732020,732.02,0
732150,732.15,0
732280,732.28,0
732420,732.42,0
732550,732.55,0
732680,732.68,0
732810,732.81,0
732940,732.94,0
733070,733.07,0
733200,733.2,0
733330,733.33,0
733470,733.47,0
733600,733.6,0
733740,733.74,0
733880,733.88,0
734040,734.04,0
734170,734.17,0
734310,734.31,0
734440,734.44,0
734570,734.57,0
734700,734.7,0
734840,734.84,0
734990,734.99,0
735130,735.13,0
735260,735.26,0
735390,735.39,0
735520,735.52,0
735650,735.65,0
735780,735.78,0
735910,735.91,0
736040,736.04,0
736180,736.18,0
736310,736.31,0
736450,736.45,0
736580,736.58,0
736710,736.71,0
736840,736.84,0
736990,736.99,0
737120,737.12,0
737250,737.25,0
737380,737.38,0
737540,737.54,0
737670,737.67,0
737810,737.81,0
738080,738.08,0
738210,738.21,0
738340,738.34,0
738490,738.49,0
738630,738.63,0
738760,738.76,0
738890,738.89,0
739020,739.02,0
739160,739.16,0
739300,739.3,0
739430,739.43,0
739560,739.56,0
739690,739.69,0
739820,739.82,0
739960,739.96,0
740090,740.09,0
740220,740.22,0
740350,740.35,0
740500,740.5,0
740630,740.63,0
740770,740.77,0
740910,740.91,0
741040,741.04,0
741170,741.17,0
741300,741.3,0
741430,741.43,0
741570,741.57,0
741700,741.7,0
741840,741.84,0
741990,741.99,0
742120,742.12,0
742250,742.25,0
742380,742.38,0
742510,742.51,0
742640,742.64,0
742770,742.77,0
742910,742.91,0
743040,743.04,0
743180,743.18,0
743310,743.31,0
743440,743.44,0
743570,743.57,0
743700,743.7,0
743840,743.84,0
743990,743.99,0
744120,744.12,0
744250,744.25,0
744380,744.38,0
744520,744.52,0
744650,744.65,0
744780,744.78,0
744910,744.91,0
745040,745.04,0
745170,745.17,0
745300,745.3,0
745430,745.43,0
745560,745.56,0
745690,745.69,0
745830,745.83,0
745970,745.97,0
746100,746.1,0
746230,746.23,0
746360,746.36,0
746490,746.49,0
746620,746.62,0
746750,746.75,0
746880,746.88,0
747020,747.02,0
747160,747.16,0
747290,747.29,0
747420,747.42,0
747550,747.55,0
747680,747.68,0
747840,747.84,0
747990,747.99,0
748120,748.12,0
748250,748.25,0
748390,748.39,0
748530,748.53,0
748660,748.66,0
748790,748.79,0
748920,748.92,0
749050,749.05,0
749180,749.18,0
749310,749.31,0
749440,749.44,0
749570,749.57,0
749700,749.7,0
749840,749.84,0
749990,749.99,0
750130,750.13,0
750260,750.26,0
750390,750.39,0
750520,750.52,0
750650,750.65,0
750780,750.78,0
750910,750.91,0
751040,751.04,0
751180,751.18,0
751340,751.34,0
751490,751.49,0
751620,751.62,0
751750,751.75,0
752110,752.11,0
752240,752.24,0
752370,752.37,0
752500,752.5,0
752630,752.63,0
752770,752.77,0
752900,752.9,0
753030,753.03,0
753160,753.16,0
753290,753.29,0
753420,753.42,0
753550,753.55,0
753690,753.69,0
753820,753.82,0
753950,753.95,0
754100,754.1,0
754230,754.23,0
754360,754.36,0
754490,754.49,0
754620,754.62,0
754750,754.75,0
754880,754.88,0
755040,755.04,0
755170,755.17,0
755300,755.3,0
755440,755.44,0
755600,755.6,0
755730,755.73,0
755860,755.86,0
755990,755.99,0
756120,756.12,0
756250,756.25,0
756380,756.38,0
756510,756.51,0
756640,756.64,0
756780,756.78,0
756910,756.91,0
757040,757.04,0
757170,757.17,0
757300,757.3,0
757430,757.43,0
757570,757.57,0
757700,757.7,0
757830,757.83,0
757960,757.96,0
758100,758.1,0
758230,758.23,0
758390,758.39,0
758520,758.52,0
758650,758.65,0
758780,758.78,0
758910,758.91,0
759040,759.04,0
759170,759.17,0
759300,759.3,0
759440,759.44,0
759590,759.59,0
759720,759.72,0
759860,759.86,0
759990,759.99,0
760120,760.12,0
760250,760.25,0
760380,760.38,0
760510,760.51,0
760640,760.64,0
760780,760.78,0
760910,760.91,0
761040,761.04,0
761170,761.17,0
761300,761.3,0
761440,761.44,0
761590,761.59,0
761720,761.72,0
761880,761.88,0
762010,762.01,0
762160,762.16,0
762290,762.29,0
762420,762.42,0
762550,762.55,0
762680,762.68,0
762810,762.81,0
762940,762.94,0
763090,763.09,0
763220,763.22,0
763350,763.35,0
763490,763.49,0
763620,763.62,0
763750,763.75,0
763880,763.88,0
764020,764.02,0
764150,764.15,0
764290,764.29,0
764420,764.42,0
764550,764.55,0
764680,764.68,0
764820,764.82,0
764950,764.95,0
765090,765.09,0
765250,765.25,0
765380,765.38,0
765510,765.51,0
765780,765.78,0
765910,765.91,0
766040,766.04,0
766180,766.18,0
766310,766.31,0
766440,766.44,0
766590,766.59,0
766730,766.73,0
766860,766.86,0
766990,766.99,0
767120,767.12,0
767250,767.25,0
767380,767.38,0
767520,767.52,0
767650,767.65,0
767780,767.78,0
767910,767.91,0
768040,768.04,0
768170,768.17,0
768310,768.31,0
768440,768.44,0
768610,768.61,0
768740,768.74,0
768890,768.89,0
769020,769.02,0
769150,769.15,0
769280,769.28,0
769410,769.41,0
769540,769.54,0
769670,769.67,0
769800,769.8,0
769930,769.93,0
770070,770.07,0
770210,770.21,0
770340,770.34,0
770470,770.47,0
770600,770.6,0
770730,770.73,0
770870,770.87,0
771000,771,0
771130,771.13,0
771270,771.27,0
771400,771.4,0
771540,771.54,0
771680,771.68,0
771810,771.81,0
771940,771.94,0
772110,772.11,0
772240,772.24,0
772370,772.37,0
772500,772.5,0
772630,772.63,0
772760,772.76,0
772900,772.9,0
773030,773.03,0
773160,773.16,0
773290,773.29,0
773420,773.42,0
773560,773.56,0
773690,773.69,0
773820,773.82,0
773950,773.95,0
774080,774.08,0
774220,774.22,0
774350,774.35,0
774480,774.48,0
774610,774.61,0
774740,774.74,0
774870,774.87,0
775000,775,0
775130,775.13,0
775260,775.26,0
775390,775.39,0
775560,775.56,0
775690,775.69,0
775830,775.83,0
775960,775.96,0
776090,776.09,0
776220,776.22,0
776350,776.35,0
776480,776.48,0
776610,776.61,0
776750,776.75,0
776890,776.89,0
777020,777.02,0
777150,777.15,0
777280,777.28,0
777410,777.41,0
777540,777.54,0
777680,777.68,0
777810,777.81,0
777940,777.94,0
778090,778.09,0
778240,778.24,0
778380,778.38,0
778510,778.51,0
778640,778.64,0
778770,778.77,0
778930,778.93,0
779070,779.07,0
779200,779.2,0
779330,779.33,0
779460,779.46,0
779600,779.6,0
779730,779.73,0
779860,779.86,0
779990,779.99,0
780120,780.12,0
780260,780.26,0
780400,780.4,0
780530,780.53,0
780660,780.66,0
780790,780.79,0
780940,780.94,0
781080,781.08,0
781210,781.21,0
781340,781.34,0
781470,781.47,0
781600,781.6,0
781730,781.73,0
781860,781.86,0
782000,782,0
782130,782.13,0
782300,782.3,0
782430,782.43,0
782570,782.57,0
782700,782.7,0
782840,782.84,0
782980,782.98,0
783110,783.11,0
783240,783.24,0
783370,783.37,0
783500,783.5,0
783640,783.64,0
783770,783.77,0
783900,783.9,0
784030,784.03,0
784160,784.16,0
784290,784.29,0
784420,784.42,0
784550,784.55,0
784680,784.68,0
784810,784.81,0
784960,784.96,0
785090,785.09,0
785230,785.23,0
785360,785.36,0
785490,785.49,0
785650,785.65,0
785780,785.78,0
785910,785.91,0
786040,786.04,0
786170,786.17,0
786310,786.31,0
786440,786.44,0
786590,786.59,0
786720,786.72,0
786850,786.85,0
786980,786.98,0
787120,787.12,0
787250,787.25,0
787380,787.38,0
787510,787.51,0
787650,787.65,0
787780,787.78,0
787910,787.91,0
788050,788.05,0
788180,788.18,0
788310,788.31,0
788440,788.44,0
788590,788.59,0
788720,788.72,0
788860,788.86,0
789000,789,0
789130,789.13,0
789260,789.26,0
789400,789.4,0
789540,789.54,0
789680,789.68,0
789810,789.81,0
789940,789.94,0
790090,790.09,0
790220,790.22,0
790360,790.36,0
790490,790.49,0
790620,790.62,0
790750,790.75,0
790880,790.88,0
791010,791.01,0
791140,791.14,0
791270,791.27,0
791410,791.41,0
791540,791.54,0
791680,791.68,0
791810,791.81,0
791940,791.94,0
792090,792.09,0
792230,792.23,0
792360,792.36,0
792520,792.52,0
792650,792.65,0
792780,792.78,0
792910,792.91,0
793050,793.05,0
793180,793.18,0
793310,793.31,0
793440,793.44,0
793600,793.6,0
793730,793.73,0
793860,793.86,0
793990,793.99,0
794120,794.12,0
794250,794.25,0
794390,794.39,0
794520,794.52,0
794650,794.65,0
794780,794.78,0
794920,794.92,0
795050,795.05,0
795180,795.18,0
795310,795.31,0
795440,795.44,0
795590,795.59,0
795760,795.76,0
795890,795.89,0
796020,796.02,0
796150,796.15,0
796280,796.28,0
796410,796.41,0
796540,796.54,0
796670,796.67,0
796800,796.8,0
796940,796.94,0
797100,797.1,0
797230,797.23,0
797360,797.36,0
797490,797.49,0
797620,797.62,0
797750,797.75,0
797890,797.89,0
798020,798.02,0
798150,798.15,0
798280,798.28,0
798420,798.42,0
798550,798.55,0
798680,798.68,0
798810,798.81,0
798940,798.94,0
799080,799.08,0
799240,799.24,0
799370,799.37,0
799500,799.5,0
799630,799.63,0
799770,799.77,0
799900,799.9,0
800030,800.03,0
800160,800.16,0
800290,800.29,0
800420,800.42,0
800550,800.55,0
800680,800.68,0
800840,800.84,0
800970,800.97,0
801110,801.11,0
801240,801.24,0
801370,801.37,0
801500,801.5,0
801630,801.63,0
801760,801.76,0
801890,801.89,0
802020,802.02,0
802150,802.15,0
802280,802.28,0
802420,802.42,0
802580,802.58,0
802710,802.71,0
802840,802.84,0
802970,802.97,0
803110,803.11,0
803240,803.24,0
803370,803.37,0
803500,803.5,0
803630,803.63,0
803770,803.77,0
803900,803.9,0
804030,804.03,0
804160,804.16,0
804290,804.29,0
804420,804.42,0
804550,804.55,0
804810,804.81,0
804940,804.94,0
805090,805.09,0
805220,805.22,0
805350,805.35,0
805480,805.48,0
805610,805.61,0
805740,805.74,0
805870,805.87,0
806030,806.03,0
806160,806.16,0
806310,806.31,0
806450,806.45,0
806590,806.59,0
806720,806.72,0
807090,807.09,0
807220,807.22,0
807350,807.35,0
807480,807.48,0
807610,807.61,0
807740,807.74,0
807870,807.87,0
808020,808.02,0
808150,808.15,0
808290,808.29,0
808420,808.42,0
808550,808.55,0
808680,808.68,0
808810,808.81,0
808940,808.94,0
809070,809.07,0
809200,809.2,0
809340,809.34,0
809470,809.47,0
809630,809.63,0
809770,809.77,0
809900,809.9,0
810030,810.03,0
810160,810.16,0
810290,810.29,0
810420,810.42,0
810550,810.55,0
810700,810.7,0
810830,810.83,0
810960,810.96,0
811100,811.1,0
811230,811.23,0
811360,811.36,0
811490,811.49,0
811620,811.62,0
811750,811.75,0
811880,811.88,0
812020,812.02,0
812150,812.15,0
812290,812.29,0
812430,812.43,0
812560,812.56,0
812690,812.69,0
812850,812.85,0
812980,812.98,0
813110,813.11,0
813240,813.24,0
813380,813.38,0
813510,813.51,0
813640,813.64,0
813790,813.79,0
813930,813.93,0
814060,814.06,0
814190,814.19,0
814320,814.32,0
814450,814.45,0
814580,814.58,0
814720,814.72,0
814850,814.85,0
814980,814.98,0
815110,815.11,0
815240,815.24,0
815370,815.37,0
815500,815.5,0
815630,815.63,0
815780,815.78,0
815910,815.91,0
816050,816.05,0
816210,816.21,0
816340,816.34,0
816480,816.48,0
816610,816.61,0
816740,816.74,0
816870,816.87,0
817010,817.01,0
817140,817.14,0
817280,817.28,0
817420,817.42,0
817550,817.55,0
817680,817.68,0
817810,817.81,0
817940,817.94,0
818070,818.07,0
818200,818.2,0
818330,818.33,0
818460,818.46,0
818590,818.59,0
818730,818.73,0
818860,818.86,0
819000,819,0
819130,819.13,0
819270,819.27,0
819400,819.4,0
819560,819.56,0
819690,819.69,0
819820,819.82,0
819950,819.95,0
820090,820.09,0
820220,820.22,0
820350,820.35,0
820490,820.49,0
820620,820.62,0
820760,820.76,0
820890,820.89,0
821020,821.02,0
821150,821.15,0
821290,821.29,0
821430,821.43,0
821570,821.57,0
821700,821.7,0
821830,821.83,0
821960,821.96,0
822090,822.09,0
822220,822.22,0
822350,822.35,0
822480,822.48,0
822610,822.61,0
822750,822.75,0
822910,822.91,0
823040,823.04,0
823170,823.17,0
823300,823.3,0
823430,823.43,0
823560,823.56,0
823690,823.69,0
823820,823.82,0
823950,823.95,0
824090,824.09,0
824220,824.22,0
824350,824.35,0
824480,824.48,0
824610,824.61,0
824740,824.74,0
824870,824.87,0
825000,825,0
825140,825.14,0
825290,825.29,0
825430,825.43,0
825560,825.56,0
825690,825.69,0
825820,825.82,0
825950,825.95,0
826090,826.09,0
826250,826.25,0
826380,826.38,0
826510,826.51,0
826640,826.64,0
826800,826.8,0
826930,826.93,0
827060,827.06,0
827190,827.19,0
827320,827.32,0
827460,827.46,0
827590,827.59,0
827720,827.72,0
827850,827.85,0
827980,827.98,0
828120,828.12,0
828250,828.25,0
828380,828.38,0
828510,828.51,0
828640,828.64,0
828790,828.79,0
828920,828.92,0
829050,829.05,0
829180,829.18,0
829310,829.31,0
829480,829.48,0
829610,829.61,0
829750,829.75,0
829880,829.88,0
830010,830.01,0
830140,830.14,0
830290,830.29,0
830420,830.42,0
830550,830.55,0
830690,830.69,0
830830,830.83,0
830970,830.97,0
831100,831.1,0
831230,831.23,0
831360,831.36,0
831490,831.49,0
831620,831.62,0
831770,831.77,0
831900,831.9,0
832030,832.03,0
832170,832.17,0
832300,832.3,0
832430,832.43,0
832560,832.56,0
832690,832.69,0
832850,832.85,0
832980,832.98,0
833110,833.11,0
833240,833.24,0
833370,833.37,0
833510,833.51,0
833640,833.64,0
833790,833.79,0
833920,833.92,0
834050,834.05,0
834180,834.18,0
834310,834.31,0
834450,834.45,0
834580,834.58,0
834710,834.71,0
834850,834.85,0
834980,834.98,0
835110,835.11,0
835250,835.25,0
835380,835.38,0
835510,835.51,0
835640,835.64,0
835790,835.79,0
835930,835.93,0
836060,836.06,0
836230,836.23,0
836360,836.36,0
836490,836.49,0
836620,836.62,0
836750,836.75,0
836880,836.88,0
837010,837.01,0
837140,837.14,0
837290,837.29,0
837420,837.42,0
837560,837.56,0
837690,837.69,0
837820,837.82,0
837950,837.95,0
838080,838.08,0
838210,838.21,0
838340,838.34,0
838470,838.47,0
838600,838.6,0
838730,838.73,0
838870,838.87,0
839010,839.01,0
839140,839.14,0
839290,839.29,0
839420,839.42,0
839580,839.58,0
839710,839.71,0
839840,839.84,0
839970,839.97,0
840110,840.11,0
840250,840.25,0
840380,840.38,0
840510,840.51,0
840640,840.64,0
840790,840.79,0
840960,840.96,0
841090,841.09,0
841220,841.22,0
841360,841.36,0
841490,841.49,0
841630,841.63,0
841770,841.77,0
841900,841.9,0
842030,842.03,0
842170,842.17,0
842300,842.3,0
842430,842.43,0
842560,842.56,0
842690,842.69,0
842850,842.85,0
842990,842.99,0
843120,843.12,0
843250,843.25,0
843380,843.38,0
843510,843.51,0
843640,843.64,0
843800,843.8,0
843970,843.97,0
844100,844.1,0
844230,844.23,0
844390,844.39,0
844520,844.52,0
844650,844.65,0
844790,844.79,0
844970,844.97,0
845100,845.1,0
845230,845.23,0
845360,845.36,0
845490,845.49,0
845620,845.62,0
845770,845.77,0
845980,845.98,0
846110,846.11,0
846240,846.24,0
846370,846.37,0
846500,846.5,0
846630,846.63,0
846770,846.77,0
846900,846.9,0
847030,847.03,0
847170,847.17,0
847300,847.3,0
847430,847.43,0
847560,847.56,0
847690,847.69,0
847820,847.82,0
847980,847.98,0
848110,848.11,0
848240,848.24,0
848370,848.37,0
848510,848.51,0
848650,848.65,0
848800,848.8,0
848990,848.99,0
849130,849.13,0
849270,849.27,0
849400,849.4,0
849530,849.53,0
849690,849.69,0
849820,849.82,0
862180,862.18,0
869600,869.6,0
869730,869.73,0
869860,869.86,0
869990,869.99,0
870120,870.12,0
870250,870.25,0
870380,870.38,0
870510,870.51,0
870640,870.64,0
870770,870.77,0
870910,870.91,0
871040,871.04,0
871170,871.17,0
871330,871.33,0
871470,871.47,0
871750,871.75,0
871880,871.88,0
872060,872.06,0
872190,872.19,0
872330,872.33,0
872470,872.47,0
872600,872.6,0
872730,872.73,0
873070,873.07,0
873210,873.21,0
873340,873.34,0
873490,873.49,0
873620,873.62,0
874060,874.06,0
874200,874.2,0
874350,874.35,0
874490,874.49,0
874620,874.62,0
874750,874.75,0
875060,875.06,0
875220,875.22,0
875350,875.35,0
875490,875.49,0
875620,875.62,0
875760,875.76,0
876060,876.06,0
876190,876.19,0
876320,876.32,0
876450,876.45,0
876590,876.59,0
876720,876.72,0
876850,876.85,0
877060,877.06,0
877190,877.19,0
877330,877.33,0
877470,877.47,0
877600,877.6,0
877730,877.73,0
877860,877.86,0
878060,878.06,0
878190,878.19,0
878320,878.32,0
878450,878.45,0
878580,878.58,0
878750,878.75,0
878880,878.88,0
879070,879.07,0
879200,879.2,0
879340,879.34,0
879490,879.49,0
879620,879.62,0
879750,879.75,0
880060,880.06,0
880190,880.19,0
880330,880.33,0
880470,880.47,0
880600,880.6,0
880730,880.73,0
881070,881.07,0
881200,881.2,0
881340,881.34,0
881490,881.49,0
881620,881.62,0
881750,881.75,0
881890,881.89,0
882070,882.07,0
882200,882.2,0
882330,882.33,0
882500,882.5,0
882630,882.63,0
882760,882.76,0
882890,882.89,0
883070,883.07,0
883200,883.2,0
884510,884.51,0
884650,884.65,0
884790,884.79,0
884920,884.92,0
885080,885.08,0
885210,885.21,0
885350,885.35,0
885490,885.49,0
885620,885.62,0
885760,885.76,0
885920,885.92,0
886080,886.08,0
886220,886.22,0
886350,886.35,0
886490,886.49,0
886620,886.62,0
886750,886.75,0
886880,886.88,0
887090,887.09,0
887220,887.22,0
887350,887.35,0
887490,887.49,0
887630,887.63,0
887760,887.76,0
887890,887.89,0
888090,888.09,0
888220,888.22,0
888350,888.35,0
888490,888.49,0
888620,888.62,0
888750,888.75,0
889090,889.09,0
889230,889.23,0
889370,889.37,0
889520,889.52,0
889650,889.65,0
889790,889.79,0
890100,890.1,0
890230,890.23,0
890370,890.37,0
890510,890.51,0
890640,890.64,0
890780,890.78,0
890910,890.91,0
891240,891.24,0
891370,891.37,0
891500,891.5,0
891630,891.63,0
891760,891.76,0
892100,892.1,0
892230,892.23,0
892370,892.37,0
892500,892.5,0
892630,892.63,0
892760,892.76,0
892890,892.89,0
893110,893.11,0
893240,893.24,0
893370,893.37,0
893500,893.5,0
893630,893.63,0
893770,893.77,0
894110,894.11,0
894240,894.24,0
894370,894.37,0
894510,894.51,0
894640,894.64,0
894770,894.77,0
894900,894.9,0
895110,895.11,0
895250,895.25,0
895390,895.39,0
895520,895.52,0
895650,895.65,0
895780,895.78,0
895910,895.91,0
896120,896.12,0
896250,896.25,0
896380,896.38,0
896510,896.51,0
896640,896.64,0
896810,896.81,0
896940,896.94,0
897120,897.12,0
897250,897.25,0
897380,897.38,0
897510,897.51,0
897640,897.64,0
897770,897.77,0
897900,897.9,0
898120,898.12,0
898260,898.26,0
898390,898.39,0
898520,898.52,0
898650,898.65,0
898780,898.78,0
898910,898.91,0
899130,899.13,0
899260,899.26,0
899400,899.4,0
899530,899.53,0
899680,899.68,0
899810,899.81,0
899950,899.95,0
900130,900.13,0
900260,900.26,0
900390,900.39,0
900520,900.52,0
900790,900.79,0
900920,900.92,0
901140,901.14,0
901280,901.28,0
901410,901.41,0
901540,901.54,0
901670,901.67,0
901800,901.8,0
901930,901.93,0
902130,902.13,0
902270,902.27,0
902400,902.4,0
902540,902.54,0
902670,902.67,0
902800,902.8,0
902930,902.93,0
903140,903.14,0
903270,903.27,0
903400,903.4,0
903560,903.56,0
903690,903.69,0
903820,903.82,0
903960,903.96,0
904140,904.14,0
904270,904.27,0
904400,904.4,0
904530,904.53,0
904660,904.66,0
904800,904.8,0
904930,904.93,0
905150,905.15,0
905280,905.28,0
905420,905.42,0
905550,905.55,0
905680,905.68,0
905810,905.81,0
905940,905.94,0
906070,906.07,0
906200,906.2,0
906330,906.33,0
906470,906.47,0
906600,906.6,0
906740,906.74,0
906900,906.9,0
907030,907.03,0
907160,907.16,0
907290,907.29,0
907420,907.42,0
907550,907.55,0
907680,907.68,0
907810,907.81,0
907940,907.94,0
908080,908.08,0
908210,908.21,0
908350,908.35,0
908490,908.49,0
908620,908.62,0
908760,908.76,0
908890,908.89,0
909020,909.02,0
909150,909.15,0
909280,909.28,0
909420,909.42,0
909550,909.55,0
909680,909.68,0
909810,909.81,0
909940,909.94,0
910100,910.1,0
910230,910.23,0
910360,910.36,0
910490,910.49,0
910620,910.62,0
910760,910.76,0
910890,910.89,0
911020,911.02,0
911150,911.15,0
911280,911.28,0
911410,911.41,0
911540,911.54,0
911670,911.67,0
911800,911.8,0
911930,911.93,0
912070,912.07,0
912200,912.2,0
912330,912.33,0
912470,912.47,0
912600,912.6,0
912730,912.73,0
912860,912.86,0
912990,912.99,0
913120,913.12,0
913290,913.29,0
913430,913.43,0
913560,913.56,0
913690,913.69,0
913820,913.82,0
913950,913.95,0
914090,914.09,0
914220,914.22,0
914360,914.36,0
914490,914.49,0
914620,914.62,0
914760,914.76,0
914890,914.89,0
915020,915.02,0
915180,915.18,0
915310,915.31,0
915440,915.44,0
915570,915.57,0
915700,915.7,0
915830,915.83,0
916180,916.18,0
916320,916.32,0
916450,916.45,0
916580,916.58,0
916740,916.74,0
916870,916.87,0
917180,917.18,0
917310,917.31,0
917440,917.44,0
917570,917.57,0
917700,917.7,0
917840,917.84,0
917990,917.99,0
918190,918.19,0
918320,918.32,0
918450,918.45,0
918580,918.58,0
918710,918.71,0
918840,918.84,0
918980,918.98,0
919190,919.19,0
919340,919.34,0
919490,919.49,0
919620,919.62,0
919750,919.75,0
919880,919.88,0
920010,920.01,0
920190,920.19,0
920350,920.35,0
920490,920.49,0
920620,920.62,0
920760,920.76,0
920890,920.89,0
921020,921.02,0
921200,921.2,0
921330,921.33,0
921470,921.47,0
921600,921.6,0
921960,921.96,0
922090,922.09,0
922220,922.22,0
922360,922.36,0
922490,922.49,0
922620,922.62,0
922760,922.76,0
922890,922.89,0
923020,923.02,0
923170,923.17,0
923300,923.3,0
923430,923.43,0
923880,923.88,0
924010,924.01,0
924140,924.14,0
924280,924.28,0
924410,924.41,0
924540,924.54,0
924690,924.69,0
924820,924.82,0
924950,924.95,0
925090,925.09,0
925220,925.22,0
925350,925.35,0
925480,925.48,0
925610,925.61,0
925740,925.74,0
925880,925.88,0
926010,926.01,0
926210,926.21,0
926340,926.34,0
926480,926.48,0
926610,926.61,0
926740,926.74,0
926870,926.87,0
927030,927.03,0
927220,927.22,0
927350,927.35,0
927480,927.48,0
927610,927.61,0
927740,927.74,0
927890,927.89,0
928020,928.02,0
928220,928.22,1
928350,928.35,1
928480,928.48,1
928610,928.61,0
928740,928.74,0
928870,928.87,0
929000,929,0
929220,929.22,0
929360,929.36,0
929490,929.49,0
929620,929.62,0
929750,929.75,0
929880,929.88,0
930010,930.01,0
930230,930.23,0
930370,930.37,0
930530,930.53,0
930670,930.67,0
930810,930.81,0
930940,930.94,0
931070,931.07,0
931230,931.23,0
931360,931.36,0
931490,931.49,0
931620,931.62,0
931750,931.75,0
931880,931.88,0
932010,932.01,0
932250,932.25,0
932380,932.38,0
932510,932.51,0
932650,932.65,0
932780,932.78,0
932910,932.91,0
933040,933.04,0
933190,933.19,0
933320,933.32,0
933460,933.46,0
933600,933.6,0
933760,933.76,0
933890,933.89,0
934030,934.03,0
934170,934.17,0
934300,934.3,0
934430,934.43,0
934560,934.56,0
934700,934.7,0
934830,934.83,0
934970,934.97,0
935100,935.1,0
935230,935.23,0
935360,935.36,0
935490,935.49,0
935620,935.62,0
935750,935.75,0
935880,935.88,0
936010,936.01,0
936140,936.14,0
936280,936.28,0
936410,936.41,0
936540,936.54,0
936690,936.69,0
936820,936.82,0
936980,936.98,0
937110,937.11,0
937250,937.25,0
937380,937.38,0
937510,937.51,0
937650,937.65,0
937780,937.78,0
937910,937.91,0
938040,938.04,0
938190,938.19,0
938320,938.32,0
938450,938.45,0
938580,938.58,0
938720,938.72,0
938850,938.85,0
939000,939,0
939130,939.13,0
939260,939.26,0
939390,939.39,0
939520,939.52,0
939650,939.65,0
939780,939.78,0
939910,939.91,0
940040,940.04,0
940220,940.22,0
940360,940.36,0
940490,940.49,0
940620,940.62,0
940750,940.75,0
940880,940.88,0
941010,941.01,0
941140,941.14,0
941270,941.27,0
941400,941.4,0
941530,941.53,0
941680,941.68,0
941810,941.81,0
941940,941.94,0
942070,942.07,0
942200,942.2,0
942330,942.33,0
942470,942.47,0
942600,942.6,0
942730,942.73,0
942860,942.86,0
943000,943,0
943140,943.14,0
943310,943.31,0
943440,943.44,0
943570,943.57,0
943700,943.7,0
943830,943.83,0
943960,943.96,0
944090,944.09,0
944220,944.22,0
944360,944.36,0
944490,944.49,0
944620,944.62,0
944890,944.89,0
945020,945.02,0
945300,945.3,0
945440,945.44,0
945570,945.57,0
946000,946,0
946130,946.13,0
946270,946.27,0
946410,946.41,0
946570,946.57,0
947990,947.99,0
948130,948.13,0
948700,948.7,0
948830,948.83,0
948960,948.96,0
949090,949.09,0
949230,949.23,0
949360,949.36,0
949630,949.63,0
949760,949.76,0
949930,949.93,0
950060,950.06,0
950620,950.62,0
950750,950.75,0
950880,950.88,0
951020,951.02,0
951150,951.15,0
951290,951.29,0
951420,951.42,0
951550,951.55,0
951700,951.7,0
952710,952.71,0
953000,953,0
953130,953.13,0
953270,953.27,0
953410,953.41,0
953540,953.54,0
953690,953.69,0
953820,953.82,0
953950,953.95,0
954090,954.09,0
954220,954.22,0
956940,956.94,0
957640,957.64,0
957790,957.79,0
957930,957.93,0
958070,958.07,0
958500,958.5,0
959340,959.34,0
959480,959.48,0
959790,959.79,0
960070,960.07,0
960210,960.21,0
960350,960.35,0
960640,960.64,0
960780,960.78,0
