time_boot_ms,time_boot_s,xacc,yacc,zacc,xgyro,ygyro,zgyro,xmag,ymag,zmag
515640,515.64,425,-327,-7949,-11,-1,0,0,0,0
516140,516.14,424,-327,-7936,-11,1,-3,0,0,0
516640,516.64,426,-331,-7937,-12,1,-3,0,0,0
517140,517.14,424,-333,-7921,-11,-4,-5,0,0,0
517640,517.64,418,-322,-7918,-13,-2,-3,0,0,0
518140,518.14,425,-333,-7944,-13,-1,-1,0,0,0
518640,518.64,422,-318,-7945,-12,-8,0,0,0,0
519140,519.14,420,-333,-7936,-7,-3,-3,0,0,0
519640,519.64,426,-333,-7940,-14,-1,-3,0,0,0
520140,520.14,427,-324,-7936,-11,-5,-2,0,0,0
520640,520.64,419,-325,-7939,-12,-5,-4,0,0,0
521140,521.14,418,-332,-7932,-13,0,-3,0,0,0
521640,521.64,419,-328,-7937,-8,-1,-2,0,0,0
522140,522.14,425,-330,-7944,-11,-5,-4,0,0,0
522640,522.64,425,-328,-7931,-12,-4,-4,0,0,0
523140,523.14,416,-332,-7934,-11,-1,-3,0,0,0
523640,523.64,423,-330,-7937,-11,-4,-4,0,0,0
524140,524.14,427,-328,-7932,-8,-9,-4,0,0,0
524640,524.64,419,-330,-7928,-16,-1,-5,0,0,0
525140,525.14,424,-331,-7928,-11,-3,-3,0,0,0
525640,525.64,427,-324,-7933,-8,-3,-3,0,0,0
526140,526.14,418,-334,-7939,-12,-3,-3,0,0,0
526640,526.64,420,-332,-7941,-13,-4,-3,0,0,0
527140,527.14,434,-324,-7935,-10,-3,-3,0,0,0
527640,527.64,431,-326,-7939,-13,-1,-5,0,0,0
528140,528.14,420,-332,-7943,-12,-4,-3,0,0,0
528640,528.64,420,-327,-7943,-12,-3,-4,0,0,0
529140,529.14,425,-332,-7943,-13,-2,-5,0,0,0
529640,529.64,427,-334,-7939,-3,-8,0,0,0,0
530640,530.64,420,-334,-7934,-10,-9,-1,0,0,0
531140,531.14,426,-333,-7933,-12,-4,-4,0,0,0
531770,531.77,422,-323,-7936,-13,-5,-4,0,0,0
532240,532.24,427,-327,-7945,-13,0,-3,0,0,0
532740,532.74,426,-328,-7930,-11,-3,-3,0,0,0
533240,533.24,431,-327,-7940,-9,-3,-3,0,0,0
533740,533.74,422,-333,-7939,-14,-1,-4,0,0,0
534240,534.24,422,-334,-7937,-11,-3,-4,0,0,0
534740,534.74,421,-335,-7932,-11,-1,-5,0,0,0
535240,535.24,407,-327,-7947,-12,-6,-3,0,0,0
535740,535.74,429,-330,-7933,-10,0,-4,0,0,0
536240,536.24,428,-333,-7943,-10,-6,-2,0,0,0
536750,536.75,419,-333,-7942,-10,-7,-3,0,0,0
537240,537.24,426,-330,-7933,-11,-4,-1,0,0,0
537740,537.74,420,-333,-7946,-12,-3,-1,0,0,0
538240,538.24,419,-331,-7935,-10,-6,-5,0,0,0
538740,538.74,417,-335,-7933,-15,-5,-4,0,0,0
539240,539.24,416,-333,-7950,-11,-2,-3,0,0,0
539740,539.74,425,-324,-7937,-13,-4,-4,0,0,0
540240,540.24,424,-339,-7942,-12,-5,-2,0,0,0
540740,540.74,423,-335,-7940,0,-5,1,0,0,0
541240,541.24,424,-339,-7932,-12,2,-6,0,0,0
541740,541.74,425,-335,-7949,-11,-5,-4,0,0,0
542240,542.24,426,-331,-7950,-11,-5,-3,0,0,0
542740,542.74,427,-327,-7943,-12,-5,-5,0,0,0
543240,543.24,419,-330,-7939,-13,-3,-3,0,0,0
543740,543.74,414,-328,-7938,-12,-4,-1,0,0,0
544240,544.24,427,-331,-7950,-14,-3,-2,0,0,0
544740,544.74,424,-333,-7930,-12,-6,-7,0,0,0
545240,545.24,422,-333,-7940,-12,-4,-4,0,0,0
545740,545.74,416,-332,-7945,-12,-4,0,0,0,0
546240,546.24,426,-330,-7943,-12,-3,-2,0,0,0
546740,546.74,424,-326,-7941,-18,-1,-4,0,0,0
547240,547.24,420,-332,-7947,-11,-6,-9,0,0,0
547740,547.74,423,-329,-7947,-15,-3,-6,0,0,0
548240,548.24,426,-327,-7938,-9,-7,-1,0,0,0
548740,548.74,430,-334,-7948,-13,-5,-4,0,0,0
549240,549.24,418,-327,-7954,-12,-3,-3,0,0,0
549740,549.74,415,-332,-7940,-15,-3,-3,0,0,0
550240,550.24,421,-328,-7941,-16,-2,-3,0,0,0
550740,550.74,421,-340,-7946,-13,-4,-5,0,0,0
551240,551.24,423,-323,-7938,-9,-2,-4,0,0,0
551740,551.74,421,-330,-7938,-14,-3,-9,0,0,0
552240,552.24,418,-307,-7944,-8,4,-3,0,0,0
552740,552.74,437,-339,-7943,-16,4,-9,0,0,0
553240,553.24,425,-333,-7937,-18,-9,-4,0,0,0
553740,553.74,425,-327,-7933,-13,-1,-2,0,0,0
554240,554.24,421,-331,-7935,-10,-4,-6,0,0,0
554740,554.74,419,-332,-7944,-13,-2,-5,0,0,0
555240,555.24,424,-334,-7942,-14,-4,-5,0,0,0
555740,555.74,422,-328,-7940,-14,-5,-6,0,0,0
556240,556.24,422,-327,-7948,-12,1,-7,0,0,0
556740,556.74,420,-336,-7940,-14,-4,-5,0,0,0
557240,557.24,421,-328,-7943,-14,-3,-9,0,0,0
557740,557.74,427,-323,-7952,-14,0,-6,0,0,0
558240,558.24,420,-334,-7950,-20,1,-6,0,0,0
558740,558.74,426,-330,-7946,-14,-5,-3,0,0,0
559240,559.24,424,-344,-7941,-13,0,-3,0,0,0
559740,559.74,419,-335,-7947,-14,-3,-6,0,0,0
560240,560.24,429,-338,-7942,-13,-5,-12,0,0,0
560740,560.74,419,-329,-7941,-15,-5,-5,0,0,0
561240,561.24,416,-330,-7942,-15,-3,-6,0,0,0
561740,561.74,416,-330,-7954,-13,-3,-9,0,0,0
562240,562.24,426,-333,-7949,-13,-5,-7,0,0,0
562740,562.74,418,-331,-7953,-11,-3,-5,0,0,0
563240,563.24,427,-332,-7951,-15,-3,-7,0,0,0
563740,563.74,423,-327,-7948,-14,-2,-3,0,0,0
564240,564.24,424,-333,-7944,-15,-1,-4,0,0,0
564740,564.74,427,-331,-7954,-14,-4,-6,0,0,0
565240,565.24,419,-334,-7941,-14,-4,-6,0,0,0
565740,565.74,422,-328,-7939,-12,-2,-2,0,0,0
566240,566.24,425,-324,-7951,-14,1,-3,0,0,0
566740,566.74,427,-335,-7948,-13,-5,-7,0,0,0
567240,567.24,418,-333,-7956,-17,-2,-7,0,0,0
567740,567.74,425,-335,-7953,-14,-3,-7,0,0,0
568240,568.24,426,-330,-7955,-14,-2,-5,0,0,0
568740,568.74,427,-329,-7932,-14,-3,-2,0,0,0
569240,569.24,416,-332,-7954,-14,-5,-5,0,0,0
569740,569.74,417,-338,-7940,-11,-4,-1,0,0,0
570240,570.24,422,-333,-7941,-17,-12,-4,0,0,0
570740,570.74,421,-328,-7945,-17,-4,-5,0,0,0
571240,571.24,419,-329,-7942,-11,-2,0,0,0,0
571740,571.74,430,-332,-7931,-13,-2,-4,0,0,0
572240,572.24,418,-343,-7943,-14,-7,-3,0,0,0
572740,572.74,417,-333,-7935,-13,-2,-3,0,0,0
573240,573.24,418,-322,-7937,-12,-5,-5,0,0,0
573740,573.74,420,-333,-7947,-13,-3,-4,0,0,0
574240,574.24,420,-331,-7942,-16,-3,-2,0,0,0
574740,574.74,420,-329,-7948,-13,-5,0,0,0,0
575240,575.24,428,-333,-7940,-11,-3,-4,0,0,0
575740,575.74,434,-356,-7936,-17,1,-11,0,0,0
576240,576.24,420,-333,-7945,-13,-9,-4,0,0,0
576740,576.74,428,-328,-7938,-10,-5,-3,0,0,0
577240,577.24,428,-333,-7955,-10,-7,-6,0,0,0
577740,577.74,420,-329,-7935,-12,-4,-6,0,0,0
578240,578.24,418,-337,-7943,-15,-5,-1,0,0,0
578740,578.74,422,-327,-7941,-15,-1,-5,0,0,0
579240,579.24,419,-326,-7935,-11,-1,-4,0,0,0
579740,579.74,420,-335,-7945,-15,-5,-1,0,0,0
580240,580.24,421,-336,-7943,-12,-3,-4,0,0,0
580740,580.74,426,-335,-7943,-15,1,-4,0,0,0
581740,581.74,413,-335,-7946,-14,-3,-3,0,0,0
582240,582.24,417,-330,-7947,-12,1,-4,0,0,0
582740,582.74,431,-334,-7945,-14,-4,-4,0,0,0
583240,583.24,428,-326,-7940,-16,-5,-9,0,0,0
583740,583.74,419,-329,-7939,-14,-1,-1,0,0,0
584240,584.24,427,-333,-7945,-17,-5,-9,0,0,0
584740,584.74,425,-333,-7944,-15,-4,-5,0,0,0
585240,585.24,424,-332,-7935,-13,-3,-2,0,0,0
585740,585.74,420,-338,-7947,-12,-2,-4,0,0,0
586240,586.24,431,-333,-7945,-14,-7,-1,0,0,0
586940,586.94,421,-333,-7943,-11,0,-4,0,0,0
587440,587.44,416,-333,-7926,-12,0,-6,0,0,0
587940,587.94,429,-334,-7943,-19,-3,-3,0,0,0
588440,588.44,424,-330,-7942,-14,-4,-4,0,0,0
588940,588.94,425,-327,-7939,-14,-3,-6,0,0,0
589440,589.44,422,-338,-7938,-13,-3,-5,0,0,0
589940,589.94,427,-328,-7952,-15,0,-7,0,0,0
590440,590.44,427,-336,-7945,-11,-2,-5,0,0,0
590940,590.94,415,-341,-7937,-13,-1,-6,0,0,0
591440,591.44,425,-325,-7940,-13,-1,-5,0,0,0
591940,591.94,420,-329,-7941,-15,-3,-2,0,0,0
592440,592.44,418,-329,-7930,-14,-3,-5,0,0,0
592940,592.94,419,-323,-7942,-10,-9,-6,0,0,0
593440,593.44,416,-334,-7956,-17,-1,-7,0,0,0
593940,593.94,419,-333,-7954,-13,-7,-6,0,0,0
594440,594.44,418,-336,-7947,-14,-1,-5,0,0,0
594940,594.94,421,-332,-7942,-14,-5,-4,0,0,0
595440,595.44,435,-332,-7942,-14,-3,-6,0,0,0
595940,595.94,425,-329,-7949,-16,-4,-4,0,0,0
596440,596.44,421,-328,-7944,-16,-3,-5,0,0,0
596940,596.94,426,-328,-7941,-13,-3,-3,0,0,0
597440,597.44,418,-330,-7950,-17,-5,-3,0,0,0
597940,597.94,423,-329,-7950,-10,-6,-7,0,0,0
598440,598.44,420,-325,-7951,-15,-5,-3,0,0,0
598940,598.94,418,-327,-7941,-14,-9,-6,0,0,0
599440,599.44,416,-332,-7955,-15,3,-6,0,0,0
599940,599.94,420,-328,-7952,-13,-5,-3,0,0,0
600440,600.44,416,-326,-7950,-15,-3,-5,0,0,0
600940,600.94,430,-333,-7950,-14,-5,-6,0,0,0
601440,601.44,420,-331,-7950,-14,-3,-3,0,0,0
601940,601.94,429,-334,-7947,-15,-4,-9,0,0,0
602440,602.44,424,-329,-7949,-17,-10,-5,0,0,0
602940,602.94,428,-325,-7943,-14,-4,-5,0,0,0
603440,603.44,420,-333,-7951,-13,-6,-4,0,0,0
603950,603.95,423,-333,-7948,-15,-3,-5,0,0,0
604440,604.44,418,-333,-7938,-14,-6,-2,0,0,0
604940,604.94,419,-336,-7954,-15,2,-5,0,0,0
605440,605.44,425,-332,-7944,-13,-10,-4,0,0,0
605940,605.94,417,-333,-7951,-16,-2,-4,0,0,0
606440,606.44,420,-331,-7940,-15,-5,-4,0,0,0
606940,606.94,419,-330,-7943,-14,-8,-3,0,0,0
607440,607.44,420,-326,-7945,-16,-2,-5,0,0,0
607940,607.94,428,-284,-7960,2,-45,-1,0,0,0
608440,608.44,239,-477,-7909,767,-603,62,0,0,0
608940,608.94,439,-331,-7950,-131,823,-956,0,0,0
609440,609.44,482,-373,-7870,-164,269,-982,0,0,0
609940,609.94,640,-220,-7947,-45,100,-16,0,0,0
610440,610.44,489,-278,-7958,427,-1685,184,0,0,0
610940,610.94,392,-291,-7956,-41,65,-16,0,0,0
611440,611.44,394,-290,-7947,-19,6,-5,0,0,0
611940,611.94,389,-301,-7956,-18,-3,-3,0,0,0
612440,612.44,382,-300,-7950,-13,-3,-3,0,0,0
612940,612.94,393,-299,-7948,-15,-3,-5,0,0,0
613440,613.44,390,-297,-7943,-14,-3,-2,0,0,0
613940,613.94,388,-303,-7955,-17,-7,-5,0,0,0
614440,614.44,380,-305,-7948,-17,-2,-7,0,0,0
614940,614.94,388,-298,-7951,-16,-1,-5,0,0,0
615440,615.44,398,-302,-7945,-45,90,-18,0,0,0
615940,615.94,384,-299,-7966,-22,15,-9,0,0,0
617440,617.44,389,-296,-7959,-16,-7,-3,0,0,0
617940,617.94,390,-293,-7958,-15,-6,-1,0,0,0
618440,618.44,382,-299,-7953,-15,-1,-6,0,0,0
618940,618.94,392,-298,-7954,-18,-5,-6,0,0,0
619440,619.44,391,-297,-7956,-13,-6,-3,0,0,0
619940,619.94,388,-300,-7949,-15,-3,-4,0,0,0
620440,620.44,389,-299,-7946,-16,-3,-6,0,0,0
620940,620.94,394,-301,-7960,-13,-4,-7,0,0,0
621440,621.44,390,-294,-7939,-18,-4,-3,0,0,0
621940,621.94,387,-294,-7949,-18,0,-5,0,0,0
622440,622.44,385,-296,-7957,-15,-3,-6,0,0,0
622940,622.94,390,-303,-7955,-19,-2,-6,0,0,0
623440,623.44,391,-300,-7956,-17,-2,-4,0,0,0
623940,623.94,387,-297,-7944,-18,-5,-3,0,0,0
624440,624.44,397,-301,-7948,-14,-4,-7,0,0,0
624940,624.94,392,-295,-7950,-17,-3,-2,0,0,0
625440,625.44,391,-305,-7959,-16,-2,-5,0,0,0
625940,625.94,391,-299,-7953,-14,-4,-5,0,0,0
626440,626.44,390,-290,-7957,-17,-2,-4,0,0,0
626940,626.94,391,-306,-7960,-19,-2,-2,0,0,0
627440,627.44,393,-292,-7963,-18,-4,-5,0,0,0
627940,627.94,390,-295,-7952,-17,-8,-4,0,0,0
628440,628.44,388,-294,-7958,-18,3,-5,0,0,0
628940,628.94,398,-294,-7952,-19,4,-5,0,0,0
629440,629.44,378,-293,-7957,-13,-18,-9,0,0,0
629940,629.94,385,-285,-7951,23,-62,6,0,0,0
630440,630.44,453,-330,-7958,-1,-7,-5,0,0,0
630940,630.94,433,-288,-7950,-12,-1,-3,0,0,0
631440,631.44,355,-287,-7947,-1,-22,2,0,0,0
631940,631.94,386,-310,-7958,14,-97,6,0,0,0
632440,632.44,385,-296,-7956,-17,-17,-2,0,0,0
632940,632.94,381,-299,-7964,-17,-3,-5,0,0,0
633440,633.44,394,-293,-7958,-19,-7,-4,0,0,0
633940,633.94,386,-293,-7953,-17,-4,-5,0,0,0
634440,634.44,386,-289,-7958,-17,-1,-6,0,0,0
634940,634.94,390,-290,-7949,-16,-1,-5,0,0,0
635440,635.44,393,-289,-7960,-18,-3,-9,0,0,0
635940,635.94,382,-294,-7964,-17,-6,-4,0,0,0
636440,636.44,378,-291,-7954,-16,-1,-5,0,0,0
637440,637.44,382,-290,-7944,-17,-6,-6,0,0,0
637940,637.94,391,-297,-7953,-16,-4,-6,0,0,0
638440,638.44,386,-297,-7943,-18,-4,-4,0,0,0
638940,638.94,384,-295,-7958,-17,-4,-4,0,0,0
639440,639.44,387,-291,-7963,-25,3,-9,0,0,0
639940,639.94,385,-291,-7956,-20,-4,-4,0,0,0
640440,640.44,393,-304,-7956,-16,-5,-7,0,0,0
640940,640.94,390,-291,-7961,-18,2,-7,0,0,0
641440,641.44,387,-299,-7959,-16,-7,-5,0,0,0
642140,642.14,389,-294,-7946,-16,-7,-7,0,0,0
642640,642.64,391,-295,-7971,-22,5,-7,0,0,0
643140,643.14,388,-288,-7958,-15,-10,-4,0,0,0
643640,643.64,386,-291,-7962,-17,0,0,0,0,0
644140,644.14,388,-291,-7950,-14,-5,-4,0,0,0
644640,644.64,387,-299,-7957,-18,-3,-3,0,0,0
645140,645.14,386,-294,-7949,-17,-2,-3,0,0,0
645640,645.64,386,-298,-7957,-21,-3,-3,0,0,0
646140,646.14,397,-291,-7957,-18,2,-5,0,0,0
646640,646.64,387,-297,-7960,-13,-10,-3,0,0,0
647140,647.14,394,-292,-7954,-19,6,-3,0,0,0
647640,647.64,383,-298,-7959,-16,-9,-2,0,0,0
648140,648.14,392,-297,-7959,-16,0,-5,0,0,0
648640,648.64,390,-296,-7964,-19,-1,-2,0,0,0
649140,649.14,383,-292,-7940,-13,-8,-1,0,0,0
649640,649.64,389,-294,-7957,-18,-6,-2,0,0,0
650140,650.14,387,-301,-7948,-17,-3,-2,0,0,0
650640,650.64,393,-299,-7956,-18,1,0,0,0,0
651140,651.14,391,-291,-7939,-24,-1,-1,0,0,0
651640,651.64,398,-287,-7956,-16,-5,-2,0,0,0
652140,652.14,393,-299,-7963,-19,-7,0,0,0,0
652640,652.64,389,-295,-7958,-15,-9,0,0,0,0
653140,653.14,394,-296,-7950,-16,-8,-3,0,0,0
653640,653.64,393,-290,-7946,-14,-3,-4,0,0,0
654140,654.14,397,-294,-7938,-15,-4,0,0,0,0
654640,654.64,382,-298,-7957,-12,-7,0,0,0,0
655140,655.14,386,-295,-7957,-15,-6,0,0,0,0
655640,655.64,391,-295,-7950,-17,-1,1,0,0,0
656140,656.14,386,-292,-7955,-18,-2,-2,0,0,0
656640,656.64,388,-289,-7967,-16,-5,-3,0,0,0
657140,657.14,390,-293,-7953,-18,-4,-1,0,0,0
657640,657.64,405,-295,-7955,-15,1,-3,0,0,0
658140,658.14,390,-293,-7962,-15,-5,-2,0,0,0
658640,658.64,392,-291,-7951,-16,0,0,0,0,0
659140,659.14,393,-296,-7944,-15,-5,-4,0,0,0
659640,659.64,387,-291,-7951,-18,-5,-2,0,0,0
660140,660.14,390,-298,-7944,-16,-6,-2,0,0,0
660640,660.64,386,-297,-7947,-18,-2,-2,0,0,0
661140,661.14,389,-298,-7956,-17,-6,-3,0,0,0
661640,661.64,386,-295,-7944,-17,-6,-2,0,0,0
662140,662.14,384,-294,-7956,-15,-5,-4,0,0,0
662640,662.64,388,-286,-7948,-29,-4,0,0,0,0
663140,663.14,386,-296,-7953,-19,-9,-2,0,0,0
663640,663.64,395,-292,-7947,-13,-4,0,0,0,0
664140,664.14,390,-291,-7960,-13,-5,-1,0,0,0
664640,664.64,391,-301,-7956,-14,-2,-2,0,0,0
665140,665.14,387,-300,-7946,-16,-5,-1,0,0,0
665640,665.64,383,-291,-7951,-13,-6,-4,0,0,0
666140,666.14,391,-302,-7955,-15,-3,-5,0,0,0
666640,666.64,394,-295,-7947,-14,-4,0,0,0,0
667140,667.14,384,-295,-7960,-16,-3,-2,0,0,0
667650,667.65,393,-291,-7964,-15,-2,-2,0,0,0
668140,668.14,382,-291,-7963,-18,-5,-1,0,0,0
668640,668.64,392,-295,-7963,-12,-8,-3,0,0,0
669140,669.14,393,-299,-7945,-18,-3,-1,0,0,0
669640,669.64,404,-290,-7960,-15,-10,-2,0,0,0
670140,670.14,393,-291,-7952,-15,-7,-5,0,0,0
670640,670.64,393,-295,-7956,-14,-8,-6,0,0,0
671140,671.14,395,-297,-7951,-20,-2,-4,0,0,0
671640,671.64,393,-297,-7949,-14,-6,-3,0,0,0
672140,672.14,388,-294,-7957,-15,-3,-2,0,0,0
672640,672.64,383,-299,-7954,-14,-2,-10,0,0,0
673140,673.14,384,-293,-7949,-17,-8,-5,0,0,0
673640,673.64,390,-294,-7958,-14,-6,-3,0,0,0
674140,674.14,394,-290,-7938,-17,-6,0,0,0,0
674640,674.64,386,-288,-7946,-13,3,-6,0,0,0
675140,675.14,385,-303,-7966,-14,-9,-4,0,0,0
675640,675.64,382,-303,-7953,-14,-4,-5,0,0,0
676140,676.14,387,-299,-7948,-15,-2,-3,0,0,0
676640,676.64,377,-294,-7948,-14,-5,-2,0,0,0
677140,677.14,391,-290,-7961,-16,-3,-3,0,0,0
677640,677.64,391,-299,-7952,-16,-6,-4,0,0,0
678140,678.14,388,-293,-7949,-17,-4,-4,0,0,0
678640,678.64,391,-293,-7946,-15,-4,-3,0,0,0
679140,679.14,395,-291,-7945,-13,-4,1,0,0,0
679640,679.64,392,-299,-7955,-15,-6,-7,0,0,0
680140,680.14,401,-301,-7947,-10,8,-6,0,0,0
680640,680.64,393,-299,-7944,-18,-8,-7,0,0,0
681140,681.14,379,-288,-7952,-18,-2,-3,0,0,0
681640,681.64,386,-296,-7961,-15,-2,-6,0,0,0
682140,682.14,388,-296,-7955,-15,-3,-5,0,0,0
682640,682.64,387,-292,-7944,-16,-1,0,0,0,0
683640,683.64,379,-295,-7966,-15,-5,-6,0,0,0
684140,684.14,391,-293,-7959,-17,-3,-3,0,0,0
684640,684.64,388,-291,-7964,-18,-5,-4,0,0,0
685140,685.14,380,-291,-7950,-16,-4,-4,0,0,0
685640,685.64,385,-288,-7944,-19,-4,-7,0,0,0
686140,686.14,391,-294,-7949,-24,-2,-4,0,0,0
686640,686.64,394,-294,-7952,-16,-4,-2,0,0,0
687140,687.14,388,-292,-7953,-17,-1,-5,0,0,0
687640,687.64,388,-289,-7958,-17,-4,-10,0,0,0
688140,688.14,394,-293,-7963,-18,-4,-5,0,0,0
688640,688.64,391,-293,-7960,-16,-6,-4,0,0,0
689140,689.14,388,-294,-7956,-18,-6,-4,0,0,0
689640,689.64,391,-291,-7962,-18,-3,-6,0,0,0
690140,690.14,387,-292,-7963,-17,-5,0,0,0,0
690640,690.64,388,-296,-7959,-19,-3,-6,0,0,0
691140,691.14,388,-292,-7949,-16,-3,-3,0,0,0
691640,691.64,371,-279,-7960,-17,-1,-2,0,0,0
692140,692.14,390,-285,-7954,-16,-3,-7,0,0,0
692640,692.64,385,-294,-7953,-16,-1,-7,0,0,0
693140,693.14,387,-286,-7955,-19,-4,-5,0,0,0
693640,693.64,394,-288,-7958,-18,-4,-7,0,0,0
694140,694.14,385,-289,-7953,-18,-3,-7,0,0,0
694640,694.64,388,-293,-7957,-16,-5,-3,0,0,0
695140,695.14,388,-297,-7966,-18,-7,-5,0,0,0
695640,695.64,388,-284,-7944,-18,-5,-12,0,0,0
696140,696.14,393,-292,-7950,-18,-3,-5,0,0,0
696640,696.64,389,-295,-7956,-13,-1,-4,0,0,0
697340,697.34,393,-296,-7957,-16,-3,-10,0,0,0
697840,697.84,390,-296,-7961,-12,-9,-4,0,0,0
698340,698.34,384,-300,-7951,-20,-5,-6,0,0,0
698840,698.84,386,-293,-7961,-17,-5,-6,0,0,0
699340,699.34,382,-286,-7946,-18,-3,-5,0,0,0
699840,699.84,381,-303,-7945,-18,-3,-2,0,0,0
700340,700.34,389,-296,-7956,-15,-2,-4,0,0,0
700840,700.84,385,-287,-7956,-19,-2,-9,0,0,0
701340,701.34,388,-288,-7957,-17,-3,-10,0,0,0
701840,701.84,389,-300,-7949,-19,-2,-1,0,0,0
702340,702.34,393,-298,-7951,-17,-1,-5,0,0,0
703340,703.34,387,-293,-7958,-17,-1,-5,0,0,0
703840,703.84,399,-291,-7954,-20,-1,-3,0,0,0
704340,704.34,381,-295,-7944,-14,-8,-9,0,0,0
704840,704.84,391,-288,-7946,-18,-6,-7,0,0,0
705340,705.34,390,-289,-7968,-17,-3,-7,0,0,0
705840,705.84,391,-290,-7958,-15,-6,-3,0,0,0
706340,706.34,391,-293,-7941,-19,-5,-6,0,0,0
706840,706.84,391,-293,-7951,-18,-4,-5,0,0,0
707340,707.34,393,-297,-7958,-17,-4,-3,0,0,0
707840,707.84,379,-292,-7957,-17,-3,-5,0,0,0
708340,708.34,390,-291,-7961,-19,-4,-5,0,0,0
708840,708.84,387,-295,-7965,-15,-6,-7,0,0,0
709340,709.34,391,-287,-7964,-25,0,-7,0,0,0
709840,709.84,383,-291,-7974,-16,-4,-5,0,0,0
710340,710.34,392,-295,-7966,-17,2,-5,0,0,0
710840,710.84,389,-290,-7958,-15,-5,-4,0,0,0
711340,711.34,383,-299,-7956,-18,-6,-9,0,0,0
711840,711.84,391,-293,-7956,-16,-5,-7,0,0,0
712340,712.34,390,-291,-7958,-18,-1,-13,0,0,0
712840,712.84,394,-299,-7947,-15,-5,-5,0,0,0
713340,713.34,379,-294,-7955,-20,-3,-5,0,0,0
713840,713.84,388,-287,-7963,-21,-1,-4,0,0,0
714340,714.34,398,-287,-7962,-19,-3,-10,0,0,0
714840,714.84,392,-299,-7959,-16,-5,-6,0,0,0
715340,715.34,386,-292,-7960,-22,-3,-10,0,0,0
715840,715.84,398,-286,-7961,-18,-5,-4,0,0,0
716340,716.34,384,-298,-7955,-15,0,-6,0,0,0
716840,716.84,387,-302,-7953,-17,-6,-3,0,0,0
717340,717.34,392,-290,-7958,-16,-3,-5,0,0,0
717840,717.84,388,-293,-7947,-15,-5,-3,0,0,0
718340,718.34,390,-288,-7956,-15,-7,-7,0,0,0
718840,718.84,395,-290,-7960,-15,-6,-1,0,0,0
719340,719.34,392,-297,-7953,-17,-8,-3,0,0,0
719840,719.84,386,-291,-7947,-18,-4,-5,0,0,0
720340,720.34,375,-292,-7954,-26,13,0,0,0,0
720840,720.84,-176,-450,-8767,-2584,-3670,4593,0,0,0
721340,721.34,2613,-388,-9366,-1308,4234,3733,0,0,0
721840,721.84,4468,-1133,-8152,-2350,6724,8585,0,0,0
722340,722.34,3822,-2514,-4838,-4180,-970,11079,0,0,0
722840,722.84,341,-5236,-6446,3247,-5554,1806,0,0,0
723340,723.34,-414,-5128,-4363,4857,2730,-3081,0,0,0
723840,723.84,2135,-7936,-1832,9947,3328,1366,0,0,0
724340,724.34,-294,-6788,2254,5340,-9337,1399,0,0,0
724840,724.84,114,-8074,1839,-226,2777,-2243,0,0,0
725340,725.34,825,-7212,1241,-2582,-1665,4186,0,0,0
725840,725.84,-1071,-8201,-859,-1720,-375,2837,0,0,0
726340,726.34,-2624,-7343,81,503,-707,1225,0,0,0
726840,726.84,-1477,-7659,-2751,-1039,-7303,1527,0,0,0
727340,727.34,-3513,-7129,-2491,-3558,-2912,1869,0,0,0
727840,727.84,-3761,-6287,-1733,1015,990,1036,0,0,0
728340,728.34,-4336,-6150,-396,2895,2910,-1186,0,0,0
728840,728.84,-3390,-7091,536,1921,751,-783,0,0,0
729340,729.34,-2908,-7272,909,294,654,-804,0,0,0
729840,729.84,-2984,-7187,769,182,630,958,0,0,0
730340,730.34,-3237,-7168,920,478,-60,304,0,0,0
730840,730.84,-3104,-6912,913,83,319,-99,0,0,0
731340,731.34,-3145,-7183,1158,1488,736,93,0,0,0
731840,731.84,-2833,-7134,939,23,-553,-123,0,0,0
732340,732.34,-2536,-7310,1054,409,-79,14,0,0,0
732840,732.84,-2620,-7282,975,-60,-143,-354,0,0,0
733340,733.34,-2483,-7274,1207,659,-1272,-267,0,0,0
733840,733.84,-1887,-7165,217,-5828,-548,-870,0,0,0
734340,734.34,580,-7029,-3115,-6826,763,-7305,0,0,0
734840,734.84,1381,-6174,-5572,-4211,1064,-5710,0,0,0
735340,735.34,1841,-1462,-8105,-6906,-4611,-3764,0,0,0
735840,735.84,1918,401,-7882,-840,7036,-1274,0,0,0
736340,736.34,2528,455,-7875,1001,-6514,1351,0,0,0
736840,736.84,17,620,-7757,-1556,-241,1023,0,0,0
737340,737.34,216,428,-8214,-2406,-7741,-2846,0,0,0
737840,737.84,-1125,494,-7670,-3841,-2701,806,0,0,0
738340,738.34,-931,53,-7860,2355,-1192,-5143,0,0,0
738840,738.84,-1618,-1725,-7571,-689,-540,-209,0,0,0
739340,739.34,-1724,-626,-7718,-873,-186,130,0,0,0
739840,739.84,-1426,-1202,-7651,-69,2,70,0,0,0
740340,740.34,-1436,-1350,-7640,169,-90,-126,0,0,0
740840,740.84,-1452,-1710,-7559,1231,-77,-3,0,0,0
741340,741.34,-1292,-1413,-7731,-456,-140,327,0,0,0
741840,741.84,-1850,-1974,-7829,67,-440,-25,0,0,0
742340,742.34,-1170,-2063,-7423,489,-243,-245,0,0,0
742840,742.84,-1327,-2325,-7476,1230,158,-451,0,0,0
743340,743.34,-1432,-2218,-7565,84,-52,-32,0,0,0
743840,743.84,-1069,-2160,-7457,-555,383,385,0,0,0
744340,744.34,-1607,-2192,-7522,368,-150,-251,0,0,0
744840,744.84,-1238,-2446,-7378,770,92,-276,0,0,0
745340,745.34,-1152,-3461,-6997,746,-75,131,0,0,0
745840,745.84,-1519,-2918,-7136,-1614,-481,2411,0,0,0
746340,746.34,-1785,-1950,-7412,-641,569,408,0,0,0
746840,746.84,-1449,-1996,-7514,836,-591,35,0,0,0
747340,747.34,-1152,-1675,-7643,-5415,3157,-141,0,0,0
747840,747.84,1295,4062,-6884,-3458,1196,263,0,0,0
748340,748.34,1023,3424,-7091,-1710,1255,119,0,0,0
748840,748.84,1840,4084,-6689,-6018,4008,1750,0,0,0
749340,749.34,2502,5410,-6821,-3042,-5454,3076,0,0,0
749840,749.84,1094,5531,-4603,-2478,-2806,5851,0,0,0
750340,750.34,2223,5051,-5346,219,-2956,475,0,0,0
750840,750.84,2463,6281,-2750,-1905,661,1292,0,0,0
751340,751.34,3102,7211,-2114,695,-671,-1497,0,0,0
751980,751.98,3257,7290,-2094,359,-154,185,0,0,0
752440,752.44,3166,7083,-2040,219,-356,498,0,0,0
752940,752.94,3113,7264,-2075,-55,142,119,0,0,0
753440,753.44,3127,7230,-1958,62,-53,400,0,0,0
753940,753.94,3374,7120,-1947,85,-5,348,0,0,0
754440,754.44,3368,7225,-2065,-40,-24,-26,0,0,0
754940,754.94,3370,7185,-2032,-79,44,-154,0,0,0
755440,755.44,3365,7079,-2056,39,-109,161,0,0,0
755940,755.94,3341,7054,-2065,35,81,251,0,0,0
756440,756.44,3275,7111,-2002,-162,70,-262,0,0,0
756940,756.94,3401,7180,-1994,45,-95,247,0,0,0
757440,757.44,3358,7137,-2027,83,75,59,0,0,0
757940,757.94,3328,7127,-2018,-71,45,150,0,0,0
758440,758.44,3313,7182,-1917,19,2,-23,0,0,0
758940,758.94,3363,7163,-1958,-42,13,-108,0,0,0
759440,759.44,3376,7097,-1976,-151,-38,36,0,0,0
759940,759.94,3309,7129,-2053,21,72,-196,0,0,0
760440,760.44,3298,7116,-2068,-96,92,-28,0,0,0
760940,760.94,3333,7174,-2000,0,-25,-345,0,0,0
761440,761.44,3310,7103,-2058,83,-40,163,0,0,0
761940,761.94,3879,7471,-2328,940,181,1225,0,0,0
762440,762.44,2837,4983,-2814,12720,967,741,0,0,0
762940,762.94,2108,5612,-5467,11445,405,176,0,0,0
763440,763.44,3509,1163,-6971,9497,2330,6531,0,0,0
763940,763.94,3833,-244,-7162,-877,146,37,0,0,0
764440,764.44,3967,117,-7019,-351,303,-5,0,0,0
764940,764.94,4178,165,-6969,-165,337,119,0,0,0
765440,765.44,4226,70,-6918,310,-133,234,0,0,0
765940,765.94,4129,36,-6964,389,383,97,0,0,0
766440,766.44,4217,-28,-6927,-179,79,11,0,0,0
766940,766.94,4225,56,-6930,-292,373,27,0,0,0
767440,767.44,4202,-71,-6991,87,-51,4,0,0,0
767940,767.94,4405,-563,-6806,894,809,-143,0,0,0
768440,768.44,5349,-761,-6181,592,921,243,0,0,0
768940,768.94,6075,-970,-5596,861,1188,-116,0,0,0
769440,769.44,6964,-164,-4611,340,936,800,0,0,0
769950,769.95,7077,621,-4186,734,-756,610,0,0,0
770440,770.44,6619,-310,-4876,2403,-1742,-143,0,0,0
770940,770.94,7002,-567,-4334,172,43,-316,0,0,0
771440,771.44,6976,-604,-4252,0,25,-220,0,0,0
771940,771.94,7037,-943,-4164,186,109,402,0,0,0
772440,772.44,7039,-862,-4152,133,25,204,0,0,0
772940,772.94,6977,-608,-4306,-291,-87,-191,0,0,0
773450,773.45,7018,-874,-4162,218,221,64,0,0,0
773940,773.94,7054,-493,-4291,-111,-93,-385,0,0,0
774440,774.44,7104,-519,-4223,-175,-48,0,0,0,0
774940,774.94,7054,-373,-4379,-219,-101,-851,0,0,0
775440,775.44,7139,-451,-4225,-84,-45,111,0,0,0
775940,775.94,6997,-204,-4351,-327,-218,-509,0,0,0
776440,776.44,7081,-240,-4260,126,81,242,0,0,0
776940,776.94,7000,-148,-4328,-217,-119,-696,0,0,0
777440,777.44,7073,59,-4298,141,-17,-477,0,0,0
777940,777.94,6996,199,-4333,-16,-104,-290,0,0,0
778440,778.44,6959,281,-4404,-46,-83,-123,0,0,0
778940,778.94,7060,218,-4370,60,10,241,0,0,0
779440,779.44,6966,333,-4307,-480,-174,-1136,0,0,0
779940,779.94,6983,473,-4478,-84,-42,-366,0,0,0
780440,780.44,6951,805,-4337,-110,15,-248,0,0,0
780940,780.94,6903,1057,-4390,-280,-4,-772,0,0,0
781440,781.44,6753,1435,-4490,38,55,-1439,0,0,0
781940,781.94,6858,1534,-4478,-158,-106,-305,0,0,0
782440,782.44,6849,1583,-4308,-297,37,39,0,0,0
782940,782.94,6762,1636,-4487,-156,-56,-114,0,0,0
783440,783.44,6726,1537,-4497,200,-21,193,0,0,0
783940,783.94,6787,1526,-4386,-81,-34,142,0,0,0
784440,784.44,6817,1384,-4395,-574,130,875,0,0,0
784940,784.94,7031,1461,-4304,20,55,22,0,0,0
785440,785.44,6838,1542,-4328,111,11,343,0,0,0
785940,785.94,6825,1772,-4325,72,-69,-421,0,0,0
786440,786.44,6783,1774,-4240,-24,-129,70,0,0,0
786940,786.94,6584,2617,-4061,166,92,-1303,0,0,0
787440,787.44,6333,3096,-4109,-270,-342,382,0,0,0
787940,787.94,6410,3184,-4231,-577,7,-199,0,0,0
788440,788.44,6257,3459,-4075,-511,-270,-423,0,0,0
788940,788.94,6201,3516,-4105,-212,-411,56,0,0,0
789440,789.44,6324,3865,-3902,-239,-87,-229,0,0,0
789940,789.94,6264,3810,-3827,-113,210,-236,0,0,0
790440,790.44,6290,3545,-4020,22,-83,539,0,0,0
790940,790.94,6333,3615,-3833,15,84,-224,0,0,0
791440,791.44,6228,3835,-3780,-488,-43,-586,0,0,0
791940,791.94,5714,4739,-3570,-1206,359,-2683,0,0,0
792440,792.44,6309,3406,-4198,8067,-3204,12245,0,0,0
792940,792.94,6708,2619,-4245,-1384,-173,-9052,0,0,0
793440,793.44,5542,1079,-5632,3315,-3005,-2525,0,0,0
793940,793.94,4183,3085,-5875,1028,1130,-823,0,0,0
794440,794.44,3507,1129,-7095,3685,-4942,4179,0,0,0
794940,794.94,3760,261,-7754,-3707,-1735,126,0,0,0
795440,795.44,524,5132,-8284,-6933,-9485,7155,0,0,0
795940,795.94,-4268,3843,-4303,-1307,-9775,5830,0,0,0
796440,796.44,-3697,5589,-3324,588,-772,-219,0,0,0
796940,796.94,-3130,6529,-3605,-2908,-1392,-3501,0,0,0
797440,797.44,-4998,5225,-3375,-221,83,73,0,0,0
797940,797.94,-4555,5586,-3080,-264,106,349,0,0,0
798440,798.44,-4604,5708,-3166,-872,226,282,0,0,0
798940,798.94,-4382,5428,-3459,73,663,1028,0,0,0
799440,799.44,-4059,5791,-3301,261,291,-554,0,0,0
799940,799.94,-4461,5648,-3388,846,-91,-463,0,0,0
800440,800.44,-4389,5989,-3201,-174,-583,-242,0,0,0
800940,800.94,-4603,6273,-2776,195,330,-1269,0,0,0
801440,801.44,-4352,5571,-2867,-461,-1274,-2878,0,0,0
802470,802.47,-4841,5233,-2682,-592,-953,-1545,0,0,0
802940,802.94,-5508,5788,-2848,1031,995,1556,0,0,0
803440,803.44,-5447,4957,-2556,213,618,181,0,0,0
803940,803.94,-5725,5421,-2494,197,1559,1112,0,0,0
804440,804.44,-4969,5069,-2293,-825,841,-284,0,0,0
804940,804.94,-4128,5344,-4422,-923,2914,-160,0,0,0
805440,805.44,-4061,3872,-5736,2423,4420,-3600,0,0,0
805940,805.94,-4551,1994,-6293,502,1817,-2209,0,0,0
806440,806.44,-4304,1817,-5413,-894,-527,-4869,0,0,0
807140,807.14,-5069,2487,-5914,-1117,50,850,0,0,0
807640,807.64,-4712,3088,-5718,-2143,-442,1196,0,0,0
808140,808.14,-4801,3350,-6163,-2036,-647,-2303,0,0,0
808640,808.64,-4290,6706,-2029,754,-191,-563,0,0,0
809140,809.14,-4138,6409,-2747,492,2909,2091,0,0,0
809640,809.64,-3737,5866,-3827,-243,1042,-714,0,0,0
810140,810.14,-3721,5614,-4039,-379,-978,-2037,0,0,0
810640,810.64,-4125,5367,-3916,-339,787,244,0,0,0
811140,811.14,-4471,4833,-3877,-193,-108,-359,0,0,0
811640,811.64,-4354,5109,-3998,-134,-195,-368,0,0,0
812140,812.14,-4668,4858,-3712,-35,-199,-827,0,0,0
812640,812.64,-4559,4590,-3640,-274,-229,175,0,0,0
813140,813.14,-4278,5580,-3688,-337,324,626,0,0,0
813640,813.64,-3789,5664,-4001,129,-567,38,0,0,0
814140,814.14,-4355,5861,-4310,-141,-1288,-1672,0,0,0
814640,814.64,-4043,5721,-3391,-170,-658,415,0,0,0
815140,815.14,-4457,6134,-3814,-235,472,470,0,0,0
815640,815.64,-4120,5487,-3700,-293,-108,60,0,0,0
816140,816.14,-4363,5125,-3194,-459,-1152,-1984,0,0,0
816640,816.64,-4101,5580,-3307,-577,127,-387,0,0,0
817140,817.14,-4152,5245,-3262,-54,233,-864,0,0,0
817640,817.64,-4171,5478,-2974,-247,-2,-631,0,0,0
818140,818.14,-4392,5307,-3350,580,424,-115,0,0,0
818640,818.64,-4458,5277,-3410,-96,191,168,0,0,0
819140,819.14,-4712,4957,-3700,-48,46,94,0,0,0
819640,819.64,-5011,4562,-3597,581,372,33,0,0,0
820140,820.14,-4884,4626,-3419,250,263,22,0,0,0
820640,820.64,-4931,4786,-3628,206,178,516,0,0,0
821140,821.14,-5115,4842,-3534,222,43,567,0,0,0
821640,821.64,-5156,5006,-3458,-36,510,932,0,0,0
822140,822.14,-4858,5132,-3229,198,37,599,0,0,0
822640,822.64,-4773,5039,-2959,469,-271,-185,0,0,0
823140,823.14,-4549,5160,-3071,163,-52,-170,0,0,0
823640,823.64,-4531,4913,-3032,103,-267,-236,0,0,0
824140,824.14,-4847,5079,-2951,-149,-269,-213,0,0,0
824640,824.64,-4740,5802,-3043,-219,374,303,0,0,0
825140,825.14,-4855,5458,-3239,-538,-156,291,0,0,0
825640,825.64,-4721,5583,-3221,-192,51,-199,0,0,0
826140,826.14,-4917,4982,-3086,-361,-276,-360,0,0,0
826640,826.64,-5203,4958,-3073,-166,-113,-279,0,0,0
827140,827.14,-5137,5055,-3273,245,373,209,0,0,0
827640,827.64,-5128,5188,-3310,282,140,241,0,0,0
828140,828.14,-5366,4916,-3494,99,-206,447,0,0,0
828640,828.64,-5270,4945,-2841,-390,-931,4,0,0,0
829140,829.14,-4813,5259,-3086,-561,-885,104,0,0,0
829640,829.64,-4762,4963,-2630,266,61,-758,0,0,0
830140,830.14,-4783,5170,-2741,215,-230,-1230,0,0,0
830640,830.64,-4676,4856,-2655,-11,-1055,-1933,0,0,0
831140,831.14,-4856,4934,-2499,397,-303,-798,0,0,0
831640,831.64,-5133,5463,-2602,-677,1091,1923,0,0,0
832140,832.14,-5689,5458,-3135,-557,796,945,0,0,0
832640,832.64,-5160,5822,-3165,-392,11,143,0,0,0
833140,833.14,-5237,5722,-2908,1115,391,-1207,0,0,0
833640,833.64,-5317,5216,-2746,265,-382,-1303,0,0,0
834140,834.14,-5286,5239,-2876,368,-65,-534,0,0,0
834640,834.64,-5058,4695,-2793,449,-405,-715,0,0,0
835140,835.14,-5333,5150,-2918,42,-110,-96,0,0,0
835640,835.64,-5508,4580,-2899,34,-10,261,0,0,0
836140,836.14,-5484,5144,-3061,52,127,480,0,0,0
836640,836.64,-5400,5004,-3206,10,-352,442,0,0,0
837140,837.14,-5623,5650,-3545,134,628,1261,0,0,0
837640,837.64,-5856,5562,-3458,-248,718,2080,0,0,0
838140,838.14,-5437,5354,-3430,525,-293,351,0,0,0
838640,838.64,-4996,5234,-3291,766,311,742,0,0,0
839140,839.14,-5561,5099,-3587,997,606,540,0,0,0
839640,839.64,-5446,5072,-3934,113,336,1041,0,0,0
840140,840.14,-5630,5419,-3552,-138,1656,3130,0,0,0
840640,840.64,-5698,4958,-3391,464,1233,2011,0,0,0
841140,841.14,-5352,4934,-3485,-294,484,883,0,0,0
841640,841.64,-5092,4750,-3554,-365,-883,-971,0,0,0
842140,842.14,-4579,4702,-2738,493,178,-243,0,0,0
842640,842.64,-4864,4289,-2656,199,-38,-367,0,0,0
843140,843.14,-4737,4224,-2778,-227,13,-154,0,0,0
843640,843.64,-4993,4501,-2659,-319,-84,-813,0,0,0
844140,844.14,-5120,5022,-2946,-267,268,151,0,0,0
844640,844.64,-5048,4949,-3060,-61,160,-381,0,0,0
845140,845.14,-5015,5168,-3052,-324,434,-458,0,0,0
845640,845.64,-5295,5349,-3322,-247,502,136,0,0,0
846140,846.14,-5150,5188,-3440,-253,-254,-116,0,0,0
846640,846.64,-5237,4921,-3147,-33,39,-373,0,0,0
847140,847.14,-4913,4310,-3227,211,-803,-1749,0,0,0
847640,847.64,-4888,4900,-3152,-203,305,495,0,0,0
848140,848.14,-5195,4647,-3295,18,-43,-65,0,0,0
848640,848.64,-4811,5063,-3649,-453,-714,-111,0,0,0
849140,849.14,-4445,4518,-3315,158,-1354,-1863,0,0,0
849640,849.64,-4878,4408,-3166,-41,-117,907,0,0,0
862140,862.14,-4607,5211,-3447,-197,-155,-895,0,0,0
869840,869.84,-1863,6595,-3974,-134,504,-83,0,0,0
870340,870.34,-1852,6796,-4076,27,520,211,0,0,0
870840,870.84,-2000,6449,-4176,268,-313,-133,0,0,0
871340,871.34,-2126,6661,-3536,-554,7,-216,0,0,0
871840,871.84,-3346,7000,-3604,4389,-7858,1600,0,0,0
872350,872.35,-1751,6895,-2375,10551,-5356,2284,0,0,0
872840,872.84,-4329,5271,-4938,2469,859,-1470,0,0,0
873340,873.34,-3451,5773,-4324,-806,624,1008,0,0,0
873840,873.84,-3108,6436,-4636,940,332,522,0,0,0
874340,874.34,-2710,6044,-4262,395,-538,-765,0,0,0
874840,874.84,-3346,5793,-3960,333,-234,284,0,0,0
875340,875.34,-3193,5680,-4157,264,-1058,-3,0,0,0
875840,875.84,-3476,5709,-4227,176,-1024,-154,0,0,0
876840,876.84,-3083,5496,-3645,321,-1298,-648,0,0,0
877350,877.35,-3114,5593,-3763,1058,-1349,-176,0,0,0
877840,877.84,-2812,5651,-3768,227,-1016,595,0,0,0
878340,878.34,-2771,5916,-3858,298,315,1816,0,0,0
878840,878.84,-2783,5895,-3728,563,-1316,-420,0,0,0
879340,879.34,-3259,5702,-3469,417,-566,3757,0,0,0
879840,879.84,-3781,5576,-3760,-269,-1153,-982,0,0,0
880340,880.34,-1822,6422,-3284,405,-857,-2811,0,0,0
880840,880.84,-2510,6234,-3181,-576,-259,-1953,0,0,0
881340,881.34,-2544,6081,-3037,-479,-587,-3458,0,0,0
881840,881.84,-2581,6608,-3511,438,1123,350,0,0,0
882370,882.37,-3454,7015,-3969,394,1373,1966,0,0,0
882840,882.84,-3125,6894,-3944,-512,1100,473,0,0,0
884840,884.84,-2961,6697,-3434,-1344,804,-181,0,0,0
885340,885.34,-3690,6825,-3748,-736,862,518,0,0,0
885840,885.84,-3651,6458,-3580,144,914,-37,0,0,0
886340,886.34,-2933,5493,-2989,-484,-456,-3168,0,0,0
886840,886.84,-3605,6379,-3560,1008,1709,18,0,0,0
887340,887.34,-4246,6244,-3518,492,1004,-659,0,0,0
887840,887.84,-3102,7007,-3900,-1929,837,88,0,0,0
888340,888.34,-3262,6186,-3415,-297,-266,-1254,0,0,0
889340,889.34,-3500,6490,-3821,-865,623,-360,0,0,0
889840,889.84,-3858,6015,-3166,108,1396,-429,0,0,0
890340,890.34,-2541,5992,-2964,-2033,261,-2927,0,0,0
890840,890.84,-2700,6987,-3430,-2080,597,-1186,0,0,0
891340,891.34,-3100,6839,-3327,-1456,1915,713,0,0,0
891840,891.84,-3224,6017,-2941,77,1354,-2379,0,0,0
892340,892.34,-3060,6073,-3033,-945,1211,-2114,0,0,0
892840,892.84,-3781,6659,-3567,-969,2540,-382,0,0,0
893340,893.34,-3568,5583,-3506,-925,1765,-1427,0,0,0
893840,893.84,-4086,6055,-3852,-1361,1326,-219,0,0,0
894340,894.34,-3208,6192,-3002,-1129,924,-2138,0,0,0
894840,894.84,-2752,6295,-2881,-2091,935,-2651,0,0,0
895340,895.34,-3274,6675,-3548,-1803,1947,699,0,0,0
895840,895.84,-3326,6184,-3272,-502,1826,-348,0,0,0
896340,896.34,-3007,6011,-3242,-1389,916,-1577,0,0,0
896840,896.84,-3346,6762,-3608,-1496,1620,-304,0,0,0
897340,897.34,-4359,5803,-3292,-160,2941,295,0,0,0
897840,897.84,-3559,5964,-3294,-1482,1578,-1208,0,0,0
898340,898.34,-3636,7500,-3362,-979,2397,736,0,0,0
898840,898.84,-3518,6744,-2930,-121,1388,-524,0,0,0
899340,899.34,-3462,6656,-3334,-684,1519,495,0,0,0
899840,899.84,-2841,6320,-3515,221,1059,-1103,0,0,0
900340,900.34,-3048,6420,-3420,-689,1256,-1426,0,0,0
900840,900.84,-2957,6723,-3708,-1104,1197,-1242,0,0,0
901340,901.34,-2751,6122,-3218,-942,1240,-1334,0,0,0
901840,901.84,-3397,6390,-3379,-773,1412,-368,0,0,0
902340,902.34,-2979,6477,-3449,-227,1528,-721,0,0,0
902840,902.84,-3672,5893,-3382,168,622,-1266,0,0,0
903340,903.34,-3634,5449,-3271,48,517,-1161,0,0,0
903840,903.84,-3664,5137,-3464,756,241,-1196,0,0,0
904340,904.34,-3421,6182,-4050,-611,805,746,0,0,0
904840,904.84,-3073,6231,-4020,-195,938,1041,0,0,0
905340,905.34,-2940,5932,-3815,8,-487,-1399,0,0,0
905840,905.84,-3021,6382,-4020,25,393,-98,0,0,0
906340,906.34,-2923,6303,-3989,-297,424,-500,0,0,0
906840,906.84,-2989,5960,-3839,-484,483,-714,0,0,0
907340,907.34,-2312,5763,-3467,-748,188,-1833,0,0,0
907840,907.84,-3326,5879,-3899,99,138,-1108,0,0,0
908340,908.34,-2720,5819,-3801,176,-77,-1650,0,0,0
908840,908.84,-2878,6267,-4132,-764,952,85,0,0,0
909340,909.34,-3458,5742,-4075,-388,315,-1253,0,0,0
909840,909.84,-3668,5370,-4006,32,-564,-1585,0,0,0
910340,910.34,-2616,5123,-3466,-1,-1595,-2830,0,0,0
910840,910.84,-2681,5962,-3399,879,-739,-2304,0,0,0
911340,911.34,-1882,6441,-3614,-1759,-664,1074,0,0,0
911840,911.84,-2412,7208,-4266,-1849,-568,158,0,0,0
912340,912.34,-3448,6670,-4412,988,313,2309,0,0,0
912840,912.84,-3498,6583,-3568,932,-170,-98,0,0,0
913340,913.34,-2468,6272,-3434,202,-796,287,0,0,0
913840,913.84,-2818,6050,-3099,134,-1762,-792,0,0,0
914340,914.34,-3240,6631,-3822,427,-367,1660,0,0,0
914840,914.84,-3307,6587,-3705,630,-98,1607,0,0,0
915340,915.34,-1791,6804,-3498,319,367,2189,0,0,0
915840,915.84,-2028,6593,-3691,382,-313,-104,0,0,0
916340,916.34,-2936,5861,-3899,602,-3,382,0,0,0
916840,916.84,-3164,6005,-3939,511,241,100,0,0,0
917340,917.34,-2790,6151,-3776,384,-79,-446,0,0,0
917840,917.84,-2819,6017,-3804,367,-204,-729,0,0,0
918340,918.34,-2885,6370,-3849,-442,-45,-46,0,0,0
918840,918.84,-3057,6070,-3831,29,-119,-169,0,0,0
919340,919.34,-3034,6161,-3772,14,59,-71,0,0,0
919840,919.84,-3200,6332,-3715,367,395,294,0,0,0
920340,920.34,-3121,6122,-3820,52,425,562,0,0,0
920840,920.84,-2973,5914,-3809,-140,-157,-370,0,0,0
921340,921.34,-3142,6341,-3831,-158,65,139,0,0,0
922040,922.04,-3087,6279,-3737,-174,-75,-110,0,0,0
922540,922.54,-3059,6214,-3847,135,199,106,0,0,0
923040,923.04,-3066,6227,-3843,91,157,212,0,0,0
923540,923.54,-3025,6200,-3740,-167,-68,55,0,0,0
924040,924.04,-3043,6203,-3817,-307,23,67,0,0,0
924540,924.54,-3018,6237,-3837,-63,26,-61,0,0,0
925040,925.04,-2967,6225,-3829,88,73,-13,0,0,0
925540,925.54,-3027,6229,-3806,-73,-56,-45,0,0,0
926040,926.04,-3035,6250,-3838,25,54,-51,0,0,0
926540,926.54,-2951,5874,-3681,3388,1141,-64,0,0,0
927040,927.04,-134,3710,-7941,9502,3791,3719,0,0,0
927540,927.54,-2476,5272,-5300,-3031,-4232,2111,0,0,0
928040,928.04,-2422,5369,-5530,-1047,3660,471,0,0,0
928540,928.54,-1497,5284,-5656,-1442,1152,219,0,0,0
929040,929.04,-1503,5408,-5416,-919,792,66,0,0,0
929540,929.54,-1388,5925,-5210,353,-285,59,0,0,0
930040,930.04,-1440,5505,-5548,-154,-637,33,0,0,0
930540,930.54,-519,6146,-5074,-3269,1099,-1746,0,0,0
931040,931.04,-1961,5839,-4470,616,-759,-605,0,0,0
931540,931.54,-1740,5926,-4942,647,507,491,0,0,0
932040,932.04,-1319,5521,-5555,4621,2106,2955,0,0,0
932540,932.54,-971,5028,-5944,3029,-680,1356,0,0,0
933040,933.04,-1166,5130,-6310,67,68,86,0,0,0
933540,933.54,-2159,5684,-5296,862,-37,-1625,0,0,0
934040,934.04,-1629,4458,-5704,2572,1376,4046,0,0,0
934540,934.54,-3253,5173,-3736,-2223,-1463,-2550,0,0,0
935040,935.04,-3419,6000,-4006,396,134,-337,0,0,0
935540,935.54,-3379,5937,-4108,122,124,230,0,0,0
936040,936.04,-3354,5708,-4158,-343,-169,-154,0,0,0
936540,936.54,-3326,5875,-4199,-173,-52,-3,0,0,0
937040,937.04,-3335,5762,-4100,-142,-173,-92,0,0,0
937540,937.54,-3640,5730,-4092,-33,-233,-266,0,0,0
938040,938.04,-4389,5231,-3790,73,254,-52,0,0,0
938540,938.54,-4802,5114,-3553,-428,594,263,0,0,0
939040,939.04,-4466,5347,-4120,-245,-126,-583,0,0,0
939540,939.54,-4578,5678,-3769,271,449,1005,0,0,0
940040,940.04,-4713,5302,-3673,-130,-514,897,0,0,0
940540,940.54,-4552,4931,-3356,346,-219,542,0,0,0
941040,941.04,-3856,5663,-4572,-913,1311,-1146,0,0,0
941540,941.54,-3800,5340,-3574,-1353,621,-567,0,0,0
942040,942.04,-4349,5899,-4719,752,130,1752,0,0,0
942540,942.54,-4084,6239,-4361,246,830,329,0,0,0
943040,943.04,-4208,5904,-4118,1289,-63,751,0,0,0
943540,943.54,-4227,5309,-4124,-408,-837,-204,0,0,0
944040,944.04,-4649,5633,-3686,169,1191,2583,0,0,0
944540,944.54,-4135,6176,-4332,154,338,1260,0,0,0
946040,946.04,-3415,4944,-3123,-674,-817,-891,0,0,0
948040,948.04,-3104,5615,-3343,-361,-127,-1114,0,0,0
948540,948.54,-3515,5023,-3871,-919,-1472,-1484,0,0,0
949540,949.54,-3426,5817,-4152,-324,207,580,0,0,0
950540,950.54,-3618,5726,-3969,366,384,52,0,0,0
951040,951.04,-3613,6097,-4119,253,175,-99,0,0,0
951540,951.54,-3444,6302,-4372,-98,444,246,0,0,0
953040,953.04,-3273,6707,-4480,596,658,1331,0,0,0
953540,953.54,-3042,5886,-3965,-329,-348,22,0,0,0
954040,954.04,-3108,5457,-3332,-328,-686,-928,0,0,0
956540,956.54,-3013,6799,-4191,260,475,856,0,0,0
959540,959.54,-3119,6591,-4330,-330,135,90,0,0,0
960540,960.54,-2813,5789,-4018,-133,-581,-889,0,0,0
