time_boot_ms,,press_abs,press_diff,temperature,temperature_c
514940,514.94,994.082702636719,1.10373345771153E-19,2928,29.28
515350,515.35,994.081909179688,1.10373345771153E-19,2930,29.3
515490,515.49,994.040100097656,1.10373345771153E-19,2929,29.29
515620,515.62,994.037780761719,1.10373345771153E-19,2930,29.3
515750,515.75,994.06494140625,1.10373345771153E-19,2930,29.3
515890,515.89,994.041931152344,1.10373345771153E-19,2931,29.31
516020,516.02,994.07958984375,1.10373345771153E-19,2931,29.31
516150,516.15,994.076904296875,1.10373345771153E-19,2931,29.31
516290,516.29,994.080688476562,1.10373345771153E-19,2932,29.32
516420,516.42,994.073181152344,1.10373345771153E-19,2931,29.31
516550,516.55,994.063720703125,1.10373345771153E-19,2932,29.32
516690,516.69,994.0810546875,1.10373345771153E-19,2932,29.32
516830,516.83,994.051208496094,1.10373345771153E-19,2932,29.32
516960,516.96,994.088562011719,1.10373345771153E-19,2932,29.32
517090,517.09,994.057678222656,1.10373345771153E-19,2932,29.32
517220,517.22,994.065185546875,1.10373345771153E-19,2933,29.33
517350,517.35,994.039123535156,1.10373345771153E-19,2933,29.33
517480,517.48,994.0625,1.10373345771153E-19,2933,29.33
517610,517.61,994.082824707031,1.10373345771153E-19,2933,29.33
517740,517.74,994.074462890625,1.10373345771153E-19,2934,29.34
517880,517.88,994.051086425781,1.10373345771153E-19,2935,29.35
518010,518.01,994.103088378906,1.10373345771153E-19,2935,29.35
518170,518.17,994.07861328125,1.10373345771153E-19,2935,29.35
518300,518.3,994.065368652344,1.10373345771153E-19,2935,29.35
518430,518.43,994.069152832031,1.10373345771153E-19,2935,29.35
518560,518.56,994.055969238281,1.10373345771153E-19,2936,29.36
518690,518.69,994.080078125,1.10373345771153E-19,2936,29.36
518820,518.82,994.062744140625,1.10373345771153E-19,2936,29.36
518960,518.96,994.052185058594,1.10373345771153E-19,2935,29.35
519090,519.09,994.042724609375,1.10373345771153E-19,2936,29.36
519220,519.22,994.033264160156,1.10373345771153E-19,2936,29.36
519350,519.35,994.057006835937,1.10373345771153E-19,2936,29.36
519490,519.49,994.0615234375,1.10373345771153E-19,2937,29.37
519620,519.62,994.081481933594,1.10373345771153E-19,2937,29.37
519750,519.75,994.027587890625,1.10373345771153E-19,2937,29.37
519880,519.88,994.083312988281,1.10373345771153E-19,2938,29.38
520010,520.01,994.065612792969,1.10373345771153E-19,2938,29.38
520140,520.14,994.046020507813,1.10373345771153E-19,2938,29.38
520290,520.29,994.07763671875,1.10373345771153E-19,2939,29.39
520430,520.43,994.094604492187,1.10373345771153E-19,2939,29.39
520560,520.56,994.050476074219,1.10373345771153E-19,2939,29.39
520690,520.69,994.041748046875,1.10373345771153E-19,2940,29.4
520830,520.83,994.06103515625,1.10373345771153E-19,2939,29.39
520960,520.96,994.051574707031,1.10373345771153E-19,2940,29.4
521090,521.09,994.050842285156,1.10373345771153E-19,2939,29.39
521220,521.22,994.065856933594,1.10373345771153E-19,2940,29.4
521360,521.36,994.020690917969,1.10373345771153E-19,2940,29.4
521490,521.49,994.062438964844,1.10373345771153E-19,2940,29.4
521620,521.62,994.080139160156,1.10373345771153E-19,2941,29.41
521750,521.75,994.086547851563,1.10373345771153E-19,2941,29.41
521880,521.88,994.059448242188,1.10373345771153E-19,2941,29.41
522010,522.01,994.097839355469,1.10373345771153E-19,2941,29.41
522150,522.15,994.068786621094,1.10373345771153E-19,2942,29.42
522290,522.29,994.060546875,1.10373345771153E-19,2941,29.41
522420,522.42,994.077819824219,1.10373345771153E-19,2942,29.42
522550,522.55,994.085021972656,1.10373345771153E-19,2942,29.42
522680,522.68,994.054443359375,1.10373345771153E-19,2942,29.42
522810,522.81,994.068786621094,1.10373345771153E-19,2942,29.42
522940,522.94,994.029113769531,1.10373345771153E-19,2943,29.43
523080,523.08,994.080017089844,1.10373345771153E-19,2943,29.43
523220,523.22,994.059692382812,1.10373345771153E-19,2943,29.43
523350,523.35,994.084167480469,1.10373345771153E-19,2944,29.44
523490,523.49,994.064514160156,1.10373345771153E-19,2944,29.44
523620,523.62,994.07470703125,1.10373345771153E-19,2944,29.44
523750,523.75,994.060729980469,1.10373345771153E-19,2944,29.44
523880,523.88,994.094665527344,1.10373345771153E-19,2944,29.44
524010,524.01,994.088256835938,1.10373345771153E-19,2944,29.44
524140,524.14,994.087890625,1.10373345771153E-19,2944,29.44
524290,524.29,994.050231933594,1.10373345771153E-19,2944,29.44
524420,524.42,994.090942382812,1.10373345771153E-19,2944,29.44
524550,524.55,994.086303710938,1.10373345771153E-19,2945,29.45
524680,524.68,994.04345703125,1.10373345771153E-19,2944,29.44
524820,524.82,994.092712402344,1.10373345771153E-19,2945,29.45
524960,524.96,994.046447753906,1.10373345771153E-19,2943,29.43
525090,525.09,994.073974609375,1.10373345771153E-19,2944,29.44
525220,525.22,994.048278808594,1.10373345771153E-19,2945,29.45
525350,525.35,994.058471679688,1.10373345771153E-19,2945,29.45
525500,525.5,994.011291503906,1.10373345771153E-19,2945,29.45
525630,525.63,994.007568359375,1.10373345771153E-19,2945,29.45
525770,525.77,994.052734375,1.10373345771153E-19,2945,29.45
525910,525.91,994.060974121094,1.10373345771153E-19,2946,29.46
526040,526.04,994.045959472656,1.10373345771153E-19,2945,29.45
526180,526.18,994.012756347656,1.10373345771153E-19,2946,29.46
526310,526.31,994.044738769531,1.10373345771153E-19,2947,29.47
526440,526.44,994.037231445313,1.10373345771153E-19,2946,29.46
526570,526.57,994.061706542969,1.10373345771153E-19,2947,29.47
526700,526.7,994.049194335937,1.10373345771153E-19,2948,29.48
526830,526.83,994.069946289063,1.10373345771153E-19,2948,29.48
526960,526.96,994.060119628906,1.10373345771153E-19,2948,29.48
527090,527.09,994.044616699219,1.10373345771153E-19,2949,29.49
527220,527.22,994.054382324219,1.10373345771153E-19,2949,29.49
527360,527.36,994.093200683594,1.10373345771153E-19,2950,29.5
527500,527.5,994.041564941406,1.10373345771153E-19,2949,29.49
527630,527.63,994.058166503906,1.10373345771153E-19,2949,29.49
527770,527.77,994.092102050781,1.10373345771153E-19,2949,29.49
527900,527.9,994.089050292969,1.10373345771153E-19,2949,29.49
528030,528.03,994.069091796875,1.10373345771153E-19,2950,29.5
528170,528.17,994.057800292969,1.10373345771153E-19,2949,29.49
528300,528.3,994.065673828125,1.10373345771153E-19,2950,29.5
528430,528.43,994.061584472656,1.10373345771153E-19,2949,29.49
528560,528.56,994.072082519531,1.10373345771153E-19,2949,29.49
528690,528.69,994.079956054688,1.10373345771153E-19,2950,29.5
528830,528.83,994.035522460938,1.10373345771153E-19,2950,29.5
528970,528.97,994.067504882812,1.10373345771153E-19,2951,29.51
529100,529.1,994.040344238281,1.10373345771153E-19,2951,29.51
529250,529.25,994.080688476562,1.10373345771153E-19,2951,29.51
529380,529.38,994.085510253906,1.10373345771153E-19,2952,29.52
529520,529.52,994.076049804688,1.10373345771153E-19,2952,29.52
529650,529.65,994.073425292969,1.10373345771153E-19,2953,29.53
529790,529.79,994.048950195313,1.10373345771153E-19,2952,29.52
530210,530.21,994.112182617188,1.10373345771153E-19,2954,29.54
530340,530.34,994.05712890625,1.10373345771153E-19,2953,29.53
530470,530.47,994.046997070313,1.10373345771153E-19,2953,29.53
530610,530.61,994.065002441406,1.10373345771153E-19,2954,29.54
530740,530.74,994.086120605469,1.10373345771153E-19,2954,29.54
530870,530.87,994.079650878906,1.10373345771153E-19,2955,29.55
531000,531,994.041625976563,1.10373345771153E-19,2954,29.54
531130,531.13,994.032531738281,1.10373345771153E-19,2955,29.55
531270,531.27,994.056640625,1.10373345771153E-19,2955,29.55
531400,531.4,994.029113769531,1.10373345771153E-19,2955,29.55
531540,531.54,994.035949707031,1.10373345771153E-19,2955,29.55
531910,531.91,994.043823242188,1.10373345771153E-19,2956,29.56
532040,532.04,994.030578613281,1.10373345771153E-19,2956,29.56
532170,532.17,994.044860839844,1.10373345771153E-19,2956,29.56
532300,532.3,994.033630371094,1.10373345771153E-19,2956,29.56
532430,532.43,994.059509277344,1.10373345771153E-19,2957,29.57
532560,532.56,994.049011230469,1.10373345771153E-19,2957,29.57
532690,532.69,994.049377441406,1.10373345771153E-19,2957,29.57
532820,532.82,994.040283203125,1.10373345771153E-19,2958,29.58
532950,532.95,994.082763671875,1.10373345771153E-19,2959,29.59
533110,533.11,994.072204589844,1.10373345771153E-19,2959,29.59
533240,533.24,994.072937011719,1.10373345771153E-19,2959,29.59
533390,533.39,994.058288574219,1.10373345771153E-19,2959,29.59
533520,533.52,994.072570800781,1.10373345771153E-19,2959,29.59
533650,533.65,994.043151855469,1.10373345771153E-19,2960,29.6
533780,533.78,994.045837402344,1.10373345771153E-19,2959,29.59
533910,533.91,994.022766113281,1.10373345771153E-19,2960,29.6
534040,534.04,994.040466308594,1.10373345771153E-19,2960,29.6
534170,534.17,994.064575195313,1.10373345771153E-19,2961,29.61
534310,534.31,994.087951660156,1.10373345771153E-19,2960,29.6
534450,534.45,994.047607421875,1.10373345771153E-19,2961,29.61
534580,534.58,994.047241210938,1.10373345771153E-19,2960,29.6
534710,534.71,994.036010742187,1.10373345771153E-19,2960,29.6
534840,534.84,994.050659179688,1.10373345771153E-19,2960,29.6
534970,534.97,994.016723632813,1.10373345771153E-19,2960,29.6
535100,535.1,994.057800292969,1.10373345771153E-19,2961,29.61
535240,535.24,994.034057617188,1.10373345771153E-19,2961,29.61
535390,535.39,994.046020507813,1.10373345771153E-19,2962,29.62
535520,535.52,994.084045410156,1.10373345771153E-19,2962,29.62
535650,535.65,994.029052734375,1.10373345771153E-19,2962,29.62
535790,535.79,994.052795410156,1.10373345771153E-19,2962,29.62
535930,535.93,994.047119140625,1.10373345771153E-19,2963,29.63
536070,536.07,994.065490722656,1.10373345771153E-19,2964,29.64
536200,536.2,994.076416015625,1.10373345771153E-19,2964,29.64
536330,536.33,994.038696289062,1.10373345771153E-19,2964,29.64
536460,536.46,994.055297851562,1.10373345771153E-19,2964,29.64
536590,536.59,994.025146484375,1.10373345771153E-19,2964,29.64
536720,536.72,994.031555175781,1.10373345771153E-19,2964,29.64
536880,536.88,994.080871582031,1.10373345771153E-19,2965,29.65
537010,537.01,994.035705566406,1.10373345771153E-19,2964,29.64
537150,537.15,994.0390625,1.10373345771153E-19,2964,29.64
537280,537.28,994.056030273438,1.10373345771153E-19,2964,29.64
537410,537.41,994.061218261719,1.10373345771153E-19,2966,29.66
537540,537.54,994.092468261719,1.10373345771153E-19,2966,29.66
537670,537.67,994.078552246094,1.10373345771153E-19,2966,29.66
537800,537.8,994.055541992188,1.10373345771153E-19,2966,29.66
537930,537.93,994.06982421875,1.10373345771153E-19,2967,29.67
538060,538.06,994.065368652344,1.10373345771153E-19,2966,29.66
538190,538.19,994.060363769531,1.10373345771153E-19,2967,29.67
538320,538.32,994.057312011719,1.10373345771153E-19,2968,29.68
538460,538.46,994.026428222656,1.10373345771153E-19,2967,29.67
538590,538.59,994.05126953125,1.10373345771153E-19,2968,29.68
538730,538.73,994.055358886719,1.10373345771153E-19,2969,29.69
538870,538.87,994.0458984375,1.10373345771153E-19,2969,29.69
539000,539,994.068603515625,1.10373345771153E-19,2968,29.68
539130,539.13,994.053405761719,1.10373345771153E-19,2970,29.7
539540,539.54,994.049987792969,1.10373345771153E-19,2970,29.7
539680,539.68,994.056457519531,1.10373345771153E-19,2969,29.69
539820,539.82,994.036071777344,1.10373345771153E-19,2969,29.69
539950,539.95,994.047302246094,1.10373345771153E-19,2970,29.7
540100,540.1,994.036804199219,1.10373345771153E-19,2970,29.7
540230,540.23,994.074829101563,1.10373345771153E-19,2970,29.7
540370,540.37,994.02392578125,1.10373345771153E-19,2970,29.7
540520,540.52,994.069152832031,1.10373345771153E-19,2971,29.71
540650,540.65,994.072875976562,1.10373345771153E-19,2971,29.71
540780,540.78,994.055541992188,1.10373345771153E-19,2971,29.71
540910,540.91,994.065734863281,1.10373345771153E-19,2971,29.71
541040,541.04,994.032531738281,1.10373345771153E-19,2972,29.72
541180,541.18,994.049865722656,1.10373345771153E-19,2972,29.72
541310,541.31,994.088623046875,1.10373345771153E-19,2973,29.73
541440,541.44,994.044860839844,1.10373345771153E-19,2973,29.73
541570,541.57,994.047546386719,1.10373345771153E-19,2973,29.73
541700,541.7,994.062866210938,1.10373345771153E-19,2974,29.74
541830,541.83,994.038391113281,1.10373345771153E-19,2973,29.73
541960,541.96,994.055725097656,1.10373345771153E-19,2974,29.74
542100,542.1,994.039123535156,1.10373345771153E-19,2974,29.74
542230,542.23,994.043273925781,1.10373345771153E-19,2974,29.74
542370,542.37,994.035766601563,1.10373345771153E-19,2974,29.74
542510,542.51,994.088439941406,1.10373345771153E-19,2975,29.75
542640,542.64,994.060913085938,1.10373345771153E-19,2975,29.75
542770,542.77,994.057556152344,1.10373345771153E-19,2975,29.75
542900,542.9,994.057922363281,1.10373345771153E-19,2975,29.75
543030,543.03,994.075927734375,1.10373345771153E-19,2976,29.76
543160,543.16,994.065063476563,1.10373345771153E-19,2975,29.75
543300,543.3,994.072204589844,1.10373345771153E-19,2976,29.76
543430,543.43,994.035217285156,1.10373345771153E-19,2976,29.76
543560,543.56,994.073608398437,1.10373345771153E-19,2977,29.77
543690,543.69,994.060424804687,1.10373345771153E-19,2977,29.77
543830,543.83,994.083435058594,1.10373345771153E-19,2976,29.76
543960,543.96,994.078063964844,1.10373345771153E-19,2977,29.77
544110,544.11,994.068298339844,1.10373345771153E-19,2978,29.78
544240,544.24,994.062194824219,1.10373345771153E-19,2978,29.78
544400,544.4,994.1005859375,1.10373345771153E-19,2979,29.79
544530,544.53,994.066650390625,1.10373345771153E-19,2979,29.79
544670,544.67,994.080627441406,1.10373345771153E-19,2979,29.79
544810,544.81,994.051147460938,1.10373345771153E-19,2980,29.8
544940,544.94,994.060974121094,1.10373345771153E-19,2980,29.8
545070,545.07,994.070434570313,1.10373345771153E-19,2979,29.79
545210,545.21,994.065063476563,1.10373345771153E-19,2980,29.8
545340,545.34,994.026306152344,1.10373345771153E-19,2979,29.79
545480,545.48,994.084716796875,1.10373345771153E-19,2980,29.8
545610,545.61,994.04736328125,1.10373345771153E-19,2980,29.8
545740,545.74,994.085815429687,1.10373345771153E-19,2980,29.8
545890,545.89,994.07861328125,1.10373345771153E-19,2980,29.8
546020,546.02,994.021301269531,1.10373345771153E-19,2980,29.8
546150,546.15,994.018249511719,1.10373345771153E-19,2981,29.81
546280,546.28,994.049499511719,1.10373345771153E-19,2981,29.81
546410,546.41,994.056335449219,1.10373345771153E-19,2981,29.81
546550,546.55,994.070251464844,1.10373345771153E-19,2981,29.81
546680,546.68,994.043090820312,1.10373345771153E-19,2981,29.81
546810,546.81,994.042358398437,1.10373345771153E-19,2981,29.81
546940,546.94,994.039672851562,1.10373345771153E-19,2981,29.81
547070,547.07,993.998046875,1.10373345771153E-19,2978,29.78
547200,547.2,994.061157226563,1.10373345771153E-19,2982,29.82
547340,547.34,994.0380859375,1.10373345771153E-19,2983,29.83
547470,547.47,994.027526855469,1.10373345771153E-19,2982,29.82
547600,547.6,994.044494628906,1.10373345771153E-19,2982,29.82
547730,547.73,994.055419921875,1.10373345771153E-19,2983,29.83
547910,547.91,994.013977050781,1.10373345771153E-19,2982,29.82
548040,548.04,994.030944824219,1.10373345771153E-19,2982,29.82
548180,548.18,994.048278808594,1.10373345771153E-19,2983,29.83
548310,548.31,994.069702148438,1.10373345771153E-19,2983,29.83
548440,548.44,994.062194824219,1.10373345771153E-19,2983,29.83
548580,548.58,994.045227050781,1.10373345771153E-19,2983,29.83
548710,548.71,994.055786132813,1.10373345771153E-19,2983,29.83
548840,548.84,994.090087890625,1.10373345771153E-19,2983,29.83
548980,548.98,994.039855957031,1.10373345771153E-19,2984,29.84
549110,549.11,994.053466796875,1.10373345771153E-19,2984,29.84
549250,549.25,994.054870605469,1.10373345771153E-19,2985,29.85
549400,549.4,994.064697265625,1.10373345771153E-19,2985,29.85
549530,549.53,994.037536621094,1.10373345771153E-19,2985,29.85
549660,549.66,994.013061523438,1.10373345771153E-19,2984,29.84
549790,549.79,994.010375976563,1.10373345771153E-19,2985,29.85
549920,549.92,994.06201171875,1.10373345771153E-19,2985,29.85
550050,550.05,994.051818847656,1.10373345771153E-19,2985,29.85
550180,550.18,994.061340332031,1.10373345771153E-19,2985,29.85
550310,550.31,994.0419921875,1.10373345771153E-19,2985,29.85
550440,550.44,994.04541015625,1.10373345771153E-19,2985,29.85
550580,550.58,994.025756835937,1.10373345771153E-19,2986,29.86
550720,550.72,994.056335449219,1.10373345771153E-19,2986,29.86
550850,550.85,994.033264160156,1.10373345771153E-19,2986,29.86
550980,550.98,994.047180175781,1.10373345771153E-19,2987,29.87
551110,551.11,994.001647949219,1.10373345771153E-19,2986,29.86
551240,551.24,994.016662597656,1.10373345771153E-19,2987,29.87
551390,551.39,994.013244628906,1.10373345771153E-19,2987,29.87
551540,551.54,994.026489257812,1.10373345771153E-19,2986,29.86
551670,551.67,994.016662597656,1.10373345771153E-19,2987,29.87
551800,551.8,994.04150390625,1.10373345771153E-19,2987,29.87
551940,551.94,994.000366210937,1.10373345771153E-19,2987,29.87
552070,552.07,994.037353515625,1.10373345771153E-19,2987,29.87
552200,552.2,994.075805664063,1.10373345771153E-19,2988,29.88
552330,552.33,994.027893066406,1.10373345771153E-19,2987,29.87
552460,552.46,994.031311035156,1.10373345771153E-19,2987,29.87
552590,552.59,994.0146484375,1.10373345771153E-19,2988,29.88
552720,552.72,994.025207519531,1.10373345771153E-19,2988,29.88
552870,552.87,994.032348632813,1.10373345771153E-19,2988,29.88
553000,553,994.03076171875,1.10373345771153E-19,2989,29.89
553130,553.13,993.999145507813,1.10373345771153E-19,2989,29.89
553270,553.27,994.023620605469,1.10373345771153E-19,2989,29.89
553400,553.4,994.004333496094,1.10373345771153E-19,2990,29.9
553530,553.53,994.032531738281,1.10373345771153E-19,2991,29.91
553660,553.66,993.97265625,1.10373345771153E-19,2989,29.89
553790,553.79,994.06005859375,1.10373345771153E-19,2991,29.91
553920,553.92,994.015197753906,1.10373345771153E-19,2990,29.9
554060,554.06,994.06005859375,1.10373345771153E-19,2991,29.91
554190,554.19,994.047180175781,1.10373345771153E-19,2991,29.91
554320,554.32,994.046142578125,1.10373345771153E-19,2991,29.91
554450,554.45,994.043823242188,1.10373345771153E-19,2991,29.91
554590,554.59,994.061462402344,1.10373345771153E-19,2992,29.92
554720,554.72,994.054321289062,1.10373345771153E-19,2992,29.92
554850,554.85,994.04345703125,1.10373345771153E-19,2991,29.91
554980,554.98,994.067932128906,1.10373345771153E-19,2992,29.92
555110,555.11,994.046813964844,1.10373345771153E-19,2991,29.91
555260,555.26,994.075073242188,1.10373345771153E-19,2992,29.92
555390,555.39,994.061462402344,1.10373345771153E-19,2992,29.92
555520,555.52,994.057739257813,1.10373345771153E-19,2992,29.92
555650,555.65,994.064514160156,1.10373345771153E-19,2992,29.92
555780,555.78,994.058776855469,1.10373345771153E-19,2993,29.93
555920,555.92,994.063598632813,1.10373345771153E-19,2994,29.94
556050,556.05,994.063293457031,1.10373345771153E-19,2993,29.93
556180,556.18,994.073425292969,1.10373345771153E-19,2993,29.93
556310,556.31,994.078247070313,1.10373345771153E-19,2994,29.94
556440,556.44,994.064697265625,1.10373345771153E-19,2994,29.94
556570,556.57,994.091857910156,1.10373345771153E-19,2994,29.94
556700,556.7,994.091857910156,1.10373345771153E-19,2994,29.94
556830,556.83,994.068115234375,1.10373345771153E-19,2994,29.94
556970,556.97,994.05859375,1.10373345771153E-19,2995,29.95
557100,557.1,994.055908203125,1.10373345771153E-19,2995,29.95
557240,557.24,994.062744140625,1.10373345771153E-19,2995,29.95
557390,557.39,994.058959960938,1.10373345771153E-19,2995,29.95
557520,557.52,994.055603027344,1.10373345771153E-19,2995,29.95
557650,557.65,994.07666015625,1.10373345771153E-19,2996,29.96
557780,557.78,994.051452636719,1.10373345771153E-19,2995,29.95
557910,557.91,994.048400878906,1.10373345771153E-19,2995,29.95
558040,558.04,994.007690429688,1.10373345771153E-19,2995,29.95
558170,558.17,994.052551269531,1.10373345771153E-19,2995,29.95
558300,558.3,994.045715332031,1.10373345771153E-19,2995,29.95
558430,558.43,994.0400390625,1.10373345771153E-19,2996,29.96
558570,558.57,994.036254882812,1.10373345771153E-19,2996,29.96
558710,558.71,994.057006835937,1.10373345771153E-19,2996,29.96
558840,558.84,994.040710449219,1.10373345771153E-19,2997,29.97
558970,558.97,994.058044433594,1.10373345771153E-19,2997,29.97
559100,559.1,994.050903320312,1.10373345771153E-19,2997,29.97
559230,559.23,994.030883789062,1.10373345771153E-19,2997,29.97
559370,559.37,994.062194824219,1.10373345771153E-19,2997,29.97
559500,559.5,994.049987792969,1.10373345771153E-19,2998,29.98
559630,559.63,994.046264648438,1.10373345771153E-19,2998,29.98
559760,559.76,994.02587890625,1.10373345771153E-19,2998,29.98
559900,559.9,994.057189941406,1.10373345771153E-19,2999,29.99
560030,560.03,994.0439453125,1.10373345771153E-19,2999,29.99
560160,560.16,994.041625976563,1.10373345771153E-19,3000,30
560290,560.29,994.048400878906,1.10373345771153E-19,3000,30
560420,560.42,994.063049316406,1.10373345771153E-19,3000,30
560550,560.55,994.042663574219,1.10373345771153E-19,3000,30
560680,560.68,994.052856445313,1.10373345771153E-19,3000,30
560810,560.81,994.063415527344,1.10373345771153E-19,3001,30.01
560940,560.94,994.03662109375,1.10373345771153E-19,3001,30.01
561070,561.07,994.057678222656,1.10373345771153E-19,3001,30.01
561220,561.22,994.058044433594,1.10373345771153E-19,3002,30.02
561350,561.35,994.077331542969,1.10373345771153E-19,3001,30.01
561480,561.48,994.0478515625,1.10373345771153E-19,3002,30.02
561610,561.61,994.038391113281,1.10373345771153E-19,3002,30.02
561740,561.74,994.03125,1.10373345771153E-19,3002,30.02
561890,561.89,994.045532226563,1.10373345771153E-19,3002,30.02
562020,562.02,994.028869628906,1.10373345771153E-19,3003,30.03
562150,562.15,994.008850097656,1.10373345771153E-19,3003,30.03
562280,562.28,994.060180664063,1.10373345771153E-19,3003,30.03
562410,562.41,994.064636230469,1.10373345771153E-19,3004,30.04
562570,562.57,994.04833984375,1.10373345771153E-19,3004,30.04
562700,562.7,994.0205078125,1.10373345771153E-19,3004,30.04
562830,562.83,994.031005859375,1.10373345771153E-19,3004,30.04
562960,562.96,994.014404296875,1.10373345771153E-19,3004,30.04
563090,563.09,994.024963378906,1.10373345771153E-19,3005,30.05
563220,563.22,994.072143554688,1.10373345771153E-19,3004,30.04
563370,563.37,994.031005859375,1.10373345771153E-19,3004,30.04
563500,563.5,994.046020507813,1.10373345771153E-19,3005,30.05
563630,563.63,994.018127441406,1.10373345771153E-19,3005,30.05
563760,563.76,994.01513671875,1.10373345771153E-19,3005,30.05
563900,563.9,994.011352539063,1.10373345771153E-19,3005,30.05
564030,564.03,994.03515625,1.10373345771153E-19,3005,30.05
564160,564.16,994.027648925781,1.10373345771153E-19,3004,30.04
564290,564.29,994.042663574219,1.10373345771153E-19,3005,30.05
564420,564.42,994.0498046875,1.10373345771153E-19,3005,30.05
564550,564.55,994.081787109375,1.10373345771153E-19,3006,30.06
564680,564.68,994.033508300781,1.10373345771153E-19,3006,30.06
564810,564.81,994.046752929688,1.10373345771153E-19,3006,30.06
564940,564.94,994.005981445313,1.10373345771153E-19,3006,30.06
565070,565.07,994.033874511719,1.10373345771153E-19,3006,30.06
565210,565.21,994.041381835937,1.10373345771153E-19,3007,30.07
565350,565.35,994.031921386719,1.10373345771153E-19,3007,30.07
565480,565.48,994.0322265625,1.10373345771153E-19,3007,30.07
565610,565.61,994.042785644531,1.10373345771153E-19,3008,30.08
565740,565.74,994.049926757813,1.10373345771153E-19,3008,30.08
565890,565.89,994.0703125,1.10373345771153E-19,3008,30.08
566020,566.02,994.042419433594,1.10373345771153E-19,3007,30.07
566150,566.15,994.043151855469,1.10373345771153E-19,3008,30.08
566300,566.3,994.043884277344,1.10373345771153E-19,3008,30.08
566430,566.43,994.047607421875,1.10373345771153E-19,3009,30.09
566570,566.57,994.051330566406,1.10373345771153E-19,3009,30.09
566700,566.7,994.044555664063,1.10373345771153E-19,3009,30.09
566830,566.83,994.044921875,1.10373345771153E-19,3009,30.09
566960,566.96,994.021118164063,1.10373345771153E-19,3009,30.09
567090,567.09,993.990234375,1.10373345771153E-19,3009,30.09
567220,567.22,994.007202148438,1.10373345771153E-19,3009,30.09
567350,567.35,994.025939941406,1.10373345771153E-19,3010,30.1
567480,567.48,994.032409667969,1.10373345771153E-19,3010,30.1
567610,567.61,994.032043457031,1.10373345771153E-19,3010,30.1
567740,567.74,994.032775878906,1.10373345771153E-19,3010,30.1
567910,567.91,994.040954589844,1.10373345771153E-19,3011,30.11
568040,568.04,994.023254394531,1.10373345771153E-19,3011,30.11
568170,568.17,994.068115234375,1.10373345771153E-19,3011,30.11
568300,568.3,994.027404785156,1.10373345771153E-19,3011,30.11
568430,568.43,994.05078125,1.10373345771153E-19,3011,30.11
568570,568.57,994.031494140625,1.10373345771153E-19,3012,30.12
568700,568.7,994.065063476563,1.10373345771153E-19,3011,30.11
568830,568.83,994.0107421875,1.10373345771153E-19,3011,30.11
568960,568.96,994.072265625,1.10373345771153E-19,3012,30.12
569090,569.09,994.042358398437,1.10373345771153E-19,3012,30.12
569230,569.23,994.042724609375,1.10373345771153E-19,3012,30.12
569370,569.37,994.05224609375,1.10373345771153E-19,3012,30.12
569510,569.51,994.052917480469,1.10373345771153E-19,3012,30.12
569640,569.64,994.027709960938,1.10373345771153E-19,3011,30.11
569770,569.77,994.057922363281,1.10373345771153E-19,3011,30.11
569910,569.91,994.068481445312,1.10373345771153E-19,3011,30.11
570040,570.04,994.099426269531,1.10373345771153E-19,3012,30.12
570170,570.17,994.021667480469,1.10373345771153E-19,3012,30.12
570300,570.3,994.055969238281,1.10373345771153E-19,3012,30.12
570440,570.44,994.029174804687,1.10373345771153E-19,3012,30.12
570580,570.58,994.018615722656,1.10373345771153E-19,3012,30.12
570710,570.71,994.022033691406,1.10373345771153E-19,3012,30.12
570840,570.84,994.047546386719,1.10373345771153E-19,3013,30.13
570970,570.97,994.050598144531,1.10373345771153E-19,3013,30.13
571100,571.1,994.030212402344,1.10373345771153E-19,3013,30.13
571230,571.23,994.040405273437,1.10373345771153E-19,3013,30.13
571370,571.37,994.006774902344,1.10373345771153E-19,3013,30.13
571500,571.5,994.036315917969,1.10373345771153E-19,3013,30.13
571630,571.63,994.01123046875,1.10373345771153E-19,3014,30.14
571760,571.76,994.017700195312,1.10373345771153E-19,3014,30.14
571900,571.9,994.010559082031,1.10373345771153E-19,3014,30.14
572030,572.03,994.027893066406,1.10373345771153E-19,3014,30.14
572160,572.16,994.041809082031,1.10373345771153E-19,3014,30.14
572290,572.29,994.072021484375,1.10373345771153E-19,3014,30.14
572420,572.42,994.062927246094,1.10373345771153E-19,3015,30.15
572560,572.56,994.042541503906,1.10373345771153E-19,3015,30.15
572690,572.69,994.04931640625,1.10373345771153E-19,3015,30.15
572820,572.82,994.043212890625,1.10373345771153E-19,3015,30.15
572950,572.95,994.052734375,1.10373345771153E-19,3015,30.15
573080,573.08,994.053405761719,1.10373345771153E-19,3015,30.15
573220,573.22,994.026611328125,1.10373345771153E-19,3015,30.15
573350,573.35,994.037475585938,1.10373345771153E-19,3016,30.16
573500,573.5,994.054138183594,1.10373345771153E-19,3016,30.16
573630,573.63,994.040222167969,1.10373345771153E-19,3015,30.15
573770,573.77,994.023559570313,1.10373345771153E-19,3016,30.16
573900,573.9,994.020141601563,1.10373345771153E-19,3016,30.16
574030,574.03,994.040222167969,1.10373345771153E-19,3015,30.15
574160,574.16,994.031433105469,1.10373345771153E-19,3016,30.16
574290,574.29,994.041625976563,1.10373345771153E-19,3016,30.16
574420,574.42,994.007629394531,1.10373345771153E-19,3016,30.16
574560,574.56,994.010009765625,1.10373345771153E-19,3016,30.16
574690,574.69,994.006958007813,1.10373345771153E-19,3016,30.16
574820,574.82,994.004272460938,1.10373345771153E-19,3016,30.16
574960,574.96,994.027648925781,1.10373345771153E-19,3016,30.16
575090,575.09,993.98388671875,1.10373345771153E-19,3016,30.16
575220,575.22,993.962646484375,1.10373345771153E-19,3013,30.13
575350,575.35,994.049133300781,1.10373345771153E-19,3017,30.17
575480,575.48,994.017150878906,1.10373345771153E-19,3016,30.16
575610,575.61,994.002807617188,1.10373345771153E-19,3015,30.15
575740,575.74,994.037841796875,1.10373345771153E-19,3016,30.16
575900,575.9,994.010009765625,1.10373345771153E-19,3016,30.16
576030,576.03,994.027648925781,1.10373345771153E-19,3016,30.16
576160,576.16,994.031799316406,1.10373345771153E-19,3017,30.17
576290,576.29,993.996398925781,1.10373345771153E-19,3016,30.16
576420,576.42,993.997436523438,1.10373345771153E-19,3016,30.16
576550,576.55,994.021240234375,1.10373345771153E-19,3016,30.16
576680,576.68,994.010314941406,1.10373345771153E-19,3016,30.16
576810,576.81,994.031433105469,1.10373345771153E-19,3016,30.16
576940,576.94,994.014770507813,1.10373345771153E-19,3017,30.17
577100,577.1,994.024963378906,1.10373345771153E-19,3017,30.17
577250,577.25,994.045715332031,1.10373345771153E-19,3017,30.17
577390,577.39,994.0205078125,1.10373345771153E-19,3016,30.16
577520,577.52,994.028015136719,1.10373345771153E-19,3016,30.16
577650,577.65,994.040893554688,1.10373345771153E-19,3016,30.16
577780,577.78,994.034118652344,1.10373345771153E-19,3016,30.16
577920,577.92,994.016784667969,1.10373345771153E-19,3016,30.16
578050,578.05,994.031433105469,1.10373345771153E-19,3016,30.16
578180,578.18,994.037841796875,1.10373345771153E-19,3016,30.16
578310,578.31,994.044677734375,1.10373345771153E-19,3016,30.16
578440,578.44,993.999816894531,1.10373345771153E-19,3016,30.16
578580,578.58,994.023193359375,1.10373345771153E-19,3015,30.15
578710,578.71,994.050720214844,1.10373345771153E-19,3016,30.16
578840,578.84,994.033020019531,1.10373345771153E-19,3015,30.15
578970,578.97,994.020141601563,1.10373345771153E-19,3016,30.16
579100,579.1,994.035034179688,1.10373345771153E-19,3014,30.14
579230,579.23,994.028564453125,1.10373345771153E-19,3014,30.14
579370,579.37,994.036071777344,1.10373345771153E-19,3015,30.15
579510,579.51,994.026245117188,1.10373345771153E-19,3015,30.15
579650,579.65,994.022521972656,1.10373345771153E-19,3015,30.15
579780,579.78,994.061279296875,1.10373345771153E-19,3016,30.16
579920,579.92,994.026611328125,1.10373345771153E-19,3015,30.15
580050,580.05,994.029113769531,1.10373345771153E-19,3017,30.17
580180,580.18,994.055541992188,1.10373345771153E-19,3017,30.17
580310,580.31,994.026062011719,1.10373345771153E-19,3017,30.17
580450,580.45,994.040344238281,1.10373345771153E-19,3018,30.18
580580,580.58,994.064086914062,1.10373345771153E-19,3018,30.18
580710,580.71,994.029113769531,1.10373345771153E-19,3017,30.17
581580,581.58,994.050903320312,1.10373345771153E-19,3018,30.18
581710,581.71,994.041748046875,1.10373345771153E-19,3019,30.19
581850,581.85,994.060119628906,1.10373345771153E-19,3020,30.2
581980,581.98,994.045471191406,1.10373345771153E-19,3019,30.19
582110,582.11,994.036010742187,1.10373345771153E-19,3020,30.2
582250,582.25,994.064270019531,1.10373345771153E-19,3021,30.21
582390,582.39,994.049987792969,1.10373345771153E-19,3020,30.2
582520,582.52,994.056762695313,1.10373345771153E-19,3020,30.2
582660,582.66,994.046203613281,1.10373345771153E-19,3020,30.2
582790,582.79,994.05029296875,1.10373345771153E-19,3020,30.2
582920,582.92,994.056030273438,1.10373345771153E-19,3020,30.2
583050,583.05,994.047973632813,1.10373345771153E-19,3021,30.21
583190,583.19,994.027221679688,1.10373345771153E-19,3021,30.21
583320,583.32,994.03369140625,1.10373345771153E-19,3021,30.21
583450,583.45,994.047241210938,1.10373345771153E-19,3021,30.21
583580,583.58,994.036010742187,1.10373345771153E-19,3020,30.2
583710,583.71,994.030639648438,1.10373345771153E-19,3021,30.21
583840,583.84,994.013305664063,1.10373345771153E-19,3021,30.21
583990,583.99,994.053344726563,1.10373345771153E-19,3020,30.2
584120,584.12,994.049621582031,1.10373345771153E-19,3020,30.2
584250,584.25,994.070678710938,1.10373345771153E-19,3020,30.2
584410,584.41,994.0556640625,1.10373345771153E-19,3019,30.19
584540,584.54,994.051940917969,1.10373345771153E-19,3019,30.19
584670,584.67,994.0625,1.10373345771153E-19,3019,30.19
584800,584.8,994.038330078125,1.10373345771153E-19,3019,30.19
584930,584.93,994.00439453125,1.10373345771153E-19,3019,30.19
585060,585.06,994.045471191406,1.10373345771153E-19,3019,30.19
585190,585.19,994.029602050781,1.10373345771153E-19,3020,30.2
585330,585.33,994.022094726562,1.10373345771153E-19,3020,30.2
585460,585.46,994.013305664063,1.10373345771153E-19,3021,30.21
585590,585.59,994.042236328125,1.10373345771153E-19,3022,30.22
585730,585.73,994.026916503906,1.10373345771153E-19,3021,30.21
585870,585.87,994.031005859375,1.10373345771153E-19,3021,30.21
586000,586,994.051025390625,1.10373345771153E-19,3021,30.21
586130,586.13,994.037780761719,1.10373345771153E-19,3021,30.21
586260,586.26,994.032043457031,1.10373345771153E-19,3022,30.22
586400,586.4,994.022583007813,1.10373345771153E-19,3022,30.22
586770,586.77,994.036865234375,1.10373345771153E-19,3023,30.23
586910,586.91,994.023986816406,1.10373345771153E-19,3023,30.23
587040,587.04,994.03076171875,1.10373345771153E-19,3023,30.23
587170,587.17,994.040954589844,1.10373345771153E-19,3023,30.23
587300,587.3,994.013427734375,1.10373345771153E-19,3023,30.23
587430,587.43,994.022338867188,1.10373345771153E-19,3025,30.25
587570,587.57,994.052917480469,1.10373345771153E-19,3025,30.25
587700,587.7,994.049194335937,1.10373345771153E-19,3024,30.24
587830,587.83,994.050231933594,1.10373345771153E-19,3025,30.25
587960,587.96,994.067199707031,1.10373345771153E-19,3025,30.25
588090,588.09,994.022705078125,1.10373345771153E-19,3025,30.25
588230,588.23,994.057373046875,1.10373345771153E-19,3025,30.25
588380,588.38,994.020385742187,1.10373345771153E-19,3026,30.26
588510,588.51,994.0234375,1.10373345771153E-19,3025,30.25
588640,588.64,994.037719726563,1.10373345771153E-19,3026,30.26
588780,588.78,994.04931640625,1.10373345771153E-19,3027,30.27
588910,588.91,994.044860839844,1.10373345771153E-19,3026,30.26
589040,589.04,994.055419921875,1.10373345771153E-19,3026,30.26
589170,589.17,994.040771484375,1.10373345771153E-19,3026,30.26
589300,589.3,994.052368164063,1.10373345771153E-19,3027,30.27
589430,589.43,994.0693359375,1.10373345771153E-19,3027,30.27
589580,589.58,994.038757324219,1.10373345771153E-19,3027,30.27
589710,589.71,994.04931640625,1.10373345771153E-19,3027,30.27
589840,589.84,994.050354003906,1.10373345771153E-19,3028,30.28
589970,589.97,994.053039550781,1.10373345771153E-19,3027,30.27
590100,590.1,994.060546875,1.10373345771153E-19,3028,30.28
590230,590.23,994.050720214844,1.10373345771153E-19,3028,30.28
590360,590.36,994.0205078125,1.10373345771153E-19,3028,30.28
590490,590.49,994.0439453125,1.10373345771153E-19,3028,30.28
590620,590.62,994.037109375,1.10373345771153E-19,3028,30.28
590760,590.76,994.050354003906,1.10373345771153E-19,3028,30.28
590900,590.9,994.009948730469,1.10373345771153E-19,3028,30.28
591030,591.03,994.054443359375,1.10373345771153E-19,3028,30.28
591160,591.16,994.052490234375,1.10373345771153E-19,3029,30.29
591300,591.3,994.042297363281,1.10373345771153E-19,3029,30.29
591430,591.43,994.021179199219,1.10373345771153E-19,3029,30.29
591570,591.57,994.027648925781,1.10373345771153E-19,3028,30.28
591700,591.7,994.049438476563,1.10373345771153E-19,3029,30.29
591830,591.83,994.02978515625,1.10373345771153E-19,3030,30.3
591990,591.99,994.036560058594,1.10373345771153E-19,3030,30.3
592120,592.12,994.030090332031,1.10373345771153E-19,3030,30.3
592260,592.26,994.040283203125,1.10373345771153E-19,3030,30.3
592390,592.39,994.033508300781,1.10373345771153E-19,3030,30.3
592520,592.52,994.054260253906,1.10373345771153E-19,3030,30.3
592650,592.65,994.03759765625,1.10373345771153E-19,3031,30.31
592790,592.79,994.06103515625,1.10373345771153E-19,3030,30.3
592920,592.92,994.062072753906,1.10373345771153E-19,3031,30.31
593050,593.05,994.037231445313,1.10373345771153E-19,3030,30.3
593180,593.18,994.078002929687,1.10373345771153E-19,3030,30.3
593320,593.32,994.061767578125,1.10373345771153E-19,3031,30.31
593450,593.45,994.031860351562,1.10373345771153E-19,3031,30.31
593600,593.6,994.056030273438,1.10373345771153E-19,3032,30.32
593730,593.73,994.011840820312,1.10373345771153E-19,3032,30.32
593860,593.86,994.05029296875,1.10373345771153E-19,3032,30.32
593990,593.99,994.032897949219,1.10373345771153E-19,3032,30.32
594120,594.12,994.026489257812,1.10373345771153E-19,3032,30.32
594250,594.25,994.019348144531,1.10373345771153E-19,3032,30.32
594380,594.38,994.006103515625,1.10373345771153E-19,3032,30.32
594510,594.51,994.016662597656,1.10373345771153E-19,3033,30.33
594640,594.64,994.051696777344,1.10373345771153E-19,3033,30.33
594770,594.77,994.040405273437,1.10373345771153E-19,3033,30.33
594910,594.91,994.023803710937,1.10373345771153E-19,3033,30.33
595050,595.05,994.020751953125,1.10373345771153E-19,3033,30.33
595180,595.18,994.033996582031,1.10373345771153E-19,3033,30.33
595320,595.32,994.051330566406,1.10373345771153E-19,3033,30.33
595450,595.45,994.020751953125,1.10373345771153E-19,3033,30.33
595610,595.61,994.004089355469,1.10373345771153E-19,3033,30.33
595740,595.74,994.066345214844,1.10373345771153E-19,3034,30.34
595870,595.87,994.067016601563,1.10373345771153E-19,3035,30.35
596010,596.01,994.031982421875,1.10373345771153E-19,3034,30.34
596140,596.14,994.080993652344,1.10373345771153E-19,3035,30.35
596280,596.28,994.045593261719,1.10373345771153E-19,3034,30.34
596410,596.41,994.039123535156,1.10373345771153E-19,3034,30.34
596540,596.54,994.08203125,1.10373345771153E-19,3036,30.36
596670,596.67,994.073791503906,1.10373345771153E-19,3035,30.35
596800,596.8,994.064331054688,1.10373345771153E-19,3035,30.35
596930,596.93,994.060913085938,1.10373345771153E-19,3035,30.35
597070,597.07,994.026977539063,1.10373345771153E-19,3035,30.35
597200,597.2,994.054504394531,1.10373345771153E-19,3035,30.35
597330,597.33,994.044311523438,1.10373345771153E-19,3035,30.35
597460,597.46,994.051452636719,1.10373345771153E-19,3036,30.36
597600,597.6,994.067749023438,1.10373345771153E-19,3035,30.35
597730,597.73,994.030700683594,1.10373345771153E-19,3035,30.35
597870,597.87,994.027282714844,1.10373345771153E-19,3035,30.35
598000,598,994.031433105469,1.10373345771153E-19,3036,30.36
598130,598.13,994.031066894531,1.10373345771153E-19,3036,30.36
598260,598.26,994.044677734375,1.10373345771153E-19,3036,30.36
598390,598.39,994.032104492188,1.10373345771153E-19,3036,30.36
598520,598.52,994.014770507813,1.10373345771153E-19,3036,30.36
598650,598.65,994.01513671875,1.10373345771153E-19,3036,30.36
598780,598.78,994.0498046875,1.10373345771153E-19,3037,30.37
598920,598.92,994.005615234375,1.10373345771153E-19,3037,30.37
599050,599.05,994.030151367187,1.10373345771153E-19,3037,30.37
599210,599.21,994.04638671875,1.10373345771153E-19,3037,30.37
599340,599.34,994.033874511719,1.10373345771153E-19,3038,30.38
599470,599.47,994.044067382812,1.10373345771153E-19,3038,30.38
599600,599.6,994.07568359375,1.10373345771153E-19,3038,30.38
599730,599.73,994.080139160156,1.10373345771153E-19,3039,30.39
599860,599.86,994.034912109375,1.10373345771153E-19,3038,30.38
599990,599.99,994.039001464844,1.10373345771153E-19,3039,30.39
600180,600.18,994.039367675781,1.10373345771153E-19,3039,30.39
600320,600.32,994.077819824219,1.10373345771153E-19,3040,30.4
600450,600.45,994.015625,1.10373345771153E-19,3039,30.39
600590,600.59,994.025817871094,1.10373345771153E-19,3039,30.39
600730,600.73,994.022033691406,1.10373345771153E-19,3039,30.39
600860,600.86,993.98876953125,1.10373345771153E-19,3039,30.39
600990,600.99,994.020385742187,1.10373345771153E-19,3040,30.4
601190,601.19,994.018981933594,1.10373345771153E-19,3039,30.39
601320,601.32,994.037414550781,1.10373345771153E-19,3040,30.4
601460,601.46,994.017028808594,1.10373345771153E-19,3040,30.4
601590,601.59,994.010192871094,1.10373345771153E-19,3040,30.4
601730,601.73,994.058837890625,1.10373345771153E-19,3041,30.41
601860,601.86,994.045227050781,1.10373345771153E-19,3041,30.41
601990,601.99,994.045593261719,1.10373345771153E-19,3041,30.41
602190,602.19,994.059875488281,1.10373345771153E-19,3042,30.42
602320,602.32,994.062927246094,1.10373345771153E-19,3041,30.41
602450,602.45,994.029296875,1.10373345771153E-19,3042,30.42
602600,602.6,994.023559570313,1.10373345771153E-19,3042,30.42
602730,602.73,994.029296875,1.10373345771153E-19,3042,30.42
602860,602.86,994.026977539063,1.10373345771153E-19,3042,30.42
603010,603.01,994.006591796875,1.10373345771153E-19,3042,30.42
603150,603.15,994.04736328125,1.10373345771153E-19,3042,30.42
603280,603.28,994.027648925781,1.10373345771153E-19,3043,30.43
603410,603.41,993.925720214844,1.10373345771153E-19,3036,30.36
603540,603.54,994.05517578125,1.10373345771153E-19,3043,30.43
603670,603.67,994.0205078125,1.10373345771153E-19,3043,30.43
603800,603.8,994.031433105469,1.10373345771153E-19,3043,30.43
603930,603.93,994.05322265625,1.10373345771153E-19,3044,30.44
604070,604.07,994.042663574219,1.10373345771153E-19,3044,30.44
604200,604.2,994.025634765625,1.10373345771153E-19,3044,30.44
604330,604.33,994.030090332031,1.10373345771153E-19,3045,30.45
604470,604.47,994.027038574219,1.10373345771153E-19,3045,30.45
604600,604.6,994.027404785156,1.10373345771153E-19,3045,30.45
604730,604.73,994.024047851562,1.10373345771153E-19,3045,30.45
604870,604.87,993.977172851563,1.10373345771153E-19,3046,30.46
605000,605,994.0791015625,1.10373345771153E-19,3046,30.46
605130,605.13,994.024719238281,1.10373345771153E-19,3046,30.46
605260,605.26,994.046142578125,1.10373345771153E-19,3047,30.47
605390,605.39,994.002014160156,1.10373345771153E-19,3047,30.47
605530,605.53,994.053283691406,1.10373345771153E-19,3047,30.47
605670,605.67,994.018615722656,1.10373345771153E-19,3046,30.46
605810,605.81,994.022399902344,1.10373345771153E-19,3047,30.47
605940,605.94,993.995910644531,1.10373345771153E-19,3047,30.47
606090,606.09,994.018615722656,1.10373345771153E-19,3046,30.46
606220,606.22,993.992858886719,1.10373345771153E-19,3047,30.47
606350,606.35,994.043823242188,1.10373345771153E-19,3047,30.47
606480,606.48,994.053649902344,1.10373345771153E-19,3047,30.47
606630,606.63,994.013610839844,1.10373345771153E-19,3048,30.48
606760,606.76,994.048645019531,1.10373345771153E-19,3048,30.48
606890,606.89,994.034301757812,1.10373345771153E-19,3048,30.48
607020,607.02,994.027526855469,1.10373345771153E-19,3048,30.48
607170,607.17,994.01123046875,1.10373345771153E-19,3048,30.48
607300,607.3,994.021057128906,1.10373345771153E-19,3048,30.48
607430,607.43,994.035400390625,1.10373345771153E-19,3049,30.49
607570,607.57,994.0224609375,1.10373345771153E-19,3049,30.49
607700,607.7,994.032653808594,1.10373345771153E-19,3049,30.49
607840,607.84,994.04052734375,1.10373345771153E-19,3050,30.5
607970,607.97,994.003112792969,1.10373345771153E-19,3050,30.5
608100,608.1,994.038513183594,1.10373345771153E-19,3051,30.51
608230,608.23,994.010986328125,1.10373345771153E-19,3051,30.51
608360,608.36,994.003845214844,1.10373345771153E-19,3050,30.5
608500,608.5,994.01171875,1.10373345771153E-19,3051,30.51
608630,608.63,994.038879394531,1.10373345771153E-19,3051,30.51
608760,608.76,994.020812988281,1.10373345771153E-19,3050,30.5
608890,608.89,993.984130859375,1.10373345771153E-19,3051,30.51
609020,609.02,993.940490722656,1.10373345771153E-19,3046,30.46
609160,609.16,994.038513183594,1.10373345771153E-19,3051,30.51
609290,609.29,993.97802734375,1.10373345771153E-19,3051,30.51
609420,609.42,994.0048828125,1.10373345771153E-19,3051,30.51
609550,609.55,994.021545410156,1.10373345771153E-19,3051,30.51
609680,609.68,993.98828125,1.10373345771153E-19,3051,30.51
609820,609.82,993.991271972656,1.10373345771153E-19,3051,30.51
609950,609.95,994.022216796875,1.10373345771153E-19,3051,30.51
610100,610.1,994.005249023438,1.10373345771153E-19,3051,30.51
610250,610.25,993.992370605469,1.10373345771153E-19,3052,30.52
610380,610.38,994.002868652344,1.10373345771153E-19,3052,30.52
610510,610.51,993.992004394531,1.10373345771153E-19,3052,30.52
610640,610.64,993.982482910156,1.10373345771153E-19,3052,30.52
610770,610.77,993.959045410156,1.10373345771153E-19,3052,30.52
610910,610.91,993.986572265625,1.10373345771153E-19,3053,30.53
611040,611.04,993.969970703125,1.10373345771153E-19,3053,30.53
611180,611.18,994.012145996094,1.10373345771153E-19,3054,30.54
611310,611.31,994.027709960938,1.10373345771153E-19,3053,30.53
611440,611.44,994.014465332031,1.10373345771153E-19,3053,30.53
611590,611.59,994.026428222656,1.10373345771153E-19,3054,30.54
611720,611.72,994.019958496094,1.10373345771153E-19,3055,30.55
611850,611.85,994.008361816406,1.10373345771153E-19,3054,30.54
611990,611.99,994.01318359375,1.10373345771153E-19,3055,30.55
612120,612.12,993.970031738281,1.10373345771153E-19,3055,30.55
612250,612.25,994.003356933594,1.10373345771153E-19,3055,30.55
612380,612.38,994.028198242187,1.10373345771153E-19,3056,30.56
612520,612.52,993.993835449219,1.10373345771153E-19,3055,30.55
612650,612.65,994.010864257812,1.10373345771153E-19,3055,30.55
612780,612.78,993.987060546875,1.10373345771153E-19,3055,30.55
612910,612.91,994.007080078125,1.10373345771153E-19,3055,30.55
613040,613.04,993.949645996094,1.10373345771153E-19,3055,30.55
613170,613.17,993.998657226562,1.10373345771153E-19,3056,30.56
613300,613.3,993.985046386719,1.10373345771153E-19,3056,30.56
613430,613.43,993.971801757813,1.10373345771153E-19,3057,30.57
613570,613.57,994.009887695312,1.10373345771153E-19,3057,30.57
613700,613.7,994.02685546875,1.10373345771153E-19,3057,30.57
613860,613.86,994.020812988281,1.10373345771153E-19,3058,30.58
613990,613.99,993.992919921875,1.10373345771153E-19,3057,30.57
614120,614.12,993.989501953125,1.10373345771153E-19,3057,30.57
614250,614.25,993.970153808594,1.10373345771153E-19,3058,30.58
614380,614.38,993.994995117188,1.10373345771153E-19,3059,30.59
614510,614.51,994.021118164063,1.10373345771153E-19,3058,30.58
614640,614.64,993.974975585937,1.10373345771153E-19,3059,30.59
614780,614.78,994.007873535156,1.10373345771153E-19,3058,30.58
614910,614.91,993.994995117188,1.10373345771153E-19,3059,30.59
615040,615.04,993.995361328125,1.10373345771153E-19,3059,30.59
615190,615.19,994.033752441406,1.10373345771153E-19,3060,30.6
615320,615.32,994.023254394531,1.10373345771153E-19,3059,30.59
615450,615.45,994.017150878906,1.10373345771153E-19,3060,30.6
615590,615.59,994.013732910156,1.10373345771153E-19,3060,30.6
615720,615.72,994.011047363281,1.10373345771153E-19,3060,30.6
615850,615.85,993.984558105469,1.10373345771153E-19,3061,30.61
615980,615.98,994.0185546875,1.10373345771153E-19,3061,30.61
616140,616.14,994.028747558594,1.10373345771153E-19,3061,30.61
617410,617.41,994.016540527344,1.10373345771153E-19,3062,30.62
617570,617.57,993.999877929688,1.10373345771153E-19,3062,30.62
617700,617.7,993.990051269531,1.10373345771153E-19,3062,30.62
617830,617.83,993.969604492188,1.10373345771153E-19,3062,30.62
617970,617.97,994.003601074219,1.10373345771153E-19,3062,30.62
618100,618.1,993.990356445313,1.10373345771153E-19,3063,30.63
618230,618.23,994.004333496094,1.10373345771153E-19,3063,30.63
618360,618.36,993.976806640625,1.10373345771153E-19,3063,30.63
618490,618.49,993.956359863281,1.10373345771153E-19,3063,30.63
618620,618.62,993.991394042969,1.10373345771153E-19,3063,30.63
618750,618.75,994.008422851563,1.10373345771153E-19,3063,30.63
618880,618.88,994.00537109375,1.10373345771153E-19,3064,30.64
619010,619.01,993.995544433594,1.10373345771153E-19,3064,30.64
619140,619.14,994.013916015625,1.10373345771153E-19,3065,30.65
619280,619.28,994.000305175781,1.10373345771153E-19,3065,30.65
619420,619.42,994.038757324219,1.10373345771153E-19,3066,30.66
619560,619.56,993.997253417969,1.10373345771153E-19,3065,30.65
619690,619.69,994.031616210938,1.10373345771153E-19,3065,30.65
619820,619.82,994.038024902344,1.10373345771153E-19,3065,30.65
619950,619.95,994.032287597656,1.10373345771153E-19,3066,30.66
620090,620.09,994.021728515625,1.10373345771153E-19,3066,30.66
620220,620.22,994.011535644531,1.10373345771153E-19,3066,30.66
620360,620.36,994.035705566406,1.10373345771153E-19,3066,30.66
620500,620.5,993.9775390625,1.10373345771153E-19,3066,30.66
620640,620.64,994.033020019531,1.10373345771153E-19,3066,30.66
620780,620.78,994.002075195312,1.10373345771153E-19,3066,30.66
620910,620.91,993.992919921875,1.10373345771153E-19,3067,30.67
621040,621.04,993.988830566406,1.10373345771153E-19,3066,30.66
621180,621.18,993.999328613281,1.10373345771153E-19,3067,30.67
621310,621.31,994.01025390625,1.10373345771153E-19,3067,30.67
621440,621.44,994.013305664063,1.10373345771153E-19,3067,30.67
621590,621.59,994.003112792969,1.10373345771153E-19,3067,30.67
621720,621.72,994.023132324219,1.10373345771153E-19,3067,30.67
621850,621.85,994.006469726562,1.10373345771153E-19,3067,30.67
621990,621.99,994.000366210937,1.10373345771153E-19,3067,30.67
622120,622.12,993.992553710937,1.10373345771153E-19,3067,30.67
622250,622.25,993.979675292969,1.10373345771153E-19,3067,30.67
622380,622.38,993.985412597656,1.10373345771153E-19,3066,30.66
622510,622.51,993.959228515625,1.10373345771153E-19,3067,30.67
622640,622.64,993.943298339844,1.10373345771153E-19,3068,30.68
622770,622.77,993.945983886719,1.10373345771153E-19,3067,30.67
622900,622.9,993.997375488281,1.10373345771153E-19,3068,30.68
623030,623.03,994.01806640625,1.10373345771153E-19,3068,30.68
623160,623.16,993.952819824219,1.10373345771153E-19,3067,30.67
623300,623.3,993.981018066406,1.10373345771153E-19,3068,30.68
623430,623.43,994.011962890625,1.10373345771153E-19,3068,30.68
623570,623.57,993.984802246094,1.10373345771153E-19,3068,30.68
623700,623.7,993.967102050781,1.10373345771153E-19,3068,30.68
623830,623.83,993.950805664062,1.10373345771153E-19,3068,30.68
623960,623.96,993.992980957031,1.10373345771153E-19,3069,30.69
624100,624.1,994.033447265625,1.10373345771153E-19,3069,30.69
624230,624.23,993.985168457031,1.10373345771153E-19,3069,30.69
624360,624.36,993.976013183594,1.10373345771153E-19,3069,30.69
624490,624.49,994.003173828125,1.10373345771153E-19,3069,30.69
624660,624.66,993.983825683594,1.10373345771153E-19,3070,30.7
624790,624.79,993.994384765625,1.10373345771153E-19,3070,30.7
624920,624.92,993.963806152344,1.10373345771153E-19,3070,30.7
625050,625.05,993.963073730469,1.10373345771153E-19,3070,30.7
625180,625.18,993.984497070313,1.10373345771153E-19,3071,30.71
625320,625.32,993.971252441406,1.10373345771153E-19,3071,30.71
625450,625.45,994.005615234375,1.10373345771153E-19,3071,30.71
625590,625.59,993.971252441406,1.10373345771153E-19,3071,30.71
625720,625.72,993.981811523438,1.10373345771153E-19,3071,30.71
625850,625.85,993.978088378906,1.10373345771153E-19,3071,30.71
625990,625.99,993.954956054687,1.10373345771153E-19,3071,30.71
626120,626.12,993.968200683594,1.10373345771153E-19,3071,30.71
626250,626.25,993.992370605469,1.10373345771153E-19,3071,30.71
626380,626.38,994.002563476563,1.10373345771153E-19,3071,30.71
626510,626.51,993.978759765625,1.10373345771153E-19,3071,30.71
626640,626.64,993.975341796875,1.10373345771153E-19,3071,30.71
626770,626.77,993.965881347656,1.10373345771153E-19,3072,30.72
626900,626.9,993.965148925781,1.10373345771153E-19,3071,30.71
627030,627.03,993.97265625,1.10373345771153E-19,3072,30.72
627170,627.17,993.989990234375,1.10373345771153E-19,3072,30.72
627310,627.31,993.992736816406,1.10373345771153E-19,3072,30.72
627440,627.44,993.979125976563,1.10373345771153E-19,3072,30.72
627590,627.59,993.965881347656,1.10373345771153E-19,3072,30.72
627720,627.72,993.969970703125,1.10373345771153E-19,3073,30.73
627850,627.85,993.962829589844,1.10373345771153E-19,3072,30.72
627980,627.98,993.963134765625,1.10373345771153E-19,3073,30.73
628130,628.13,993.980529785156,1.10373345771153E-19,3073,30.73
628280,628.28,993.943115234375,1.10373345771153E-19,3073,30.73
628410,628.41,993.980834960938,1.10373345771153E-19,3073,30.73
628540,628.54,993.96044921875,1.10373345771153E-19,3073,30.73
628690,628.69,993.946166992188,1.10373345771153E-19,3073,30.73
628830,628.83,993.977478027344,1.10373345771153E-19,3073,30.73
628970,628.97,993.96044921875,1.10373345771153E-19,3073,30.73
629100,629.1,993.991027832031,1.10373345771153E-19,3073,30.73
629230,629.23,993.970336914063,1.10373345771153E-19,3073,30.73
629360,629.36,993.960815429688,1.10373345771153E-19,3073,30.73
629490,629.49,993.953979492188,1.10373345771153E-19,3073,30.73
629620,629.62,993.953674316406,1.10373345771153E-19,3073,30.73
629760,629.76,993.981201171875,1.10373345771153E-19,3073,30.73
629900,629.9,993.968627929688,1.10373345771153E-19,3074,30.74
630040,630.04,993.968322753906,1.10373345771153E-19,3074,30.74
630170,630.17,993.985656738281,1.10373345771153E-19,3074,30.74
630300,630.3,993.989379882813,1.10373345771153E-19,3074,30.74
630430,630.43,993.975463867188,1.10373345771153E-19,3074,30.74
630570,630.57,993.979858398438,1.10373345771153E-19,3075,30.75
630700,630.7,993.966979980469,1.10373345771153E-19,3075,30.75
630830,630.83,993.980224609375,1.10373345771153E-19,3075,30.75
630960,630.96,994.00439453125,1.10373345771153E-19,3075,30.75
631090,631.09,993.973083496094,1.10373345771153E-19,3075,30.75
631220,631.22,993.956420898438,1.10373345771153E-19,3075,30.75
631360,631.36,993.955749511719,1.10373345771153E-19,3075,30.75
631490,631.49,993.97412109375,1.10373345771153E-19,3076,30.76
631620,631.62,993.976501464844,1.10373345771153E-19,3075,30.75
631770,631.77,993.963256835938,1.10373345771153E-19,3075,30.75
631900,631.9,993.968383789063,1.10373345771153E-19,3076,30.76
632030,632.03,993.954406738281,1.10373345771153E-19,3076,30.76
632160,632.16,993.951049804688,1.10373345771153E-19,3076,30.76
632290,632.29,993.95068359375,1.10373345771153E-19,3076,30.76
632420,632.42,993.951721191406,1.10373345771153E-19,3077,30.77
632550,632.55,994.022399902344,1.10373345771153E-19,3076,30.76
632690,632.69,993.952087402344,1.10373345771153E-19,3077,30.77
632820,632.82,993.945251464844,1.10373345771153E-19,3077,30.77
632950,632.95,993.948303222656,1.10373345771153E-19,3077,30.77
633100,633.1,993.993225097656,1.10373345771153E-19,3077,30.77
633230,633.23,993.976196289063,1.10373345771153E-19,3077,30.77
633370,633.37,993.955810546875,1.10373345771153E-19,3077,30.77
633500,633.5,993.97998046875,1.10373345771153E-19,3077,30.77
633630,633.63,993.959899902344,1.10373345771153E-19,3078,30.78
633760,633.76,993.962951660156,1.10373345771153E-19,3077,30.77
633890,633.89,993.9619140625,1.10373345771153E-19,3077,30.77
634030,634.03,993.966735839844,1.10373345771153E-19,3078,30.78
634160,634.16,993.956481933594,1.10373345771153E-19,3078,30.78
634290,634.29,993.967041015625,1.10373345771153E-19,3078,30.78
634430,634.43,993.953796386719,1.10373345771153E-19,3078,30.78
634570,634.57,993.974914550781,1.10373345771153E-19,3079,30.79
634700,634.7,993.98779296875,1.10373345771153E-19,3078,30.78
634830,634.83,994.006164550781,1.10373345771153E-19,3079,30.79
634970,634.97,994.000732421875,1.10373345771153E-19,3078,30.78
635100,635.1,993.998352050781,1.10373345771153E-19,3078,30.78
635230,635.23,993.968078613281,1.10373345771153E-19,3079,30.79
635390,635.39,993.951110839844,1.10373345771153E-19,3079,30.79
635520,635.52,993.97216796875,1.10373345771153E-19,3079,30.79
635650,635.65,993.961303710938,1.10373345771153E-19,3079,30.79
635780,635.78,993.995666503906,1.10373345771153E-19,3079,30.79
635910,635.91,993.986511230469,1.10373345771153E-19,3080,30.8
636040,636.04,993.986145019531,1.10373345771153E-19,3079,30.79
636170,636.17,993.968078613281,1.10373345771153E-19,3079,30.79
636300,636.3,993.9521484375,1.10373345771153E-19,3079,30.79
636430,636.43,993.93408203125,1.10373345771153E-19,3079,30.79
637290,637.29,993.997009277344,1.10373345771153E-19,3080,30.8
637420,637.42,993.987548828125,1.10373345771153E-19,3080,30.8
637560,637.56,993.977294921875,1.10373345771153E-19,3080,30.8
637690,637.69,993.994323730469,1.10373345771153E-19,3080,30.8
637820,637.82,993.964050292969,1.10373345771153E-19,3081,30.81
637950,637.95,993.949768066406,1.10373345771153E-19,3080,30.8
638110,638.11,993.960327148437,1.10373345771153E-19,3080,30.8
638240,638.24,993.935852050781,1.10373345771153E-19,3080,30.8
638380,638.38,993.960998535156,1.10373345771153E-19,3081,30.81
638510,638.51,993.935852050781,1.10373345771153E-19,3080,30.8
638640,638.64,993.995361328125,1.10373345771153E-19,3081,30.81
638770,638.77,993.974609375,1.10373345771153E-19,3081,30.81
638900,638.9,993.966796875,1.10373345771153E-19,3080,30.8
639070,639.07,993.967468261719,1.10373345771153E-19,3081,30.81
639200,639.2,993.967834472656,1.10373345771153E-19,3081,30.81
639330,639.33,993.984497070313,1.10373345771153E-19,3081,30.81
639470,639.47,993.988220214844,1.10373345771153E-19,3081,30.81
639600,639.6,993.9814453125,1.10373345771153E-19,3081,30.81
639730,639.73,993.988220214844,1.10373345771153E-19,3081,30.81
639860,639.86,993.974975585937,1.10373345771153E-19,3081,30.81
639990,639.99,993.978393554688,1.10373345771153E-19,3081,30.81
640120,640.12,993.978393554688,1.10373345771153E-19,3081,30.81
640250,640.25,993.98583984375,1.10373345771153E-19,3082,30.82
640380,640.38,993.953186035156,1.10373345771153E-19,3080,30.8
640510,640.51,993.963745117187,1.10373345771153E-19,3080,30.8
640640,640.64,993.9814453125,1.10373345771153E-19,3081,30.81
640780,640.78,993.966796875,1.10373345771153E-19,3080,30.8
640910,640.91,993.974243164062,1.10373345771153E-19,3081,30.81
641040,641.04,993.962707519531,1.10373345771153E-19,3080,30.8
641170,641.17,993.998046875,1.10373345771153E-19,3081,30.81
641300,641.3,993.983764648437,1.10373345771153E-19,3080,30.8
641430,641.43,993.993957519531,1.10373345771153E-19,3080,30.8
641580,641.58,993.959655761719,1.10373345771153E-19,3080,30.8
641710,641.71,993.962341308594,1.10373345771153E-19,3079,30.79
642060,642.06,993.961669921875,1.10373345771153E-19,3079,30.79
642190,642.19,993.954467773438,1.10373345771153E-19,3079,30.79
642330,642.33,993.960632324219,1.10373345771153E-19,3078,30.78
642460,642.46,993.974548339844,1.10373345771153E-19,3078,30.78
642590,642.59,993.936828613281,1.10373345771153E-19,3078,30.78
642740,642.74,993.963989257813,1.10373345771153E-19,3078,30.78
642880,642.88,993.966369628906,1.10373345771153E-19,3077,30.77
643010,643.01,993.939514160156,1.10373345771153E-19,3078,30.78
643140,643.14,993.949340820313,1.10373345771153E-19,3077,30.77
643290,643.29,993.94189453125,1.10373345771153E-19,3077,30.77
643420,643.42,993.94189453125,1.10373345771153E-19,3077,30.77
643550,643.55,993.9384765625,1.10373345771153E-19,3077,30.77
643700,643.7,993.909545898438,1.10373345771153E-19,3076,30.76
643830,643.83,993.973754882813,1.10373345771153E-19,3075,30.75
643960,643.96,993.943176269531,1.10373345771153E-19,3075,30.75
644090,644.09,993.956787109375,1.10373345771153E-19,3075,30.75
644220,644.22,993.9482421875,1.10373345771153E-19,3074,30.74
644350,644.35,993.970397949219,1.10373345771153E-19,3075,30.75
644480,644.48,993.98095703125,1.10373345771153E-19,3076,30.76
644610,644.61,993.966979980469,1.10373345771153E-19,3075,30.75
644740,644.74,993.977172851563,1.10373345771153E-19,3075,30.75
644870,644.87,993.939086914063,1.10373345771153E-19,3075,30.75
645010,645.01,993.95947265625,1.10373345771153E-19,3075,30.75
645140,645.14,993.976135253906,1.10373345771153E-19,3075,30.75
645290,645.29,993.958801269531,1.10373345771153E-19,3074,30.74
645430,645.43,993.968994140625,1.10373345771153E-19,3074,30.74
645560,645.56,993.965270996094,1.10373345771153E-19,3074,30.74
645690,645.69,993.937683105469,1.10373345771153E-19,3074,30.74
645830,645.83,993.968322753906,1.10373345771153E-19,3074,30.74
645960,645.96,993.954345703125,1.10373345771153E-19,3074,30.74
646090,646.09,993.942077636719,1.10373345771153E-19,3072,30.72
646220,646.22,993.969604492188,1.10373345771153E-19,3072,30.72
646360,646.36,993.950866699219,1.10373345771153E-19,3071,30.71
646490,646.49,993.968566894531,1.10373345771153E-19,3071,30.71
646620,646.62,993.976440429688,1.10373345771153E-19,3072,30.72
646750,646.75,993.96484375,1.10373345771153E-19,3071,30.71
646880,646.88,993.954284667969,1.10373345771153E-19,3071,30.71
647010,647.01,993.960388183594,1.10373345771153E-19,3070,30.7
647140,647.14,993.949157714844,1.10373345771153E-19,3070,30.7
647290,647.29,993.987548828125,1.10373345771153E-19,3070,30.7
647420,647.42,993.98583984375,1.10373345771153E-19,3069,30.69
