time_boot_ms,time_boot_s,distance
514940,514.94,20
515350,515.35,20
515490,515.49,20
515620,515.62,20
515750,515.75,20
515890,515.89,20
516020,516.02,20
516150,516.15,20
516290,516.29,20
516420,516.42,20
516550,516.55,20
516690,516.69,20
516830,516.83,20
516960,516.96,20
517090,517.09,20
517220,517.22,20
517350,517.35,20
517480,517.48,20
517610,517.61,20
517740,517.74,20
517880,517.88,20
518010,518.01,20
518170,518.17,20
518300,518.3,20
518430,518.43,20
518560,518.56,20
518690,518.69,20
518820,518.82,20
518960,518.96,20
519090,519.09,20
519220,519.22,20
519350,519.35,20
519490,519.49,20
519620,519.62,20
519750,519.75,20
519880,519.88,20
520010,520.01,20
520140,520.14,20
520290,520.29,20
520430,520.43,20
520560,520.56,20
520690,520.69,20
520830,520.83,20
520960,520.96,20
521090,521.09,20
521220,521.22,20
521360,521.36,20
521490,521.49,20
521620,521.62,20
521750,521.75,20
521880,521.88,20
522010,522.01,20
522150,522.15,20
522290,522.29,20
522420,522.42,20
522550,522.55,20
522680,522.68,20
522810,522.81,20
522940,522.94,20
523080,523.08,20
523220,523.22,20
523350,523.35,20
523490,523.49,20
523620,523.62,20
523750,523.75,20
523880,523.88,20
524010,524.01,20
524140,524.14,20
524290,524.29,20
524420,524.42,20
524550,524.55,20
524680,524.68,20
524820,524.82,20
524960,524.96,20
525090,525.09,20
525220,525.22,20
525350,525.35,20
525500,525.5,20
525630,525.63,20
525770,525.77,20
525910,525.91,20
526040,526.04,20
526180,526.18,20
526310,526.31,20
526440,526.44,20
526570,526.57,20
526700,526.7,20
526830,526.83,20
526960,526.96,20
527090,527.09,20
527220,527.22,20
527360,527.36,20
527500,527.5,20
527630,527.63,20
527770,527.77,20
527900,527.9,20
528030,528.03,20
528170,528.17,20
528300,528.3,20
528430,528.43,20
528560,528.56,20
528690,528.69,20
528830,528.83,20
528970,528.97,20
529100,529.1,20
529250,529.25,20
529380,529.38,20
529520,529.52,20
529650,529.65,20
529790,529.79,20
530210,530.21,20
530340,530.34,20
530470,530.47,20
530610,530.61,20
530740,530.74,20
530870,530.87,20
531000,531,20
531130,531.13,20
531270,531.27,20
531400,531.4,20
531540,531.54,20
531910,531.91,20
532040,532.04,20
532170,532.17,20
532300,532.3,20
532430,532.43,20
532560,532.56,20
532690,532.69,20
532820,532.82,20
532950,532.95,20
533110,533.11,20
533240,533.24,20
533390,533.39,20
533520,533.52,20
533650,533.65,20
533780,533.78,20
533910,533.91,20
534040,534.04,20
534170,534.17,20
534310,534.31,20
534450,534.45,20
534580,534.58,20
534710,534.71,20
534840,534.84,20
534970,534.97,20
535100,535.1,20
535240,535.24,20
535390,535.39,20
535520,535.52,20
535650,535.65,20
535790,535.79,20
535930,535.93,20
536070,536.07,20
536200,536.2,20
536330,536.33,20
536460,536.46,20
536590,536.59,20
536720,536.72,20
536880,536.88,20
537010,537.01,20
537150,537.15,20
537280,537.28,20
537410,537.41,20
537540,537.54,20
537670,537.67,20
537800,537.8,20
537930,537.93,20
538060,538.06,20
538190,538.19,20
538320,538.32,20
538460,538.46,20
538590,538.59,20
538730,538.73,20
538870,538.87,20
539000,539,20
539130,539.13,20
539540,539.54,20
539680,539.68,20
539820,539.82,20
539950,539.95,20
540100,540.1,20
540230,540.23,20
540370,540.37,20
540520,540.52,20
540650,540.65,20
540780,540.78,20
540910,540.91,20
541040,541.04,20
541180,541.18,20
541310,541.31,20
541440,541.44,20
541570,541.57,20
541700,541.7,20
541830,541.83,20
541960,541.96,20
542100,542.1,20
542230,542.23,20
542370,542.37,20
542510,542.51,20
542640,542.64,20
542770,542.77,20
542900,542.9,20
543030,543.03,20
543160,543.16,20
543300,543.3,20
543430,543.43,20
543560,543.56,20
543690,543.69,20
543830,543.83,20
543960,543.96,20
544110,544.11,20
544240,544.24,20
544400,544.4,20
544530,544.53,20
544670,544.67,31
544810,544.81,20
544940,544.94,20
545070,545.07,20
545210,545.21,20
545340,545.34,20
545480,545.48,20
545610,545.61,20
545740,545.74,20
545890,545.89,20
546020,546.02,20
546150,546.15,20
546280,546.28,20
546410,546.41,20
546550,546.55,20
546680,546.68,20
546810,546.81,20
546940,546.94,20
547070,547.07,20
547200,547.2,20
547340,547.34,20
547470,547.47,20
547600,547.6,20
547730,547.73,20
547910,547.91,20
548040,548.04,20
548180,548.18,20
548310,548.31,20
548440,548.44,20
548580,548.58,20
548710,548.71,20
548840,548.84,20
548980,548.98,20
549110,549.11,20
549250,549.25,20
549400,549.4,20
549530,549.53,20
549660,549.66,20
549790,549.79,20
549920,549.92,20
550050,550.05,20
550180,550.18,20
550310,550.31,20
550440,550.44,20
550580,550.58,20
550720,550.72,20
550850,550.85,20
550980,550.98,20
551110,551.11,20
551240,551.24,20
551390,551.39,20
551540,551.54,20
551670,551.67,20
551800,551.8,20
551940,551.94,20
552070,552.07,20
552200,552.2,20
552330,552.33,20
552460,552.46,20
552590,552.59,20
552720,552.72,20
552870,552.87,20
553000,553,20
553130,553.13,20
553270,553.27,20
553400,553.4,20
553530,553.53,20
553660,553.66,20
553790,553.79,20
553920,553.92,20
554060,554.06,20
554190,554.19,20
554320,554.32,20
554450,554.45,20
554590,554.59,20
554720,554.72,20
554850,554.85,20
554980,554.98,20
555110,555.11,20
555260,555.26,20
555390,555.39,20
555520,555.52,20
555650,555.65,20
555780,555.78,20
555920,555.92,20
556050,556.05,20
556180,556.18,20
556310,556.31,20
556440,556.44,20
556570,556.57,20
556700,556.7,20
556830,556.83,20
556970,556.97,20
557100,557.1,20
557240,557.24,20
557390,557.39,20
557520,557.52,20
557650,557.65,20
557780,557.78,20
557910,557.91,20
558040,558.04,20
558170,558.17,20
558300,558.3,20
558430,558.43,20
558570,558.57,20
558710,558.71,20
558840,558.84,20
558970,558.97,20
559100,559.1,20
559230,559.23,20
559370,559.37,20
559500,559.5,20
559630,559.63,20
559760,559.76,20
559900,559.9,20
560030,560.03,20
560160,560.16,20
560290,560.29,20
560420,560.42,20
560550,560.55,20
560680,560.68,20
560810,560.81,20
560940,560.94,20
561070,561.07,20
561220,561.22,20
561350,561.35,20
561480,561.48,20
561610,561.61,20
561740,561.74,20
561890,561.89,20
562020,562.02,20
562150,562.15,20
562280,562.28,20
562410,562.41,20
562570,562.57,20
562700,562.7,20
562830,562.83,20
562960,562.96,20
563090,563.09,20
563220,563.22,20
563370,563.37,20
563500,563.5,20
563630,563.63,20
563760,563.76,20
563900,563.9,20
564030,564.03,20
564160,564.16,20
564290,564.29,20
564420,564.42,20
564550,564.55,20
564680,564.68,20
564810,564.81,20
564940,564.94,20
565070,565.07,20
565210,565.21,20
565350,565.35,20
565480,565.48,20
565610,565.61,20
565740,565.74,20
565890,565.89,20
566020,566.02,20
566150,566.15,20
566300,566.3,20
566430,566.43,20
566570,566.57,20
566700,566.7,20
566830,566.83,20
566960,566.96,20
567090,567.09,20
567220,567.22,20
567350,567.35,20
567480,567.48,20
567610,567.61,20
567740,567.74,20
567910,567.91,20
568040,568.04,20
568170,568.17,20
568300,568.3,20
568430,568.43,20
568570,568.57,20
568700,568.7,20
568830,568.83,20
568960,568.96,20
569090,569.09,20
569230,569.23,20
569370,569.37,20
569510,569.51,20
569640,569.64,20
569770,569.77,20
569910,569.91,20
570040,570.04,20
570170,570.17,20
570300,570.3,20
570440,570.44,20
570580,570.58,20
570710,570.71,20
570840,570.84,20
570970,570.97,20
571100,571.1,20
571230,571.23,20
571370,571.37,20
571500,571.5,20
571630,571.63,20
571760,571.76,20
571900,571.9,20
572030,572.03,20
572160,572.16,20
572290,572.29,20
572420,572.42,20
572560,572.56,20
572690,572.69,20
572820,572.82,20
572950,572.95,20
573080,573.08,20
573220,573.22,20
573350,573.35,20
573500,573.5,20
573630,573.63,20
573770,573.77,20
573900,573.9,20
574030,574.03,20
574160,574.16,20
574290,574.29,20
574420,574.42,20
574560,574.56,20
574690,574.69,20
574820,574.82,20
574960,574.96,20
575090,575.09,20
575220,575.22,20
575350,575.35,20
575480,575.48,20
575610,575.61,20
575740,575.74,20
575900,575.9,20
576030,576.03,20
576160,576.16,20
576290,576.29,20
576420,576.42,20
576550,576.55,20
576680,576.68,20
576810,576.81,20
576940,576.94,20
577100,577.1,20
577250,577.25,20
577390,577.39,20
577520,577.52,20
577650,577.65,20
577780,577.78,20
577920,577.92,20
578050,578.05,20
578180,578.18,20
578310,578.31,20
578440,578.44,20
578580,578.58,20
578710,578.71,20
578840,578.84,20
578970,578.97,20
579100,579.1,20
579230,579.23,20
579370,579.37,20
579510,579.51,20
579650,579.65,20
579780,579.78,20
579920,579.92,20
580050,580.05,20
580180,580.18,20
580310,580.31,20
580450,580.45,20
580580,580.58,20
580710,580.71,20
581580,581.58,20
581710,581.71,20
581850,581.85,20
581980,581.98,20
582110,582.11,20
582250,582.25,20
582390,582.39,20
582520,582.52,20
582660,582.66,20
582790,582.79,20
582920,582.92,20
583050,583.05,20
583190,583.19,20
583320,583.32,20
583450,583.45,20
583580,583.58,20
583710,583.71,20
583840,583.84,20
583990,583.99,20
584120,584.12,20
584250,584.25,20
584410,584.41,20
584540,584.54,20
584670,584.67,20
584800,584.8,20
584930,584.93,20
585060,585.06,20
585190,585.19,20
585330,585.33,20
585460,585.46,20
585590,585.59,20
585730,585.73,20
585870,585.87,20
586000,586,20
586130,586.13,20
586260,586.26,20
586400,586.4,20
586770,586.77,20
586910,586.91,20
587040,587.04,20
587170,587.17,20
587300,587.3,20
587430,587.43,20
587570,587.57,20
587700,587.7,20
587830,587.83,20
587960,587.96,20
588090,588.09,20
588230,588.23,20
588380,588.38,20
588510,588.51,20
588640,588.64,20
588780,588.78,20
588910,588.91,20
589040,589.04,20
589170,589.17,20
589300,589.3,20
589430,589.43,20
589580,589.58,20
589710,589.71,20
589840,589.84,20
589970,589.97,20
590100,590.1,20
590230,590.23,20
590360,590.36,20
590490,590.49,20
590620,590.62,20
590760,590.76,20
590900,590.9,20
591030,591.03,20
591160,591.16,20
591300,591.3,20
591430,591.43,20
591570,591.57,20
591700,591.7,20
591830,591.83,20
591990,591.99,20
592120,592.12,20
592260,592.26,20
592390,592.39,20
592520,592.52,20
592650,592.65,20
592790,592.79,20
592920,592.92,20
593050,593.05,20
593180,593.18,20
593320,593.32,20
593450,593.45,20
593600,593.6,20
593730,593.73,20
593860,593.86,20
593990,593.99,20
594120,594.12,20
594250,594.25,20
594380,594.38,20
594510,594.51,20
594640,594.64,20
594770,594.77,20
594910,594.91,20
595050,595.05,20
595180,595.18,20
595320,595.32,20
595450,595.45,20
595610,595.61,20
595740,595.74,20
595870,595.87,20
596010,596.01,20
596140,596.14,20
596280,596.28,20
596410,596.41,20
596540,596.54,20
596670,596.67,20
596800,596.8,20
596930,596.93,20
597070,597.07,20
597200,597.2,20
597330,597.33,20
597460,597.46,20
597600,597.6,20
597730,597.73,20
597870,597.87,20
598000,598,20
598130,598.13,20
598260,598.26,20
598390,598.39,20
598520,598.52,20
598650,598.65,20
598780,598.78,20
598920,598.92,20
599050,599.05,20
599210,599.21,20
599340,599.34,20
599470,599.47,20
599600,599.6,20
599730,599.73,20
599860,599.86,20
599990,599.99,20
600180,600.18,20
600320,600.32,20
600450,600.45,20
600590,600.59,20
600730,600.73,20
600860,600.86,20
600990,600.99,20
601190,601.19,20
601320,601.32,20
601460,601.46,20
601590,601.59,20
601730,601.73,20
601860,601.86,20
601990,601.99,20
602190,602.19,20
602320,602.32,20
602450,602.45,20
602600,602.6,20
602730,602.73,20
602860,602.86,20
603010,603.01,20
603150,603.15,20
603280,603.28,20
603410,603.41,20
603540,603.54,20
603670,603.67,20
603800,603.8,20
603930,603.93,20
604070,604.07,20
604200,604.2,20
604330,604.33,20
604470,604.47,20
604600,604.6,20
604730,604.73,20
604870,604.87,20
605000,605,20
605130,605.13,20
605260,605.26,20
605390,605.39,20
605530,605.53,20
605670,605.67,20
605810,605.81,20
605940,605.94,20
606090,606.09,20
606220,606.22,20
606350,606.35,20
606480,606.48,20
606630,606.63,20
606760,606.76,20
606890,606.89,20
607020,607.02,20
607170,607.17,20
607300,607.3,20
607430,607.43,20
607570,607.57,20
607700,607.7,20
607840,607.84,26
607970,607.97,20
608100,608.1,20
608230,608.23,25
608360,608.36,20
608500,608.5,20
608630,608.63,20
608760,608.76,20
608890,608.89,20
609020,609.02,20
609160,609.16,20
609290,609.29,20
609420,609.42,20
609550,609.55,20
609680,609.68,20
609820,609.82,20
609950,609.95,20
610100,610.1,20
610250,610.25,20
610380,610.38,20
610510,610.51,20
610640,610.64,20
610770,610.77,20
610910,610.91,20
611040,611.04,20
611180,611.18,20
611310,611.31,20
611440,611.44,20
611590,611.59,20
611720,611.72,20
611850,611.85,20
611990,611.99,20
612120,612.12,20
612250,612.25,20
612380,612.38,20
612520,612.52,20
612650,612.65,20
612780,612.78,20
612910,612.91,20
613040,613.04,20
613170,613.17,20
613300,613.3,20
613430,613.43,20
613570,613.57,20
613700,613.7,20
613860,613.86,20
613990,613.99,20
614120,614.12,20
614250,614.25,20
614380,614.38,20
614510,614.51,20
614640,614.64,20
614780,614.78,20
614910,614.91,20
615040,615.04,20
615190,615.19,20
615320,615.32,20
615450,615.45,20
615590,615.59,20
615720,615.72,20
615850,615.85,20
615980,615.98,20
616140,616.14,20
617410,617.41,20
617570,617.57,20
617700,617.7,20
617830,617.83,20
617970,617.97,20
618100,618.1,20
618230,618.23,20
618360,618.36,20
618490,618.49,20
618620,618.62,20
618750,618.75,20
618880,618.88,20
619010,619.01,20
619140,619.14,20
619280,619.28,20
619420,619.42,20
619560,619.56,20
619690,619.69,20
619820,619.82,20
619950,619.95,20
620090,620.09,20
620220,620.22,20
620360,620.36,20
620500,620.5,20
620640,620.64,20
620780,620.78,20
620910,620.91,20
621040,621.04,20
621180,621.18,20
621310,621.31,20
621440,621.44,20
621590,621.59,20
621720,621.72,20
621850,621.85,20
621990,621.99,20
622120,622.12,20
622250,622.25,20
622380,622.38,20
622510,622.51,20
622640,622.64,20
622770,622.77,20
622900,622.9,20
623030,623.03,20
623160,623.16,20
623300,623.3,20
623430,623.43,20
623570,623.57,20
623700,623.7,20
623830,623.83,20
623960,623.96,20
624100,624.1,20
624230,624.23,20
624360,624.36,20
624490,624.49,20
624660,624.66,20
624790,624.79,20
624920,624.92,20
625050,625.05,20
625180,625.18,20
625320,625.32,20
625450,625.45,20
625590,625.59,20
625720,625.72,20
625850,625.85,20
625990,625.99,20
626120,626.12,20
626250,626.25,20
626380,626.38,20
626510,626.51,20
626640,626.64,20
626770,626.77,20
626900,626.9,20
627030,627.03,20
627170,627.17,20
627310,627.31,20
627440,627.44,20
627590,627.59,20
627720,627.72,20
627850,627.85,20
627980,627.98,20
628130,628.13,20
628280,628.28,20
628410,628.41,20
628540,628.54,20
628690,628.69,20
628830,628.83,20
628970,628.97,20
629100,629.1,20
629230,629.23,20
629360,629.36,20
629490,629.49,20
629620,629.62,20
629760,629.76,20
629900,629.9,20
630040,630.04,20
630170,630.17,20
630300,630.3,20
630430,630.43,20
630570,630.57,20
630700,630.7,20
630830,630.83,20
630960,630.96,20
631090,631.09,20
631220,631.22,20
631360,631.36,20
631490,631.49,20
631620,631.62,22
631770,631.77,20
631900,631.9,20
632030,632.03,24
632160,632.16,20
632290,632.29,20
632420,632.42,20
632550,632.55,20
632690,632.69,20
632820,632.82,20
632950,632.95,20
633100,633.1,20
633230,633.23,20
633370,633.37,20
633500,633.5,20
633630,633.63,20
633760,633.76,20
633890,633.89,20
634030,634.03,20
634160,634.16,20
634290,634.29,20
634430,634.43,20
634570,634.57,20
634700,634.7,20
634830,634.83,20
634970,634.97,20
635100,635.1,20
635230,635.23,20
635390,635.39,20
635520,635.52,20
635650,635.65,20
635780,635.78,20
635910,635.91,20
636040,636.04,20
636170,636.17,20
636300,636.3,20
636430,636.43,20
637290,637.29,20
637420,637.42,20
637560,637.56,20
637690,637.69,20
637820,637.82,20
637950,637.95,20
638110,638.11,20
638240,638.24,20
638380,638.38,20
638510,638.51,20
638640,638.64,20
638770,638.77,20
638900,638.9,20
639070,639.07,20
639200,639.2,20
639330,639.33,20
639470,639.47,20
639600,639.6,20
639730,639.73,20
639860,639.86,20
639990,639.99,20
640120,640.12,20
640250,640.25,20
640380,640.38,20
640510,640.51,20
640640,640.64,20
640780,640.78,20
640910,640.91,20
641040,641.04,20
641170,641.17,20
641300,641.3,20
641430,641.43,20
641580,641.58,20
641710,641.71,20
642060,642.06,20
642190,642.19,20
642330,642.33,20
642460,642.46,20
642590,642.59,20
642740,642.74,20
642880,642.88,20
643010,643.01,20
643140,643.14,20
643290,643.29,20
643420,643.42,20
643550,643.55,20
643700,643.7,20
643830,643.83,20
643960,643.96,20
644090,644.09,20
644220,644.22,20
644350,644.35,20
644480,644.48,20
644610,644.61,20
644740,644.74,20
644870,644.87,20
645010,645.01,20
645140,645.14,20
645290,645.29,20
645430,645.43,20
645560,645.56,20
645690,645.69,20
645830,645.83,20
645960,645.96,20
646090,646.09,20
646220,646.22,20
646360,646.36,20
646490,646.49,20
646620,646.62,20
646750,646.75,20
646880,646.88,20
647010,647.01,20
647140,647.14,20
647290,647.29,20
647420,647.42,20
647560,647.56,20
647700,647.7,20
647830,647.83,20
647970,647.97,20
648100,648.1,20
648240,648.24,20
648370,648.37,20
648500,648.5,20
648630,648.63,20
648770,648.77,20
648900,648.9,20
649040,649.04,20
649170,649.17,20
649300,649.3,20
649430,649.43,20
649560,649.56,20
649690,649.69,20
649840,649.84,20
649980,649.98,20
650110,650.11,20
650240,650.24,20
650380,650.38,20
650510,650.51,20
650640,650.64,20
650790,650.79,20
650920,650.92,20
651050,651.05,20
651180,651.18,20
651310,651.31,20
651450,651.45,20
651580,651.58,20
651720,651.72,20
651850,651.85,20
651980,651.98,20
652110,652.11,20
652250,652.25,20
652380,652.38,20
652510,652.51,20
652640,652.64,20
652790,652.79,20
652920,652.92,20
653060,653.06,20
653190,653.19,20
653340,653.34,20
653470,653.47,20
653600,653.6,20
653730,653.73,20
653860,653.86,20
653990,653.99,20
654120,654.12,20
654270,654.27,20
654410,654.41,20
654540,654.54,20
654670,654.67,20
654800,654.8,20
654930,654.93,20
655060,655.06,20
655190,655.19,20
655320,655.32,20
655450,655.45,20
655580,655.58,20
655720,655.72,20
655850,655.85,20
655980,655.98,20
656110,656.11,20
656240,656.24,20
656370,656.37,20
656510,656.51,20
656640,656.64,20
656790,656.79,20
656940,656.94,20
657080,657.08,20
657210,657.21,20
657340,657.34,20
657470,657.47,20
657600,657.6,20
657730,657.73,20
657860,657.86,20
657990,657.99,20
658120,658.12,20
658250,658.25,20
658400,658.4,20
658530,658.53,20
658660,658.66,20
658790,658.79,20
658920,658.92,20
659050,659.05,20
659180,659.18,20
659310,659.31,20
659440,659.44,20
659570,659.57,20
659710,659.71,20
659840,659.84,20
659980,659.98,20
660110,660.11,20
660240,660.24,20
660400,660.4,20
660530,660.53,20
660660,660.66,20
660790,660.79,20
660920,660.92,20
661060,661.06,20
661190,661.19,20
661320,661.32,20
661460,661.46,20
661590,661.59,20
661720,661.72,20
661850,661.85,20
661980,661.98,20
662110,662.11,20
662240,662.24,20
662410,662.41,20
662550,662.55,20
662680,662.68,20
662810,662.81,20
662940,662.94,20
663070,663.07,20
663200,663.2,20
663330,663.33,20
663460,663.46,20
663590,663.59,20
663730,663.73,20
663880,663.88,20
664010,664.01,20
664140,664.14,20
664290,664.29,20
664420,664.42,20
664550,664.55,20
664680,664.68,20
664810,664.81,20
664940,664.94,20
665080,665.08,20
665210,665.21,20
665340,665.34,20
665470,665.47,20
665600,665.6,20
665730,665.73,20
665860,665.86,20
665990,665.99,20
666130,666.13,20
666270,666.27,20
666410,666.41,20
666540,666.54,20
666670,666.67,20
666820,666.82,20
666950,666.95,20
667080,667.08,20
667210,667.21,20
667340,667.34,20
667500,667.5,20
667630,667.63,20
667780,667.78,20
667910,667.91,20
668040,668.04,20
668170,668.17,20
668300,668.3,20
668430,668.43,20
668570,668.57,20
668700,668.7,20
668830,668.83,20
668960,668.96,20
669100,669.1,20
669230,669.23,20
669360,669.36,20
669490,669.49,20
669620,669.62,20
669750,669.75,20
669880,669.88,20
670010,670.01,20
670140,670.14,20
670290,670.29,20
670430,670.43,20
670560,670.56,20
670690,670.69,20
670830,670.83,20
670990,670.99,20
671120,671.12,20
671250,671.25,20
671380,671.38,20
671510,671.51,20
671640,671.64,20
671800,671.8,20
671930,671.93,20
672060,672.06,20
672190,672.19,20
672320,672.32,20
672450,672.45,20
672580,672.58,20
672710,672.71,20
672840,672.84,20
672970,672.97,20
673110,673.11,20
673240,673.24,20
673370,673.37,20
673500,673.5,20
673630,673.63,20
673770,673.77,20
673900,673.9,20
674030,674.03,20
674160,674.16,20
674290,674.29,20
674460,674.46,20
674590,674.59,20
674720,674.72,20
674850,674.85,20
674980,674.98,20
675110,675.11,20
675250,675.25,20
675400,675.4,20
675530,675.53,20
675660,675.66,20
675800,675.8,20
675930,675.93,20
676060,676.06,20
676190,676.19,20
676320,676.32,20
676450,676.45,20
676580,676.58,20
676710,676.71,20
676840,676.84,20
676970,676.97,20
677110,677.11,20
677240,677.24,20
677370,677.37,20
677500,677.5,20
677630,677.63,20
677770,677.77,20
677900,677.9,20
678060,678.06,20
678190,678.19,20
678320,678.32,20
678460,678.46,20
678590,678.59,20
678720,678.72,20
678850,678.85,20
678980,678.98,20
679110,679.11,20
679240,679.24,20
679380,679.38,20
679510,679.51,20
679640,679.64,20
679800,679.8,20
679940,679.94,20
680080,680.08,20
680210,680.21,20
680340,680.34,20
680480,680.48,20
680610,680.61,20
680740,680.74,20
680870,680.87,20
681000,681,20
681140,681.14,20
681290,681.29,20
681420,681.42,20
681570,681.57,20
681700,681.7,20
681830,681.83,20
681960,681.96,20
682090,682.09,20
682220,682.22,20
682350,682.35,20
682490,682.49,20
682620,682.62,20
682750,682.75,20
682880,682.88,20
683010,683.01,20
683140,683.14,20
683290,683.29,20
683420,683.42,20
683550,683.55,20
683690,683.69,20
683830,683.83,20
683960,683.96,20
684090,684.09,20
684220,684.22,20
684350,684.35,20
684490,684.49,20
684620,684.62,20
684770,684.77,20
684900,684.9,20
685060,685.06,20
685200,685.2,20
685330,685.33,20
685460,685.46,20
685590,685.59,20
685720,685.72,20
685850,685.85,20
685980,685.98,20
686110,686.11,20
686240,686.24,20
686370,686.37,20
686510,686.51,20
686640,686.64,20
686790,686.79,20
686920,686.92,20
687050,687.05,20
687180,687.18,20
687310,687.31,20
687440,687.44,20
687570,687.57,20
687700,687.7,20
687850,687.85,20
687980,687.98,20
688110,688.11,20
688240,688.24,20
688370,688.37,20
688520,688.52,20
688650,688.65,20
688790,688.79,20
688920,688.92,20
689060,689.06,20
689200,689.2,20
689340,689.34,20
689470,689.47,20
689600,689.6,20
689730,689.73,20
689870,689.87,20
690000,690,20
690130,690.13,20
690270,690.27,20
690400,690.4,20
690540,690.54,20
690670,690.67,20
690800,690.8,20
690930,690.93,20
691060,691.06,20
691190,691.19,20
691320,691.32,20
691480,691.48,20
691610,691.61,20
691740,691.74,20
691880,691.88,20
692040,692.04,20
692170,692.17,20
692300,692.3,20
692430,692.43,20
692560,692.56,20
692690,692.69,20
692820,692.82,20
692950,692.95,20
693080,693.08,20
693220,693.22,20
693360,693.36,20
693490,693.49,20
693630,693.63,20
693770,693.77,20
693900,693.9,20
694040,694.04,20
694170,694.17,20
694300,694.3,20
694430,694.43,20
694570,694.57,20
694700,694.7,20
694830,694.83,20
694960,694.96,20
695090,695.09,20
695220,695.22,20
695350,695.35,20
695480,695.48,20
695630,695.63,20
695770,695.77,20
695910,695.91,20
696040,696.04,20
696170,696.17,20
696300,696.3,20
696430,696.43,20
696560,696.56,20
696690,696.69,20
697020,697.02,20
697150,697.15,20
697280,697.28,20
697420,697.42,20
697550,697.55,20
697680,697.68,20
697810,697.81,20
697940,697.94,20
698070,698.07,20
698200,698.2,20
698340,698.34,20
698490,698.49,20
698620,698.62,20
698770,698.77,20
698900,698.9,20
699030,699.03,20
699160,699.16,20
699320,699.32,20
699450,699.45,20
699590,699.59,20
699720,699.72,20
699850,699.85,20
699990,699.99,20
700130,700.13,20
700260,700.26,20
700400,700.4,20
700540,700.54,20
700670,700.67,20
700800,700.8,20
700930,700.93,20
701060,701.06,20
701190,701.19,20
701320,701.32,20
701460,701.46,20
701590,701.59,20
701720,701.72,20
701850,701.85,20
701990,701.99,20
702120,702.12,20
702250,702.25,20
703000,703,20
703130,703.13,20
703260,703.26,20
703390,703.39,20
703530,703.53,20
703660,703.66,20
703790,703.79,20
703920,703.92,20
704050,704.05,20
704190,704.19,20
704320,704.32,20
704450,704.45,20
704580,704.58,20
704720,704.72,20
704850,704.85,20
704990,704.99,20
705120,705.12,20
705250,705.25,20
705380,705.38,20
705520,705.52,20
705650,705.65,20
705780,705.78,20
705910,705.91,20
706040,706.04,20
706200,706.2,20
706330,706.33,20
706470,706.47,20
706600,706.6,20
706730,706.73,20
706870,706.87,20
707000,707,20
707130,707.13,20
707270,707.27,20
707400,707.4,20
707530,707.53,20
707660,707.66,20
707790,707.79,20
707920,707.92,20
708050,708.05,20
708200,708.2,20
708330,708.33,20
708470,708.47,20
708600,708.6,20
708730,708.73,20
708860,708.86,20
709000,709,20
709130,709.13,20
709260,709.26,20
709390,709.39,20
709550,709.55,20
709710,709.71,20
709840,709.84,20
709980,709.98,20
710110,710.11,20
710240,710.24,20
710370,710.37,20
710500,710.5,20
710630,710.63,20
710770,710.77,20
710910,710.91,20
711040,711.04,20
711170,711.17,20
711300,711.3,20
711430,711.43,20
711570,711.57,20
711700,711.7,20
711830,711.83,20
711970,711.97,20
712100,712.1,20
712240,712.24,20
712370,712.37,20
712500,712.5,20
712630,712.63,20
712760,712.76,20
712910,712.91,20
713040,713.04,20
713170,713.17,20
713340,713.34,20
713490,713.49,20
713630,713.63,20
713760,713.76,20
713890,713.89,20
714020,714.02,20
714160,714.16,20
714290,714.29,20
714420,714.42,20
714550,714.55,20
714680,714.68,20
714810,714.81,20
714950,714.95,20
715080,715.08,20
715210,715.21,20
715340,715.34,20
715490,715.49,20
715620,715.62,20
715750,715.75,20
715880,715.88,20
716010,716.01,20
716140,716.14,20
716280,716.28,20
716410,716.41,20
716550,716.55,20
716710,716.71,20
716840,716.84,20
716990,716.99,20
717120,717.12,20
717250,717.25,20
717380,717.38,20
717530,717.53,20
717670,717.67,20
717800,717.8,20
717930,717.93,20
718060,718.06,20
718190,718.19,20
718320,718.32,20
718450,718.45,20
718580,718.58,20
718710,718.71,20
718840,718.84,20
719000,719,20
719130,719.13,20
719260,719.26,20
719400,719.4,20
719530,719.53,20
719660,719.66,20
719790,719.79,20
719920,719.92,20
720050,720.05,20
720210,720.21,20
720350,720.35,20
720490,720.49,20
720620,720.62,20
720750,720.75,20
720880,720.88,20
721010,721.01,20
721150,721.15,20
721280,721.28,20
721410,721.41,20
721540,721.54,20
721690,721.69,20
721820,721.82,20
721960,721.96,20
722090,722.09,20
722230,722.23,20
722360,722.36,20
722490,722.49,20
722620,722.62,20
722750,722.75,20
722880,722.88,20
723020,723.02,20
723150,723.15,20
723280,723.28,20
723410,723.41,20
723540,723.54,20
723700,723.7,22
723830,723.83,20
723970,723.97,20
724100,724.1,20
724230,724.23,20
724370,724.37,20
724500,724.5,20
724630,724.63,20
724760,724.76,20
724890,724.89,20
725020,725.02,20
725150,725.15,20
725280,725.28,720
725420,725.42,20
725550,725.55,20
725700,725.7,20
725830,725.83,20
725980,725.98,20
726110,726.11,20
726240,726.24,20
726370,726.37,20
726500,726.5,20
726630,726.63,20
726760,726.76,20
726900,726.9,20
727070,727.07,20
727200,727.2,20
727330,727.33,20
727470,727.47,20
727600,727.6,23
727730,727.73,20
727860,727.86,20
727990,727.99,20
728120,728.12,20
728250,728.25,20
728390,728.39,20
728520,728.52,20
728650,728.65,20
728780,728.78,20
728910,728.91,22
729040,729.04,20
729170,729.17,20
729300,729.3,20
729430,729.43,20
729570,729.57,27
729710,729.71,20
729840,729.84,20
729990,729.99,20
730130,730.13,20
730270,730.27,20
730400,730.4,20
730560,730.56,20
730690,730.69,20
730820,730.82,20
730950,730.95,20
731090,731.09,20
731220,731.22,20
731360,731.36,20
731500,731.5,20
731630,731.63,20
731760,731.76,20
731890,731.89,20
732020,732.02,20
732150,732.15,20
732280,732.28,20
732420,732.42,20
732550,732.55,720
732680,732.68,720
732810,732.81,25
732940,732.94,720
733070,733.07,20
733200,733.2,720
733330,733.33,25
733470,733.47,720
733600,733.6,24
733740,733.74,622
733880,733.88,20
734040,734.04,20
734170,734.17,20
734310,734.31,20
734440,734.44,20
734570,734.57,24
734700,734.7,20
734840,734.84,20
734990,734.99,20
735130,735.13,21
735260,735.26,21
735390,735.39,22
735520,735.52,22
735650,735.65,22
735780,735.78,23
735910,735.91,23
736040,736.04,23
736180,736.18,23
736310,736.31,720
736450,736.45,720
736580,736.58,30
736710,736.71,32
736840,736.84,20
736990,736.99,20
737120,737.12,20
737250,737.25,20
737380,737.38,20
737540,737.54,20
737670,737.67,20
737810,737.81,20
737940,737.94,20
738080,738.08,20
738210,738.21,20
738340,738.34,21
738490,738.49,32
738630,738.63,32
738760,738.76,21
738890,738.89,28
739020,739.02,720
739160,739.16,720
739300,739.3,24
739430,739.43,24
739560,739.56,25
739690,739.69,24
739820,739.82,24
739960,739.96,720
740090,740.09,720
740220,740.22,720
740350,740.35,181
740500,740.5,720
740630,740.63,720
740770,740.77,720
740910,740.91,720
741040,741.04,720
741170,741.17,99
741300,741.3,22
741430,741.43,720
741570,741.57,720
741700,741.7,720
741840,741.84,720
741990,741.99,720
742120,742.12,720
742250,742.25,720
742380,742.38,151
742510,742.51,720
742640,742.64,20
742770,742.77,720
742910,742.91,351
743040,743.04,720
743180,743.18,720
743310,743.31,20
743440,743.44,20
743570,743.57,20
743700,743.7,23
743840,743.84,22
743990,743.99,720
744120,744.12,23
744250,744.25,23
744380,744.38,20
744520,744.52,25
744650,744.65,720
744780,744.78,720
744910,744.91,720
745040,745.04,20
745170,745.17,20
745300,745.3,720
745430,745.43,20
745560,745.56,20
745690,745.69,20
745830,745.83,720
745970,745.97,720
746100,746.1,720
746230,746.23,720
746360,746.36,508
746490,746.49,720
746620,746.62,720
746750,746.75,720
746880,746.88,720
747020,747.02,720
747160,747.16,720
747290,747.29,20
747420,747.42,261
747550,747.55,720
747680,747.68,720
747840,747.84,20
747990,747.99,20
748120,748.12,20
748250,748.25,20
748390,748.39,20
748530,748.53,20
748660,748.66,20
748790,748.79,21
748920,748.92,22
749050,749.05,20
749180,749.18,20
749310,749.31,20
749440,749.44,22
749570,749.57,22
749700,749.7,21
749840,749.84,20
749990,749.99,20
750130,750.13,27
750260,750.26,536
750390,750.39,20
750520,750.52,20
750650,750.65,20
750780,750.78,22
750910,750.91,22
751040,751.04,20
751180,751.18,20
751340,751.34,20
751490,751.49,23
751620,751.62,24
751750,751.75,20
752110,752.11,22
752240,752.24,20
752370,752.37,20
752500,752.5,20
752630,752.63,20
752770,752.77,24
752900,752.9,22
753030,753.03,20
753160,753.16,20
753290,753.29,20
753420,753.42,20
753550,753.55,20
753690,753.69,20
753820,753.82,20
753950,753.95,20
754100,754.1,20
754230,754.23,20
754360,754.36,20
754490,754.49,20
754620,754.62,20
754750,754.75,20
754880,754.88,20
755040,755.04,20
755170,755.17,20
755300,755.3,20
755440,755.44,20
755600,755.6,20
755730,755.73,20
755860,755.86,20
755990,755.99,20
756120,756.12,20
756250,756.25,20
756380,756.38,20
756510,756.51,20
756640,756.64,20
756780,756.78,20
756910,756.91,20
757040,757.04,20
757170,757.17,20
757300,757.3,20
757430,757.43,20
757570,757.57,20
757700,757.7,20
757830,757.83,20
757960,757.96,20
758100,758.1,20
758230,758.23,20
758390,758.39,20
758520,758.52,20
758650,758.65,20
758780,758.78,20
758910,758.91,20
759040,759.04,20
759170,759.17,20
759300,759.3,20
759440,759.44,20
759590,759.59,20
759720,759.72,20
759860,759.86,20
759990,759.99,20
760120,760.12,20
760250,760.25,20
760380,760.38,20
760510,760.51,20
760640,760.64,20
760780,760.78,20
760910,760.91,20
761040,761.04,20
761170,761.17,20
761300,761.3,20
761440,761.44,20
761590,761.59,20
761720,761.72,20
761880,761.88,20
762010,762.01,20
762160,762.16,20
762290,762.29,24
762420,762.42,20
762550,762.55,20
762680,762.68,20
762810,762.81,20
762940,762.94,20
763090,763.09,20
763220,763.22,20
763350,763.35,20
763490,763.49,20
763620,763.62,20
763750,763.75,20
763880,763.88,20
764020,764.02,20
764150,764.15,20
764290,764.29,20
764420,764.42,20
764550,764.55,20
764680,764.68,720
764820,764.82,720
764950,764.95,20
765090,765.09,20
765250,765.25,20
765380,765.38,20
765510,765.51,20
765640,765.64,20
765780,765.78,20
765910,765.91,20
766040,766.04,20
766180,766.18,20
766310,766.31,20
766440,766.44,20
766590,766.59,20
766730,766.73,20
766860,766.86,720
766990,766.99,720
767120,767.12,720
767250,767.25,720
767380,767.38,720
767520,767.52,720
767650,767.65,720
767780,767.78,720
767910,767.91,720
768040,768.04,20
768170,768.17,20
768310,768.31,20
768440,768.44,20
768610,768.61,20
768740,768.74,20
768890,768.89,20
769020,769.02,20
769150,769.15,20
769280,769.28,20
769410,769.41,20
769540,769.54,20
769670,769.67,20
769800,769.8,20
769930,769.93,20
770070,770.07,20
770210,770.21,20
770340,770.34,20
770470,770.47,20
770600,770.6,23
770730,770.73,23
770870,770.87,20
771000,771,20
771130,771.13,25
771270,771.27,20
771400,771.4,20
771540,771.54,20
771680,771.68,31
771810,771.81,20
771940,771.94,20
772110,772.11,20
772240,772.24,20
772370,772.37,20
772500,772.5,20
772630,772.63,20
772760,772.76,31
772900,772.9,32
773030,773.03,720
773160,773.16,720
773290,773.29,31
773420,773.42,720
773560,773.56,20
773690,773.69,22
773820,773.82,444
773950,773.95,720
774080,774.08,720
774220,774.22,20
774350,774.35,20
774480,774.48,32
774610,774.61,20
774740,774.74,32
774870,774.87,20
775000,775,22
775130,775.13,24
775260,775.26,22
775390,775.39,24
775560,775.56,20
775690,775.69,20
775830,775.83,20
775960,775.96,20
776090,776.09,20
776220,776.22,23
776350,776.35,23
776480,776.48,24
776610,776.61,20
776750,776.75,20
776890,776.89,20
777020,777.02,20
777150,777.15,20
777280,777.28,32
777410,777.41,31
777540,777.54,20
777680,777.68,20
777810,777.81,20
777940,777.94,20
778090,778.09,20
778240,778.24,20
778380,778.38,20
778510,778.51,20
778640,778.64,20
778770,778.77,333
778930,778.93,720
779070,779.07,20
779200,779.2,20
779330,779.33,720
779460,779.46,21
779600,779.6,20
779730,779.73,20
779860,779.86,20
779990,779.99,20
780120,780.12,20
780260,780.26,20
780400,780.4,20
780530,780.53,20
780660,780.66,20
780790,780.79,20
780940,780.94,20
781080,781.08,20
781210,781.21,20
781340,781.34,20
781470,781.47,20
781600,781.6,20
781730,781.73,20
781860,781.86,20
782000,782,20
782130,782.13,20
782300,782.3,20
782430,782.43,20
782570,782.57,20
782700,782.7,20
782840,782.84,20
782980,782.98,20
783110,783.11,20
783240,783.24,20
783370,783.37,20
783500,783.5,20
783640,783.64,20
783770,783.77,20
783900,783.9,20
784030,784.03,20
784160,784.16,20
784290,784.29,20
784420,784.42,20
784550,784.55,20
784680,784.68,20
784810,784.81,20
784960,784.96,20
785090,785.09,27
785230,785.23,720
785360,785.36,20
785490,785.49,20
785650,785.65,20
785780,785.78,20
785910,785.91,20
786040,786.04,20
786170,786.17,20
786310,786.31,20
786440,786.44,20
786590,786.59,31
786720,786.72,29
786850,786.85,21
786980,786.98,720
787120,787.12,23
787250,787.25,720
787380,787.38,22
787510,787.51,20
787650,787.65,20
787780,787.78,22
787910,787.91,24
788050,788.05,24
788180,788.18,23
788310,788.31,23
788440,788.44,24
788590,788.59,23
788720,788.72,23
788860,788.86,23
789000,789,23
789130,789.13,22
789260,789.26,22
789400,789.4,720
789540,789.54,24
789680,789.68,22
789810,789.81,22
789940,789.94,23
790090,790.09,20
790220,790.22,20
790360,790.36,20
790490,790.49,23
790620,790.62,23
790750,790.75,23
790880,790.88,23
791010,791.01,24
791140,791.14,24
791270,791.27,24
791410,791.41,24
791540,791.54,24
791680,791.68,20
791810,791.81,20
791940,791.94,20
792090,792.09,20
792230,792.23,720
792360,792.36,26
792520,792.52,639
792650,792.65,720
792780,792.78,20
792910,792.91,20
793050,793.05,20
793180,793.18,26
793310,793.31,20
793440,793.44,20
793600,793.6,21
793730,793.73,720
793860,793.86,25
793990,793.99,20
794120,794.12,20
794250,794.25,20
794390,794.39,20
794520,794.52,20
794650,794.65,25
794780,794.78,720
794920,794.92,22
795050,795.05,23
795180,795.18,23
795310,795.31,28
795440,795.44,20
795590,795.59,20
795760,795.76,20
795890,795.89,29
796150,796.15,518
796280,796.28,20
796410,796.41,20
796540,796.54,20
796670,796.67,30
796800,796.8,720
796940,796.94,720
797100,797.1,720
797230,797.23,720
797360,797.36,23
797490,797.49,23
797620,797.62,23
797750,797.75,23
797890,797.89,23
798020,798.02,23
798150,798.15,20
798280,798.28,720
798420,798.42,20
798550,798.55,720
798680,798.68,20
798810,798.81,20
798940,798.94,25
799080,799.08,20
799240,799.24,20
799370,799.37,20
799500,799.5,20
799630,799.63,20
799770,799.77,20
799900,799.9,20
800030,800.03,20
800160,800.16,720
800290,800.29,20
800420,800.42,20
800550,800.55,20
800680,800.68,20
800840,800.84,20
800970,800.97,20
801110,801.11,20
801240,801.24,20
801370,801.37,20
801500,801.5,20
801630,801.63,20
801760,801.76,20
801890,801.89,20
802020,802.02,20
802150,802.15,20
802280,802.28,20
802420,802.42,20
802580,802.58,20
802710,802.71,20
802840,802.84,20
802970,802.97,20
803110,803.11,20
803240,803.24,20
803370,803.37,20
803500,803.5,20
803630,803.63,20
803770,803.77,20
803900,803.9,20
804030,804.03,20
804160,804.16,20
804290,804.29,20
804420,804.42,20
804550,804.55,20
804680,804.68,20
804810,804.81,20
804940,804.94,720
805090,805.09,30
805220,805.22,20
805350,805.35,720
805480,805.48,107
805610,805.61,107
805740,805.74,20
805870,805.87,20
806030,806.03,20
806160,806.16,20
806310,806.31,20
806450,806.45,20
806590,806.59,20
806720,806.72,20
807090,807.09,20
807220,807.22,20
807350,807.35,20
807480,807.48,20
807610,807.61,20
807740,807.74,20
807870,807.87,20
808020,808.02,142
808150,808.15,21
808290,808.29,20
808420,808.42,20
808550,808.55,20
808680,808.68,546
808810,808.81,20
808940,808.94,23
809070,809.07,20
809200,809.2,23
809340,809.34,24
809470,809.47,24
809630,809.63,24
809770,809.77,25
809900,809.9,20
810030,810.03,20
810160,810.16,665
810290,810.29,25
810420,810.42,24
810550,810.55,24
810700,810.7,24
810830,810.83,20
810960,810.96,720
811100,811.1,23
811230,811.23,720
811360,811.36,24
811490,811.49,278
811620,811.62,23
811750,811.75,20
811880,811.88,720
812020,812.02,20
812150,812.15,23
812290,812.29,24
812430,812.43,20
812560,812.56,23
812690,812.69,23
812850,812.85,23
812980,812.98,23
813110,813.11,20
813240,813.24,23
813380,813.38,23
813510,813.51,24
813640,813.64,20
813790,813.79,20
813930,813.93,23
814060,814.06,23
814190,814.19,315
814320,814.32,24
814450,814.45,23
814580,814.58,720
814720,814.72,23
814850,814.85,27
814980,814.98,587
815110,815.11,720
815240,815.24,720
815370,815.37,24
815500,815.5,720
815630,815.63,720
815780,815.78,720
815910,815.91,720
816050,816.05,720
816210,816.21,377
816340,816.34,720
816480,816.48,720
816610,816.61,21
816740,816.74,21
816870,816.87,20
817010,817.01,446
817140,817.14,24
817280,817.28,24
817420,817.42,720
817550,817.55,28
817680,817.68,452
817810,817.81,720
817940,817.94,20
818070,818.07,20
818200,818.2,20
818330,818.33,20
818460,818.46,20
818590,818.59,720
818730,818.73,720
818860,818.86,720
819000,819,20
819130,819.13,20
819270,819.27,720
819400,819.4,20
819560,819.56,20
819690,819.69,20
819820,819.82,20
819950,819.95,20
820090,820.09,20
820220,820.22,20
820350,820.35,20
820490,820.49,20
820620,820.62,20
820760,820.76,20
820890,820.89,20
821020,821.02,20
821150,821.15,20
821290,821.29,20
821430,821.43,20
821570,821.57,20
821700,821.7,20
821830,821.83,720
821960,821.96,20
822090,822.09,20
822220,822.22,20
822350,822.35,20
822480,822.48,20
822610,822.61,20
822750,822.75,20
822910,822.91,20
823040,823.04,20
823170,823.17,20
823300,823.3,20
823430,823.43,20
823560,823.56,20
823690,823.69,20
823820,823.82,20
823950,823.95,20
824090,824.09,20
824220,824.22,20
824350,824.35,20
824480,824.48,20
824610,824.61,20
824740,824.74,20
824870,824.87,20
825000,825,20
825140,825.14,20
825290,825.29,20
825430,825.43,20
825560,825.56,20
825690,825.69,20
825820,825.82,20
825950,825.95,20
826090,826.09,20
826250,826.25,20
826380,826.38,20
826510,826.51,20
826640,826.64,20
826800,826.8,20
826930,826.93,20
827060,827.06,20
827190,827.19,20
827320,827.32,20
827460,827.46,20
827590,827.59,20
827720,827.72,20
827850,827.85,20
827980,827.98,20
828120,828.12,20
828250,828.25,20
828380,828.38,20
828510,828.51,20
828640,828.64,20
828790,828.79,20
828920,828.92,720
829050,829.05,20
829180,829.18,720
829310,829.31,20
829480,829.48,20
829610,829.61,20
829750,829.75,20
829880,829.88,720
830010,830.01,720
830140,830.14,20
830290,830.29,20
830420,830.42,20
830550,830.55,20
830690,830.69,20
830830,830.83,20
830970,830.97,20
831100,831.1,20
831230,831.23,20
831360,831.36,20
831490,831.49,20
831620,831.62,20
831770,831.77,20
831900,831.9,20
832030,832.03,20
832170,832.17,20
832300,832.3,20
832430,832.43,20
832560,832.56,20
832690,832.69,20
832850,832.85,20
832980,832.98,20
833110,833.11,20
833240,833.24,20
833370,833.37,20
833510,833.51,20
833640,833.64,20
833790,833.79,20
833920,833.92,20
834050,834.05,20
834180,834.18,20
834310,834.31,20
834450,834.45,20
834580,834.58,20
834710,834.71,20
834850,834.85,20
834980,834.98,20
835110,835.11,20
835250,835.25,20
835380,835.38,20
835510,835.51,20
835640,835.64,20
835790,835.79,20
835930,835.93,20
836060,836.06,20
836230,836.23,20
836360,836.36,20
836490,836.49,20
836620,836.62,20
836750,836.75,20
836880,836.88,20
837010,837.01,20
837140,837.14,20
837290,837.29,20
837420,837.42,20
837560,837.56,20
837690,837.69,20
837820,837.82,20
837950,837.95,20
838080,838.08,20
838210,838.21,20
838340,838.34,20
838470,838.47,20
838600,838.6,20
838730,838.73,20
838870,838.87,20
839010,839.01,20
839140,839.14,20
839290,839.29,20
839420,839.42,20
839580,839.58,20
839710,839.71,20
839840,839.84,20
839970,839.97,20
840110,840.11,20
840250,840.25,20
840380,840.38,720
840510,840.51,720
840640,840.64,720
840790,840.79,720
840960,840.96,720
841090,841.09,720
841220,841.22,148
841360,841.36,720
841490,841.49,720
841630,841.63,720
841770,841.77,720
841900,841.9,720
842030,842.03,720
842170,842.17,720
842300,842.3,720
842430,842.43,720
842560,842.56,720
842690,842.69,720
842850,842.85,720
842990,842.99,720
843120,843.12,720
843250,843.25,720
843380,843.38,720
843510,843.51,720
843640,843.64,720
843800,843.8,20
843970,843.97,720
844100,844.1,720
844230,844.23,20
844390,844.39,720
844520,844.52,20
844650,844.65,298
844790,844.79,720
844970,844.97,720
845100,845.1,720
845230,845.23,20
845360,845.36,20
845490,845.49,720
845620,845.62,720
845770,845.77,720
845980,845.98,720
846110,846.11,720
846240,846.24,720
846370,846.37,720
846500,846.5,720
846630,846.63,720
846770,846.77,720
846900,846.9,720
847030,847.03,20
847170,847.17,20
847300,847.3,20
847430,847.43,20
847560,847.56,720
847690,847.69,20
847820,847.82,20
847980,847.98,20
848110,848.11,720
848240,848.24,720
848370,848.37,20
848510,848.51,20
848650,848.65,720
848800,848.8,20
848990,848.99,20
849130,849.13,20
849270,849.27,20
849400,849.4,20
849530,849.53,20
849690,849.69,20
869600,869.6,20
869730,869.73,20
869860,869.86,20
869990,869.99,20
870120,870.12,20
870250,870.25,20
870380,870.38,20
870510,870.51,20
870640,870.64,20
870770,870.77,20
870910,870.91,20
871040,871.04,20
871170,871.17,20
871330,871.33,20
871470,871.47,714
871610,871.61,720
871750,871.75,720
871880,871.88,720
872060,872.06,101
872190,872.19,650
872330,872.33,720
872470,872.47,720
872600,872.6,720
872730,872.73,720
873070,873.07,504
873210,873.21,720
873340,873.34,720
873490,873.49,720
873620,873.62,720
874060,874.06,720
874200,874.2,720
874350,874.35,720
874490,874.49,720
874620,874.62,720
874750,874.75,720
875060,875.06,720
875220,875.22,515
875350,875.35,720
875490,875.49,720
875620,875.62,720
875760,875.76,720
876060,876.06,720
876190,876.19,720
876320,876.32,720
876450,876.45,720
876590,876.59,720
876720,876.72,720
876850,876.85,720
877060,877.06,720
877190,877.19,639
877330,877.33,720
877470,877.47,720
877600,877.6,720
877730,877.73,720
877860,877.86,720
878060,878.06,720
878190,878.19,720
878320,878.32,720
878450,878.45,720
878580,878.58,720
878750,878.75,720
878880,878.88,720
879070,879.07,273
879200,879.2,720
879340,879.34,720
879490,879.49,720
879620,879.62,720
879750,879.75,720
880060,880.06,720
880190,880.19,720
880330,880.33,720
880470,880.47,720
880600,880.6,720
880730,880.73,720
881070,881.07,720
881200,881.2,720
881340,881.34,286
881490,881.49,720
881620,881.62,720
881750,881.75,720
881890,881.89,720
882070,882.07,720
882200,882.2,720
882330,882.33,720
882500,882.5,720
882630,882.63,720
882760,882.76,720
882890,882.89,720
883070,883.07,220
884510,884.51,706
884650,884.65,720
884790,884.79,720
884920,884.92,720
885080,885.08,720
885350,885.35,720
885490,885.49,720
885620,885.62,720
885760,885.76,455
885920,885.92,720
886080,886.08,720
886220,886.22,720
886350,886.35,720
886490,886.49,720
886620,886.62,384
886750,886.75,720
886880,886.88,356
887090,887.09,20
887220,887.22,720
887350,887.35,720
887490,887.49,720
887630,887.63,720
887760,887.76,720
887890,887.89,217
888090,888.09,478
888220,888.22,720
888350,888.35,720
888490,888.49,720
888620,888.62,720
888750,888.75,720
889090,889.09,720
889230,889.23,720
889370,889.37,720
889520,889.52,720
889650,889.65,720
889790,889.79,720
890100,890.1,720
890230,890.23,720
890370,890.37,720
890510,890.51,720
890640,890.64,720
890780,890.78,720
890910,890.91,720
891100,891.1,720
891240,891.24,720
891370,891.37,720
891500,891.5,720
891630,891.63,720
891760,891.76,720
892100,892.1,720
892230,892.23,720
892370,892.37,107
892500,892.5,639
892630,892.63,720
892760,892.76,720
892890,892.89,96
893110,893.11,720
893240,893.24,720
893370,893.37,720
893500,893.5,720
893630,893.63,720
893770,893.77,720
894110,894.11,720
894240,894.24,720
894370,894.37,20
894510,894.51,720
894640,894.64,720
894770,894.77,720
894900,894.9,720
895110,895.11,720
895250,895.25,720
895390,895.39,720
895520,895.52,720
895650,895.65,720
895780,895.78,720
895910,895.91,328
896120,896.12,720
896250,896.25,720
896380,896.38,544
896510,896.51,720
896640,896.64,720
896810,896.81,526
896940,896.94,720
897120,897.12,720
897250,897.25,720
897380,897.38,720
897510,897.51,720
897640,897.64,720
897770,897.77,20
897900,897.9,720
898120,898.12,720
898260,898.26,720
898390,898.39,720
898520,898.52,620
898650,898.65,305
898780,898.78,20
898910,898.91,20
899130,899.13,409
899260,899.26,720
899400,899.4,20
899530,899.53,20
899680,899.68,20
899810,899.81,20
899950,899.95,720
900130,900.13,720
900260,900.26,720
900390,900.39,720
900790,900.79,20
900920,900.92,20
901140,901.14,20
901280,901.28,20
901410,901.41,20
901540,901.54,20
901670,901.67,20
901800,901.8,20
901930,901.93,20
902130,902.13,151
902270,902.27,20
902400,902.4,20
902540,902.54,20
902670,902.67,20
902800,902.8,20
902930,902.93,20
903140,903.14,20
903270,903.27,20
903400,903.4,20
903560,903.56,20
903690,903.69,20
903820,903.82,20
903960,903.96,20
904140,904.14,20
904270,904.27,20
904400,904.4,20
904530,904.53,20
904660,904.66,20
904800,904.8,20
904930,904.93,720
905150,905.15,20
905280,905.28,20
905420,905.42,20
905550,905.55,20
905680,905.68,20
905810,905.81,20
905940,905.94,20
906070,906.07,20
906200,906.2,20
906330,906.33,20
906470,906.47,20
906600,906.6,20
906740,906.74,20
906900,906.9,20
907030,907.03,20
907160,907.16,20
907290,907.29,20
907420,907.42,20
907550,907.55,20
907680,907.68,20
907810,907.81,20
907940,907.94,20
908080,908.08,20
908210,908.21,20
908350,908.35,20
908490,908.49,20
908620,908.62,20
908760,908.76,20
908890,908.89,20
909020,909.02,20
909150,909.15,20
909280,909.28,20
909420,909.42,20
909550,909.55,20
909680,909.68,20
909810,909.81,20
909940,909.94,20
910100,910.1,20
910230,910.23,20
910360,910.36,20
910490,910.49,20
910620,910.62,20
910760,910.76,20
910890,910.89,20
911020,911.02,20
911150,911.15,20
911280,911.28,20
911410,911.41,20
911540,911.54,20
911670,911.67,20
911800,911.8,20
911930,911.93,20
912070,912.07,20
912200,912.2,20
912330,912.33,20
912470,912.47,20
912600,912.6,20
912730,912.73,20
912860,912.86,20
912990,912.99,20
913120,913.12,20
913290,913.29,20
913430,913.43,20
913560,913.56,20
913690,913.69,20
913820,913.82,20
913950,913.95,20
914090,914.09,20
914220,914.22,20
914360,914.36,20
914490,914.49,20
914620,914.62,20
914760,914.76,20
914890,914.89,20
915020,915.02,20
915180,915.18,20
915310,915.31,20
915440,915.44,20
915570,915.57,20
915700,915.7,20
915830,915.83,20
916180,916.18,20
916320,916.32,20
916450,916.45,20
916580,916.58,20
916740,916.74,20
916870,916.87,20
917180,917.18,20
917310,917.31,20
917440,917.44,20
917570,917.57,20
917700,917.7,20
917840,917.84,20
917990,917.99,20
918190,918.19,20
918320,918.32,20
918450,918.45,20
918580,918.58,20
918710,918.71,20
918840,918.84,20
918980,918.98,20
919190,919.19,20
919340,919.34,20
919490,919.49,20
919620,919.62,20
919750,919.75,20
919880,919.88,20
920010,920.01,20
920190,920.19,20
920350,920.35,20
920490,920.49,20
920620,920.62,20
920760,920.76,20
920890,920.89,20
921020,921.02,20
921200,921.2,20
921330,921.33,20
921470,921.47,20
921600,921.6,20
921960,921.96,20
922090,922.09,20
922220,922.22,20
922360,922.36,20
922490,922.49,20
922620,922.62,20
922760,922.76,20
922890,922.89,20
923020,923.02,20
923170,923.17,20
923300,923.3,20
923430,923.43,20
923880,923.88,20
924010,924.01,20
924140,924.14,20
924280,924.28,20
924410,924.41,20
924540,924.54,20
924690,924.69,20
924820,924.82,20
924950,924.95,20
925090,925.09,20
925220,925.22,20
925350,925.35,20
925480,925.48,20
925610,925.61,20
925740,925.74,20
925880,925.88,20
926010,926.01,20
926210,926.21,20
926340,926.34,20
926480,926.48,20
926610,926.61,20
926740,926.74,20
926870,926.87,566
927030,927.03,26
927220,927.22,720
927350,927.35,20
927480,927.48,720
927610,927.61,20
927740,927.74,25
927890,927.89,720
928020,928.02,20
928220,928.22,20
928350,928.35,20
928480,928.48,20
928610,928.61,20
928740,928.74,20
928870,928.87,20
929000,929,20
929220,929.22,720
929360,929.36,720
929490,929.49,720
929620,929.62,148
929750,929.75,148
929880,929.88,720
930010,930.01,23
930230,930.23,25
930370,930.37,720
930530,930.53,308
930670,930.67,720
930810,930.81,720
930940,930.94,720
931070,931.07,720
931230,931.23,720
931360,931.36,720
931490,931.49,720
931620,931.62,720
931750,931.75,720
931880,931.88,720
932010,932.01,720
932250,932.25,720
932380,932.38,720
932510,932.51,720
932650,932.65,720
932780,932.78,720
932910,932.91,720
933040,933.04,720
933190,933.19,720
933320,933.32,20
933460,933.46,20
933600,933.6,20
933760,933.76,20
933890,933.89,20
934030,934.03,20
934170,934.17,720
934300,934.3,20
934430,934.43,20
934560,934.56,20
934700,934.7,20
934830,934.83,20
934970,934.97,20
935100,935.1,20
935230,935.23,20
935360,935.36,20
935490,935.49,20
935620,935.62,20
935750,935.75,720
935880,935.88,20
936010,936.01,20
936140,936.14,20
936280,936.28,20
936410,936.41,20
936540,936.54,20
936690,936.69,20
936820,936.82,20
936980,936.98,20
937110,937.11,20
937250,937.25,20
937380,937.38,20
937510,937.51,20
937650,937.65,720
937780,937.78,20
937910,937.91,20
938040,938.04,20
938190,938.19,20
938320,938.32,20
938450,938.45,20
938580,938.58,20
938720,938.72,20
938850,938.85,20
939000,939,20
939130,939.13,20
939260,939.26,20
939390,939.39,20
939520,939.52,20
939650,939.65,20
939780,939.78,20
939910,939.91,20
940040,940.04,20
940220,940.22,20
940360,940.36,20
940490,940.49,20
940620,940.62,20
940750,940.75,20
940880,940.88,20
941010,941.01,20
941140,941.14,20
941270,941.27,20
941400,941.4,720
941530,941.53,720
941680,941.68,720
941810,941.81,720
941940,941.94,720
942070,942.07,720
942200,942.2,720
942470,942.47,720
942600,942.6,720
942730,942.73,720
942860,942.86,720
943000,943,720
943140,943.14,720
943310,943.31,720
943440,943.44,720
943570,943.57,720
943700,943.7,720
943830,943.83,720
943960,943.96,720
944090,944.09,720
944220,944.22,720
944360,944.36,720
944490,944.49,720
944620,944.62,720
944890,944.89,720
945020,945.02,720
945300,945.3,720
945440,945.44,720
945570,945.57,720
945860,945.86,720
946000,946,720
946130,946.13,720
946270,946.27,720
946410,946.41,720
946570,946.57,720
947990,947.99,720
948700,948.7,720
948830,948.83,720
948960,948.96,20
949230,949.23,720
949360,949.36,720
949630,949.63,720
949760,949.76,720
949930,949.93,720
950480,950.48,720
950620,950.62,720
950750,950.75,720
950880,950.88,720
951020,951.02,720
951150,951.15,720
951290,951.29,720
951420,951.42,720
951550,951.55,720
952710,952.71,720
953000,953,720
953130,953.13,720
953270,953.27,720
953410,953.41,720
953540,953.54,720
953690,953.69,720
953820,953.82,720
953950,953.95,720
954090,954.09,720
954220,954.22,720
957930,957.93,720
958070,958.07,720
958360,958.36,720
958500,958.5,720
958640,958.64,720
959060,959.06,720
959200,959.2,720
959340,959.34,720
959480,959.48,720
959790,959.79,720
959930,959.93,720
960070,960.07,720
960210,960.21,720
960780,960.78,720
